{"protocolSection":{"identificationModule":{"nctId":"NCT05392114","orgStudyIdInfo":{"id":"ISIS 721744-CS7"},"secondaryIdInfos":[{"id":"2022-000757-93","type":"EUDRACT_NUMBER"}],"organization":{"fullName":"Ionis Pharmaceuticals, Inc.","class":"INDUSTRY"},"briefTitle":"A Study to Assess the Long-Term Safety and Efficacy of Donidalorsen in the Prophylactic Treatment of Hereditary Angioedema (HAE)","officialTitle":"An Open-Label, Long Term Safety and Efficacy Study of Donidalorsen in the Prophylactic Treatment of Hereditary Angioedema (HAE)"},"statusModule":{"statusVerifiedDate":"2025-12","overallStatus":"ACTIVE_NOT_RECRUITING","expandedAccessInfo":{"hasExpandedAccess":true,"nctId":"NCT06415448","statusForNctId":"AVAILABLE"},"startDateStruct":{"date":"2022-07-13","type":"ACTUAL"},"primaryCompletionDateStruct":{"date":"2026-12","type":"ESTIMATED"},"completionDateStruct":{"date":"2027-03","type":"ESTIMATED"},"studyFirstSubmitDate":"2022-05-23","studyFirstSubmitQcDate":"2022-05-23","studyFirstPostDateStruct":{"date":"2022-05-26","type":"ACTUAL"},"lastUpdateSubmitDate":"2025-12-05","lastUpdatePostDateStruct":{"date":"2025-12-12","type":"ACTUAL"}},"sponsorCollaboratorsModule":{"responsibleParty":{"type":"SPONSOR"},"leadSponsor":{"name":"Ionis Pharmaceuticals, Inc.","class":"INDUSTRY"}},"oversightModule":{"oversightHasDmc":false,"isFdaRegulatedDrug":true,"isFdaRegulatedDevice":false},"descriptionModule":{"briefSummary":"The purpose of this study is to evaluate the long-term safety and efficacy of donidalorsen in people with HAE and the effects of donidalorsen on the number of HAE attacks and their impact on quality of life (QoL).","detailedDescription":"This is a Phase 3, multi-center, open-label, global study with donidalorsen in up to approximately 144 participants with HAE-1 (Type I) and HAE-2 (Type II). There are two groups in this study: 1) participants who roll over from another study of donidalorsen (open-label extension \\[OLE\\] participants), and 2) new participants who are not rolling over from another study of donidalorsen and were previously maintained on HAE prophylactic therapy with lanadelumab, berotralstat, or a C1-esterase inhibitor (C1-INH). The length of participation in the study is approximately 70 weeks for OLE participants and 76 weeks for other participants. Participants will receive donidalorsen in an Extended Treatment Period for up to an additional 104 weeks."},"conditionsModule":{"conditions":["Hereditary Angioedema"],"keywords":["HAE"]},"designModule":{"studyType":"INTERVENTIONAL","phases":["PHASE3"],"designInfo":{"allocation":"NA","interventionModel":"SINGLE_GROUP","primaryPurpose":"TREATMENT","maskingInfo":{"masking":"NONE"}},"enrollmentInfo":{"count":154,"type":"ACTUAL"}},"armsInterventionsModule":{"armGroups":[{"label":"OLE Participants","type":"EXPERIMENTAL","description":"Group 1 and Group 2 participants will be administered donidalorsen by SC injection for up to 157 weeks.","interventionNames":["Drug: Donidalorsen"]}],"interventions":[{"type":"DRUG","name":"Donidalorsen","description":"Donidalorsen will be administered by SC injection.","armGroupLabels":["OLE Participants"],"otherNames":["ISIS 721744","IONIS-PKK-LRx"]}]},"outcomesModule":{"primaryOutcomes":[{"measure":"Percentage of Participants with at Least One Treatment-emergent Adverse Event (TEAE), Graded by Severity","timeFrame":"Up to approximately 70 weeks, plus 104 weeks for Group 1; up to approximately 76 weeks, plus 104 weeks for Group 2"}],"secondaryOutcomes":[{"measure":"Time-normalized Number of Investigator-confirmed HAE Attacks (per Month)","timeFrame":"Week 1 to Week 157 for Group 1 and Group 2"},{"measure":"Percentage of Investigator-confirmed HAE Attack-free Participants","timeFrame":"Week 1 to Week 157 for Group 1 and Group 2"},{"measure":"Time-normalized Number of Moderate or Severe Investigator-confirmed HAE Attacks (per Month)","timeFrame":"Week 1 to Week 157 for Group 1 and Group 2"},{"measure":"Number of Investigator-confirmed HAE Attacks Requiring Acute Therapy","timeFrame":"Week 1 to Week 157 for Group 1 and Group 2"},{"measure":"Angioedema Quality of Life (AE-QoL) Questionnaire Total Score","description":"The AE-QoL questionnaire is a validated tool to assess symptom-specific health-related QOL impairment in participants suffering from recurrent angioedema. The AE-QoL is a self-administered questionnaire comprising 17 questions across 4 domains: functioning, fatigue/mood, fears/shame, and food. The responses are scored from 1 to 5 where, 1 = never, 2 = rarely, 3 = sometimes, 4 = often, 5 = very often. Total and domain scores range from 0 to 100, with higher scores indicating greater impairment.","timeFrame":"Up to 157 weeks for Group 1 and Group 2"}]},"eligibilityModule":{"eligibilityCriteria":"Inclusion Criteria\n\n1. Participants and, as applicable, legally authorized representatives (i.e., parent(s)/legal guardian), must provide written and signed informed consent form (ICF).\n2. Participants must have access to, and the ability to use, ≥ 1 acute medication(s) (e.g., plasma-derived or recombinant C1-INH concentrate or a bradykinin receptor (BK) 2-receptor antagonist) to treat angioedema attacks.\n\n   Open-Label Extension Participants ONLY:\n3. Satisfactory completion of ISIS 721744-CS5 (randomized placebo-controlled index study) through Week 25 or participants who are allowed to exit ISIS 721744-CS5 study per protocol with an acceptable safety and tolerability profile.\n\n   New (not previously on donidalorsen) Participants ONLY:\n4. Participants must be aged ≥ 12 years at the time of informed consent and, as applicable, assent.\n5. Participants must have a documented diagnosis of HAE-1/HAE-2.\n6. Participants must be on a stable dose (≥ 12 weeks) of prophylaxis treatment with lanadelumab or berotralstat or SC C1-esterase inhibitor prior to the Screening Period.\n\nExclusion Criteria\n\nOpen-Label Extension Participants:\n\n1. Have any new condition or worsening of an existing condition or change or anticipated change in medication.\n\n   New (not previously on donidalorsen) Participants ONLY:\n2. Concurrent diagnosis of any other type of recurrent angioedema, including acquired, idiopathic angioedema or HAE with normal C1-INH (also known as HAE Type III).\n3. Anticipated change in the use of concurrent androgen or tranexamic acid prophylaxis used to prevent angioedema attacks.\n4. Any clinically-significant abnormalities in screening laboratory values.\n5. Malignancy within 5 years of Screening, except for non-melanoma skin cancers, cervical in situ carcinoma, breast ductal carcinoma in situ, or stage 1 prostate carcinoma that has been successfully treated.\n6. Hypersensitivity to the active substance (donidalorsen) or to any of the excipients.\n7. Treatment with another investigational drug (non-oligonucleotide) or biological agent within 1 month of Screening or 5 half-lives of investigational agent, whichever is longer.\n8. Recent history of, or current drug or alcohol abuse.\n9. Participated in a prior donidalorsen study.\n10. Exposure to any of the following medications:\n\n    1. Angiotensin-converting enzyme (ACE) inhibitors or any estrogen containing medications with systemic absorption.\n    2. Oligonucleotides (including small interfering ribonucleic acid \\[siRNA\\]) within 4 months of Screening if single dose received, or within 12 months of Screening if multiple doses received. This exclusion does not apply to vaccines.","healthyVolunteers":false,"sex":"ALL","minimumAge":"12 Years","stdAges":["CHILD","ADULT","OLDER_ADULT"]},"contactsLocationsModule":{"locations":[{"facility":"Ionis Investigative Site","city":"Paradise Valley","state":"Arizona","zip":"85253","country":"United States","geoPoint":{"lat":33.53115,"lon":-111.94265}},{"facility":"Ionis Investigative Site","city":"La Jolla","state":"California","zip":"92037","country":"United States","geoPoint":{"lat":32.84727,"lon":-117.2742}},{"facility":"Ionis Investigative Site","city":"Santa Monica","state":"California","zip":"90404","country":"United States","geoPoint":{"lat":34.01949,"lon":-118.49138}},{"facility":"Ionis Investigative Site","city":"Walnut Creek","state":"California","zip":"94598","country":"United States","geoPoint":{"lat":37.90631,"lon":-122.06496}},{"facility":"Ionis Investigative Site","city":"Tampa","state":"Florida","zip":"33613","country":"United States","geoPoint":{"lat":27.94752,"lon":-82.45843}},{"facility":"Ionis Investigative Site","city":"Kansas City","state":"Kansas","zip":"66103","country":"United States","geoPoint":{"lat":39.11417,"lon":-94.62746}},{"facility":"Ionis Investigative Site","city":"Boston","state":"Massachusetts","zip":"02114","country":"United States","geoPoint":{"lat":42.35843,"lon":-71.05977}},{"facility":"Ionis Investigative Site","city":"Ann Arbor","state":"Michigan","zip":"48109","country":"United States","geoPoint":{"lat":42.27756,"lon":-83.74088}},{"facility":"Ionis Investigative Site","city":"Detroit","state":"Michigan","zip":"48202","country":"United States","geoPoint":{"lat":42.33143,"lon":-83.04575}},{"facility":"Ionis Investigative Site","city":"St Louis","state":"Missouri","zip":"63141","country":"United States","geoPoint":{"lat":38.62727,"lon":-90.19789}},{"facility":"Ionis Investigative Site","city":"Mooresville","state":"North Carolina","zip":"28117","country":"United States","geoPoint":{"lat":35.58486,"lon":-80.81007}},{"facility":"Ionis Investigative Site","city":"Cincinnati","state":"Ohio","zip":"45236","country":"United States","geoPoint":{"lat":39.12711,"lon":-84.51439}},{"facility":"Ionis Investigative Site","city":"Columbus","state":"Ohio","zip":"43235","country":"United States","geoPoint":{"lat":39.96118,"lon":-82.99879}},{"facility":"Ionis Investigative Site","city":"Hershey","state":"Pennsylvania","zip":"17033","country":"United States","geoPoint":{"lat":40.28592,"lon":-76.65025}},{"facility":"Ionis Investigative Site","city":"Dallas","state":"Texas","zip":"75231","country":"United States","geoPoint":{"lat":32.78306,"lon":-96.80667}},{"facility":"Ionis Investigative Site","city":"Murray","state":"Utah","zip":"84107","country":"United States","geoPoint":{"lat":40.66689,"lon":-111.88799}},{"facility":"Ionis Investigative Site","city":"Edegem","zip":"2650","country":"Belgium","geoPoint":{"lat":51.15662,"lon":4.44504}},{"facility":"Ionis Investigative Site","city":"Sofia","zip":"1431","country":"Bulgaria","geoPoint":{"lat":42.69751,"lon":23.32415}},{"facility":"Ionis Investigative Site","city":"Sofia","zip":"1680","country":"Bulgaria","geoPoint":{"lat":42.69751,"lon":23.32415}},{"facility":"Ionis Investigative Site","city":"Ottawa","state":"Ontario","zip":"K1H 1E4","country":"Canada","geoPoint":{"lat":45.41117,"lon":-75.69812}},{"facility":"Ionis Investigative Site","city":"Edmonton","zip":"AB T6G 1Z1","country":"Canada","geoPoint":{"lat":53.55014,"lon":-113.46871}},{"facility":"Ionis Investigative Site","city":"La Tronche","zip":"38700","country":"France","geoPoint":{"lat":45.20507,"lon":5.74629}},{"facility":"Ionis Investigative Site","city":"Marseille","zip":"13385","country":"France","geoPoint":{"lat":43.29695,"lon":5.38107}},{"facility":"Ionis Investigative Site","city":"Paris","zip":"75012","country":"France","geoPoint":{"lat":48.85341,"lon":2.3488}},{"facility":"Ionis Investigative Site","city":"Berlin","zip":"12203","country":"Germany","geoPoint":{"lat":52.52437,"lon":13.41053}},{"facility":"Ionis Investigative Site","city":"Frankfurt","zip":"60590","country":"Germany","geoPoint":{"lat":49.68333,"lon":10.53333}},{"facility":"Ionis Investigative Site","city":"München","zip":"81675","country":"Germany","geoPoint":{"lat":51.60698,"lon":13.31243}},{"facility":"Ionis Investigative Site","city":"Ashkelon","zip":"7830604","country":"Israel","geoPoint":{"lat":31.66926,"lon":34.57149}},{"facility":"Ionis Investigative Site","city":"Haifa","zip":"3104802","country":"Israel","geoPoint":{"lat":32.81303,"lon":34.99928}},{"facility":"Ionis Investigative Site","city":"Tel Aviv","zip":"6423906","country":"Israel","geoPoint":{"lat":32.08088,"lon":34.78057}},{"facility":"Ionis Investigative Site","city":"Catania","zip":"95123","country":"Italy","geoPoint":{"lat":37.49223,"lon":15.07041}},{"facility":"Ionis Investigative Site","city":"Napoli","zip":"80131","country":"Italy","geoPoint":{"lat":40.87618,"lon":14.5195}},{"facility":"Ionis Investigative Site","city":"Padua","zip":"35128","country":"Italy","geoPoint":{"lat":45.40797,"lon":11.88586}},{"facility":"Ionis Investigative Site","city":"Palermo","zip":"90146","country":"Italy","geoPoint":{"lat":38.1166,"lon":13.3636}},{"facility":"Ionis Investigative Site","city":"San Donato Milanese","zip":"20097","country":"Italy","geoPoint":{"lat":45.41047,"lon":9.26838}},{"facility":"Ionis Investigative Site","city":"Amsterdam","zip":"1105","country":"Netherlands","geoPoint":{"lat":52.37403,"lon":4.88969}},{"facility":"Ionis Investigative Site","city":"Groningen","zip":"9713 AP","country":"Netherlands","geoPoint":{"lat":53.21917,"lon":6.56667}},{"facility":"Ionis Investigative Site","city":"Krakow","zip":"31-501","country":"Poland","geoPoint":{"lat":50.06143,"lon":19.93658}},{"facility":"Ionis Investigative Site","city":"San Juan","zip":"PR 00927","country":"Puerto Rico","geoPoint":{"lat":18.46633,"lon":-66.10572}},{"facility":"Ionis Investigative Site","city":"Barcelona","zip":"08035","country":"Spain","geoPoint":{"lat":41.38879,"lon":2.15899}},{"facility":"Ionis Investigative Site","city":"Barcelona","zip":"08907","country":"Spain","geoPoint":{"lat":41.38879,"lon":2.15899}},{"facility":"Ionis Investigative Site","city":"Madrid","zip":"28046","country":"Spain","geoPoint":{"lat":40.4165,"lon":-3.70256}},{"facility":"Ionis Investigative Site","city":"Seville","zip":"41013","country":"Spain","geoPoint":{"lat":37.38283,"lon":-5.97317}},{"facility":"Ionis Investigative Site","city":"Valencia","zip":"46026","country":"Spain","geoPoint":{"lat":39.47391,"lon":-0.37966}},{"facility":"Ionis Investigative Site","city":"Altındağ","zip":"06230","country":"Turkey (Türkiye)","geoPoint":{"lat":37.09145,"lon":37.70324}},{"facility":"Ionis Investigative Site","city":"Bornova","zip":"35100","country":"Turkey (Türkiye)","geoPoint":{"lat":38.47921,"lon":27.2399}},{"facility":"Ionis Investigative Site","city":"Istanbul","zip":"34093","country":"Turkey (Türkiye)","geoPoint":{"lat":41.01384,"lon":28.94966}},{"facility":"Ionis Investigative Site","city":"Birmingham","zip":"B9 5SS","country":"United Kingdom","geoPoint":{"lat":52.48142,"lon":-1.89983}},{"facility":"Ionis Investigative Site","city":"Bristol","zip":"BS10 5NB","country":"United Kingdom","geoPoint":{"lat":51.45523,"lon":-2.59665}},{"facility":"Ionis Investigative Site","city":"London","zip":"E1 2ES","country":"United Kingdom","geoPoint":{"lat":51.50853,"lon":-0.12574}}]},"referencesModule":{"references":[{"pmid":"40673861","type":"DERIVED","citation":"Riedl MA, Bernstein JA, Jacobs JS, Craig T, Banerji A, Perego F, Lumry WR, Wedner HJ, Gierer S, Manning ME, Bordone L, Treadwell S, Lin T, Newman KB, Yarlas A, Cohn DM. Donidalorsen Treatment of Hereditary Angioedema in Patients Previously on Long-Term Prophylaxis. J Allergy Clin Immunol Pract. 2025 Sep;13(9):2381-2389.e3. doi: 10.1016/j.jaip.2025.06.018. Epub 2025 Jul 17."}]},"ipdSharingStatementModule":{"ipdSharing":"YES","description":"Ionis may share anonymized individual participant data, aggregated clinical data, and other types of data that support the results in this study. Data requests from qualified researchers will be considered once all three of the following criteria are met: (1) 12 months from marketing approval of the study drug in both the United States and European Union; (2) 18 months from conclusion of the study; and (3) 6 months from publication of study article. Access would be via a secure environment and is contingent upon approval of a research proposal and entry into an appropriate data use agreement. Requests to access data can be submitted via the website https://vivli.org/ourmember/ionis/."}},"derivedSection":{"miscInfoModule":{"versionHolder":"2026-02-25"},"conditionBrowseModule":{"meshes":[{"id":"D054179","term":"Angioedemas, Hereditary"}],"ancestors":[{"id":"D000799","term":"Angioedema"},{"id":"D014652","term":"Vascular Diseases"},{"id":"D002318","term":"Cardiovascular Diseases"},{"id":"D000081208","term":"Hereditary Complement Deficiency Diseases"},{"id":"D000081207","term":"Primary Immunodeficiency Diseases"},{"id":"D030342","term":"Genetic Diseases, Inborn"},{"id":"D009358","term":"Congenital, Hereditary, and Neonatal Diseases and Abnormalities"},{"id":"D014581","term":"Urticaria"},{"id":"D017445","term":"Skin Diseases, Vascular"},{"id":"D012871","term":"Skin Diseases"},{"id":"D017437","term":"Skin and Connective Tissue Diseases"},{"id":"D006969","term":"Hypersensitivity, Immediate"},{"id":"D006967","term":"Hypersensitivity"},{"id":"D007154","term":"Immune System Diseases"},{"id":"D007153","term":"Immunologic Deficiency Syndromes"}]},"interventionBrowseModule":{"meshes":[{"id":"C000723381","term":"donidalorsen"},{"id":"C000711268","term":"IONIS-PKK-LRx"}]}},"hasResults":false}