{"protocolSection":{"identificationModule":{"nctId":"NCT04663308","orgStudyIdInfo":{"id":"VLX-301"},"secondaryIdInfos":[{"id":"2020-003027-41","type":"EUDRACT_NUMBER"},{"id":"2023-505764-11-00","type":"OTHER","domain":"EUCT number"}],"organization":{"fullName":"Mirum Pharmaceuticals, Inc.","class":"INDUSTRY"},"briefTitle":"A Study to Evaluate Efficacy and Safety of an Investigational Drug Named Volixibat in Patients With Itching Caused by Primary Sclerosing Cholangitis (PSC)","officialTitle":"A Randomized Double-Blind Placebo-Controlled Study to Evaluate the Efficacy and Safety of Volixibat in the Treatment of Cholestatic Pruritus in Patients With Primary Sclerosing Cholangitis","acronym":"VISTAS"},"statusModule":{"statusVerifiedDate":"2026-02","overallStatus":"ACTIVE_NOT_RECRUITING","expandedAccessInfo":{"hasExpandedAccess":false},"startDateStruct":{"date":"2020-12-18","type":"ACTUAL"},"primaryCompletionDateStruct":{"date":"2026-06","type":"ESTIMATED"},"completionDateStruct":{"date":"2027-04","type":"ESTIMATED"},"studyFirstSubmitDate":"2020-11-17","studyFirstSubmitQcDate":"2020-12-09","studyFirstPostDateStruct":{"date":"2020-12-11","type":"ACTUAL"},"lastUpdateSubmitDate":"2026-02-02","lastUpdatePostDateStruct":{"date":"2026-02-04","type":"ACTUAL"}},"sponsorCollaboratorsModule":{"responsibleParty":{"type":"SPONSOR"},"leadSponsor":{"name":"Mirum Pharmaceuticals, Inc.","class":"INDUSTRY"}},"oversightModule":{"isFdaRegulatedDrug":true,"isFdaRegulatedDevice":false},"descriptionModule":{"briefSummary":"The purpose of this clinical research study is to learn more about the use of the study medicine, volixibat, for the treatment of pruritus (itching) associated with Primary Sclerosing Cholangitis (PSC), and to assess the possible impact on the disease progression of PSC."},"conditionsModule":{"conditions":["Primary Sclerosing Cholangitis"],"keywords":["Pruritus","PSC","Itch","Itching","Cholestasis"]},"designModule":{"studyType":"INTERVENTIONAL","phases":["PHASE2"],"designInfo":{"allocation":"RANDOMIZED","interventionModel":"PARALLEL","primaryPurpose":"TREATMENT","maskingInfo":{"masking":"DOUBLE","whoMasked":["PARTICIPANT","INVESTIGATOR"]}},"enrollmentInfo":{"count":182,"type":"ACTUAL"}},"armsInterventionsModule":{"armGroups":[{"label":"Part 1 Arm 1: Volixibat 20mg","type":"EXPERIMENTAL","description":"Participants randomized to this arm will receive volixibat 20mg twice daily.","interventionNames":["Drug: Volixibat"]},{"label":"Part 1 Arm 2: Volixibat 80mg","type":"EXPERIMENTAL","description":"Participants randomized to this arm will receive volixibat 80mg twice daily.","interventionNames":["Drug: Volixibat"]},{"label":"Part 1 Arm 3: Placebo","type":"PLACEBO_COMPARATOR","description":"Participants in this arm will receive capsules matched to the study drug minus the active volixibat substance, twice daily.","interventionNames":["Drug: Placebo"]},{"label":"Part 2 Arm 1: Volixibat Selected Dose 20mg","type":"EXPERIMENTAL","description":"Participants randomized to this arm will receive volixibat 20mg twice daily.","interventionNames":["Drug: Volixibat"]},{"label":"Part 2 Arm 2: Placebo","type":"PLACEBO_COMPARATOR","description":"Participants in this arm will receive capsules matched to the study drug minus the active volixibat substance, twice daily.","interventionNames":["Drug: Placebo"]}],"interventions":[{"type":"DRUG","name":"Volixibat","description":"Oral capsules, administered twice daily. Volixibat is an Ileal Bile Acid Transporter (IBAT) inhibitor.","armGroupLabels":["Part 1 Arm 1: Volixibat 20mg","Part 1 Arm 2: Volixibat 80mg","Part 2 Arm 1: Volixibat Selected Dose 20mg"],"otherNames":["SHP626"]},{"type":"DRUG","name":"Placebo","description":"Capsules matched to study drug minus active substance","armGroupLabels":["Part 1 Arm 3: Placebo","Part 2 Arm 2: Placebo"]}]},"outcomesModule":{"primaryOutcomes":[{"measure":"Mean change in the daily itch scores using the Adult Itch Reported Outcome (Adult ItchRO) questionnaire","description":"The Adult ItchRO is an 11-point NRS measurement of itch severity ranging from 0=no itch to 10=worst possible itch.","timeFrame":"Baseline through to Week 28"}],"secondaryOutcomes":[{"measure":"Proportion of participants with itch response using the Adult ItchRO","timeFrame":"Baseline through to Week 28"},{"measure":"The incidence of adverse events","timeFrame":"Baseline through to Week 28"},{"measure":"Changes in serum bile acid levels","timeFrame":"Baseline through to Week 28"},{"measure":"Changes in alkaline phosphatase","timeFrame":"Baseline through to Week 28"},{"measure":"Changes in total bilirubin levels","timeFrame":"Baseline through to Week 28"},{"measure":"Change in Primary Sclerosing Cholangitis-Specific Patient-Reported Outcome","timeFrame":"Baseline through to Week 28"},{"measure":"Change in Patient-Reported Outcomes Measurement Information System (PROMIS®) fatigue questionnaire","description":"The PROMIS® Fatigue questionnaire is a 5-point response scale. Respondents endorse each item using a 5-point response scale: Never, Rarely, Sometimes, Often, and Always.","timeFrame":"Baseline through to Week 28"},{"measure":"Change in Patient-Reported Outcomes Measurement Information System (PROMIS®) sleep disturbance questionnaire","description":"The PROMIS® Sleep Disturbance in an 8-item measure that assesses quality of sleep, sleep depth, and restoration associated with sleep. It is a 5-point response scale, the specific response options vary by items. The first 4 items use response options that range from Not at all to Very much. The next 3 items use response options that range from Never to Always. The final item assesses sleep quality ranging from Very poor to Very good.","timeFrame":"Baseline through to Week 28"}]},"eligibilityModule":{"eligibilityCriteria":"Inclusion Criteria:\n\n1. Provide freely signed informed consent and assent (as applicable) and be willing to comply with all study visits and requirements through end of study, including the follow-up period.\n2. Subjects aged ≥12 years for eligible regions; otherwise ≥18 years\n3. Confirmed diagnosis of large duct or small duct PSC based on American Association for the Study of Liver Disease (AASLD) guidelines.\n4. Pruritus associated with PSC as assessed by Adult ItchRO.\n5. Ursodeoxycholic acid (UDCA) and anti-pruritic medication use will be allowed if meeting additional criteria.\n6. Concomitant Inflammatory Bowel Disease (IBD) is allowed if meeting additional criteria.\n\nExclusion Criteria:\n\n1. Pruritus associated with an etiology other than PSC\n2. Evidence or clinical suspicion of decompensated cirrhosis, or a history of decompensation events\n3. History of ileostomy or small bowel surgery/resection or other surgeries that may have disrupted the enterohepatic circulation\n4. Evidence, history, or suspicion of other liver disease; PSC patients with AIH are not excluded.\n5. Bile duct stent or percutaneous bile duct drain placement, or balloon dilatation procedure of a stricture within 12 weeks of Screening\n6. Exceeding pre-defined biochemical values for alanine aminotransferase/aspartate aminotransferase (ALT/AST), estimated glomerular filtration rate (eGFR),serum creatinine (sCr), platelet count, international normalized ratio (INR) and total bilirubin\n7. History of liver transplantation","healthyVolunteers":false,"sex":"ALL","minimumAge":"12 Years","stdAges":["CHILD","ADULT","OLDER_ADULT"]},"contactsLocationsModule":{"locations":[{"facility":"Southern California Research Center","city":"Coronado","state":"California","zip":"92118","country":"United States","geoPoint":{"lat":32.68589,"lon":-117.18309}},{"facility":"Cedars Sinai Medical Center","city":"Los Angeles","state":"California","zip":"90048","country":"United States","geoPoint":{"lat":34.05223,"lon":-118.24368}},{"facility":"University of California, Davis","city":"Sacramento","state":"California","zip":"95817","country":"United States","geoPoint":{"lat":38.58157,"lon":-121.4944}},{"facility":"California Pacific Medical Center Research Institute","city":"San Francisco","state":"California","zip":"94109","country":"United States","geoPoint":{"lat":37.77493,"lon":-122.41942}},{"facility":"University of Colorado - Anschutz Medical Campus","city":"Aurora","state":"Colorado","zip":"80045","country":"United States","geoPoint":{"lat":39.72943,"lon":-104.83192}},{"facility":"MedStar Georgetown University Hospital","city":"Washington D.C.","state":"District of Columbia","zip":"20007","country":"United States","geoPoint":{"lat":38.89511,"lon":-77.03637}},{"facility":"Florida Research Institute","city":"Lakewood Rch","state":"Florida","zip":"34211","country":"United States","geoPoint":{"lat":27.3863,"lon":-82.4332}},{"facility":"University of Miami - Schiff Center for Liver Diseases","city":"Miami","state":"Florida","zip":"33136","country":"United States","geoPoint":{"lat":25.77427,"lon":-80.19366}},{"facility":"Tampa General Hospital","city":"Tampa","state":"Florida","zip":"33606","country":"United States","geoPoint":{"lat":27.94752,"lon":-82.45843}},{"facility":"Beth Israel Deaconess Medical Center","city":"Boston","state":"Massachusetts","zip":"02215","country":"United States","geoPoint":{"lat":42.35843,"lon":-71.05977}},{"facility":"Henry Ford Hospital","city":"Detroit","state":"Michigan","zip":"48202","country":"United States","geoPoint":{"lat":42.33143,"lon":-83.04575}},{"facility":"Mayo Clinic","city":"Rochester","state":"Minnesota","zip":"55905","country":"United States","geoPoint":{"lat":44.02163,"lon":-92.4699}},{"facility":"Southern Therapy and Advanced Research LLC","city":"Jackson","state":"Mississippi","zip":"39216","country":"United States","geoPoint":{"lat":32.29876,"lon":-90.18481}},{"facility":"Northwell Health","city":"Manhasset","state":"New York","zip":"11030","country":"United States","geoPoint":{"lat":40.79788,"lon":-73.69957}},{"facility":"New York University Langone Health","city":"New York","state":"New York","zip":"10016","country":"United States","geoPoint":{"lat":40.71427,"lon":-74.00597}},{"facility":"Weill Cornell Medical College","city":"New York","state":"New York","zip":"10021","country":"United States","geoPoint":{"lat":40.71427,"lon":-74.00597}},{"facility":"Columbia University Medical Center - Presbyterian Hospital and Vanderbilt Clinic","city":"New York","state":"New York","zip":"10032","country":"United States","geoPoint":{"lat":40.71427,"lon":-74.00597}},{"facility":"University of Rochester Medical Center - Strong Memorial Hospital","city":"Rochester","state":"New York","zip":"14642","country":"United States","geoPoint":{"lat":43.15478,"lon":-77.61556}},{"facility":"Duke Health - Duke University Medical Center","city":"Durham","state":"North Carolina","zip":"27710","country":"United States","geoPoint":{"lat":35.99403,"lon":-78.89862}},{"facility":"Science 37, Inc (Remote-homebased Telemedicine)","city":"Morrisville","state":"North Carolina","zip":"27560","country":"United States","geoPoint":{"lat":35.82348,"lon":-78.82556}},{"facility":"Cleveland Clinic","city":"Cleveland","state":"Ohio","zip":"44195","country":"United States","geoPoint":{"lat":41.4995,"lon":-81.69541}},{"facility":"Einstein Healthcare Network - Einstein Medical Center","city":"Philadelphia","state":"Pennsylvania","zip":"19141","country":"United States","geoPoint":{"lat":39.95238,"lon":-75.16362}},{"facility":"University of Pittsburgh Medical Center","city":"Pittsburgh","state":"Pennsylvania","zip":"15213","country":"United States","geoPoint":{"lat":40.44062,"lon":-79.99589}},{"facility":"Galen Medical Group","city":"Hixson","state":"Tennessee","zip":"37343","country":"United States","geoPoint":{"lat":35.14063,"lon":-85.23273}},{"facility":"Vanderbilt University Medical Center","city":"Nashville","state":"Tennessee","zip":"37232","country":"United States","geoPoint":{"lat":36.16589,"lon":-86.78444}},{"facility":"The Liver Institute At Methodist Dallas Medical Center","city":"Dallas","state":"Texas","zip":"75203","country":"United States","geoPoint":{"lat":32.78306,"lon":-96.80667}},{"facility":"University of Texas Southwestern Medical Center","city":"Dallas","state":"Texas","zip":"75390","country":"United States","geoPoint":{"lat":32.78306,"lon":-96.80667}},{"facility":"Houston Methodist Hospital","city":"Houston","state":"Texas","zip":"77030","country":"United States","geoPoint":{"lat":29.76328,"lon":-95.36327}},{"facility":"Liver Associates of Texas","city":"Houston","state":"Texas","zip":"77030","country":"United States","geoPoint":{"lat":29.76328,"lon":-95.36327}},{"facility":"University of Utah Health Care","city":"Salt Lake City","state":"Utah","zip":"84132","country":"United States","geoPoint":{"lat":40.76078,"lon":-111.89105}},{"facility":"Bon Secours Liver Institution of Hampton Roads Mary Immaculate Hospital Office","city":"Newport News","state":"Virginia","zip":"23603","country":"United States","geoPoint":{"lat":36.98038,"lon":-76.42975}},{"facility":"Richmond Community Hospital LLC","city":"Richmond","state":"Virginia","zip":"23226","country":"United States","geoPoint":{"lat":37.55376,"lon":-77.46026}},{"facility":"University of Washington - Harborview Medical Center","city":"Seattle","state":"Washington","zip":"98104","country":"United States","geoPoint":{"lat":47.60621,"lon":-122.33207}},{"facility":"Liver Institute Northwest","city":"Seattle","state":"Washington","zip":"98105","country":"United States","geoPoint":{"lat":47.60621,"lon":-122.33207}},{"facility":"Hospital Italiano de Buenos Aires","city":"Buenos Aires","zip":"C1199","country":"Argentina","geoPoint":{"lat":-34.61315,"lon":-58.37723}},{"facility":"Glenny Corp S.A.","city":"Ciudad Autónoma Buenos Aires","zip":"C1430","country":"Argentina"},{"facility":"Hospital El Cruce","city":"San Juan Bautista","zip":"B1888","country":"Argentina","geoPoint":{"lat":-34.80896,"lon":-58.27623}},{"facility":"Royal Adelaide Hospital","city":"Adelaide","zip":"5000","country":"Australia","geoPoint":{"lat":-34.92866,"lon":138.59863}},{"facility":"Northern Health","city":"Epping","zip":"VIC 3076","country":"Australia","geoPoint":{"lat":-37.65,"lon":145.03333}},{"facility":"Liverpool Hospital","city":"Liverpool","zip":"2170","country":"Australia","geoPoint":{"lat":-33.91938,"lon":150.92588}},{"facility":"Austin Health","city":"Melbourne","zip":"3084","country":"Australia","geoPoint":{"lat":-37.814,"lon":144.96332}},{"facility":"University of the Sunshine Coast","city":"Sippy Downs","zip":"4556","country":"Australia","geoPoint":{"lat":-26.71793,"lon":153.05475}},{"facility":"Cliniques Universitaires Saint-Luc","city":"Brussels","zip":"1200","country":"Belgium","geoPoint":{"lat":50.85045,"lon":4.34878}},{"facility":"Universitair Ziekenhuis Antwerpen (UZA)","city":"Ghent","zip":"9000","country":"Belgium","geoPoint":{"lat":51.05,"lon":3.71667}},{"facility":"University Hospital Ghent","city":"Ghent","zip":"9000","country":"Belgium","geoPoint":{"lat":51.05,"lon":3.71667}},{"facility":"Hospital das Clinicas da UFMG","city":"Belo Horizonte","zip":"30140-080","country":"Brazil","geoPoint":{"lat":-19.92083,"lon":-43.93778}},{"facility":"Hospital Das Clinicas Da Ufg","city":"Goiânia","zip":"74535-170","country":"Brazil","geoPoint":{"lat":-16.67861,"lon":-49.25389}},{"facility":"Hospital de Clinicas de Porto Alegre","city":"Porto Alegre","zip":"90035-903","country":"Brazil","geoPoint":{"lat":-30.03283,"lon":-51.23019}},{"facility":"Escola Bahiana de Medicina e Saude Publica","city":"Salvador","zip":"40290-000","country":"Brazil","geoPoint":{"lat":-12.97563,"lon":-38.49096}},{"facility":"Hospital do Rim e Hipertensao","city":"São Paulo","zip":"04038-002","country":"Brazil","geoPoint":{"lat":-23.5475,"lon":-46.63611}},{"facility":"University of Alberta","city":"Edmonton","state":"Alberta","zip":"T6G 2R3","country":"Canada","geoPoint":{"lat":53.55014,"lon":-113.46871}},{"facility":"McMaster University Hospital","city":"Hamilton","state":"Ontario","zip":"L8L 0A4","country":"Canada","geoPoint":{"lat":43.25011,"lon":-79.84963}},{"facility":"The Ottawa Hospital - General Campus","city":"Ottawa","state":"Ontario","country":"Canada","geoPoint":{"lat":45.41117,"lon":-75.69812}},{"facility":"University Health Network - Toronto General Hospital","city":"Toronto","state":"Ontario","zip":"M5G 2C4","country":"Canada","geoPoint":{"lat":43.70643,"lon":-79.39864}},{"facility":"University of Calgary","city":"Calgary","zip":"T2N 4Z6","country":"Canada","geoPoint":{"lat":51.05011,"lon":-114.08529}},{"facility":"London Health Sciences Centre University Hospital","city":"London","zip":"N6A 5A5","country":"Canada","geoPoint":{"lat":42.98339,"lon":-81.23304}},{"facility":"McGill University Health Centre - Royal Victoria Hospital","city":"Montreal","zip":"H4A 3J1","country":"Canada","geoPoint":{"lat":45.50884,"lon":-73.58781}},{"facility":"Centre Hospitalier Universitaire Grenoble Alpes (CHU Grenoble Alpes)","city":"Grenoble","zip":"38043","country":"France","geoPoint":{"lat":45.17869,"lon":5.71479}},{"facility":"Centre Hospitalier Universitaire De Lille","city":"Lille","zip":"59037","country":"France","geoPoint":{"lat":50.63391,"lon":3.05512}},{"facility":"APHP-Hôpital Saint Antoine","city":"Paris","zip":"75571","country":"France","geoPoint":{"lat":48.85341,"lon":2.3488}},{"facility":"CHU Bordeaux - Haut Lévêque","city":"Pessac","zip":"33600","country":"France","geoPoint":{"lat":44.80565,"lon":-0.6324}},{"facility":"Hannover Medical School","city":"Hanover","state":"Lower Saxony","zip":"30625","country":"Germany","geoPoint":{"lat":52.37052,"lon":9.73322}},{"facility":"Universitaetsklinikum Bonn","city":"Bonn","state":"Nordrhine-Westphalia","zip":"53127","country":"Germany","geoPoint":{"lat":50.73438,"lon":7.09549}},{"facility":"Charité Universtitätsmedizin - Campus Virchow-Klinikum","city":"Berlin","zip":"13353","country":"Germany","geoPoint":{"lat":52.52437,"lon":13.41053}},{"facility":"Universitaetsklinikum Erlangen","city":"Erlangen","zip":"91054","country":"Germany","geoPoint":{"lat":49.59099,"lon":11.00783}},{"facility":"Universitätsklinikum Schleswig-Holstein - Campus Kiel","city":"Kiel","zip":"24105","country":"Germany","geoPoint":{"lat":54.32133,"lon":10.13489}},{"facility":"Universitatsklinikum Leipzig","city":"Leipzig","zip":"04103","country":"Germany","geoPoint":{"lat":51.33962,"lon":12.37129}},{"facility":"Otto-von-Guericke-Universitat Magdeburg","city":"Magdeburg","zip":"39120","country":"Germany","geoPoint":{"lat":52.13129,"lon":11.63189}},{"facility":"University Hospital Tubingen Medical Clinic","city":"Tübingen","zip":"72076","country":"Germany","geoPoint":{"lat":48.52266,"lon":9.05222}},{"facility":"St. Josefs-Hospital Wiesbaden","city":"Wiesbaden","zip":"65189","country":"Germany","geoPoint":{"lat":50.08601,"lon":8.24435}},{"facility":"Hillel Yaffe Medical Center","city":"Hadera","zip":"38100","country":"Israel","geoPoint":{"lat":32.44192,"lon":34.9039}},{"facility":"Rambam Medical Center","city":"Haifa","zip":"3109601","country":"Israel","geoPoint":{"lat":32.81303,"lon":34.99928}},{"facility":"Carmel Medical Center","city":"Haifa","zip":"3434104","country":"Israel","geoPoint":{"lat":32.81303,"lon":34.99928}},{"facility":"Shaare Zedek Medical Center","city":"Jerusalem","zip":"9103102","country":"Israel","geoPoint":{"lat":31.76904,"lon":35.21633}},{"facility":"Hadassah Medical Center - Ein Karem","city":"Jerusalem","zip":"91120","country":"Israel","geoPoint":{"lat":31.76904,"lon":35.21633}},{"facility":"Galilee Medical Center","city":"Nahariya","zip":"2210001","country":"Israel","geoPoint":{"lat":33.00892,"lon":35.09814}},{"facility":"Rabin Medical Center","city":"Petah Tikva","zip":"4941492","country":"Israel","geoPoint":{"lat":32.08707,"lon":34.88747}},{"facility":"Sheba Medical Center","city":"Ramat Gan","zip":"52621","country":"Israel","geoPoint":{"lat":32.08227,"lon":34.81065}},{"facility":"Tel Aviv Sourasky Medical Center","city":"Tel Aviv","zip":"6423906","country":"Israel","geoPoint":{"lat":32.08088,"lon":34.78057}},{"facility":"Azienda Ospedaliero-Universitaria di Bologna - Policlinico S. Orsola-Malpighi","city":"Bologna","zip":"40138","country":"Italy","geoPoint":{"lat":44.49381,"lon":11.33875}},{"facility":"Fondazione IRCCS Ca Granda Ospedale Maggiore Policlinico","city":"Milan","zip":"20122","country":"Italy","geoPoint":{"lat":45.46427,"lon":9.18951}},{"facility":"ASST Grande Ospedale Metropolitano Niguarda","city":"Milan","zip":"20162","country":"Italy","geoPoint":{"lat":45.46427,"lon":9.18951}},{"facility":"Fondazione IRCCS San Gerardo dei Tintori","city":"Monza","zip":"20900","country":"Italy","geoPoint":{"lat":45.58005,"lon":9.27246}},{"facility":"A.O.U. Federico II","city":"Napoli","zip":"80131","country":"Italy","geoPoint":{"lat":40.87618,"lon":14.5195}},{"facility":"Azienda Ospedale Universita Padova","city":"Padua","zip":"35100","country":"Italy","geoPoint":{"lat":45.40797,"lon":11.88586}},{"facility":"Amsterdam UMC - VU Medisch Centrum (VUmc)","city":"Amsterdam","zip":"1081 HV","country":"Netherlands","geoPoint":{"lat":52.37403,"lon":4.88969}},{"facility":"Universitair Medisch Centrum Groningen","city":"Groningen","zip":"9713 GZ","country":"Netherlands","geoPoint":{"lat":53.21917,"lon":6.56667}},{"facility":"Radboud University Medical Centre (MC)","city":"Nijmegen","zip":"6525 GA","country":"Netherlands","geoPoint":{"lat":51.8425,"lon":5.85278}},{"facility":"Erasmus University Medical Center","city":"Rotterdam","zip":"3015 GD","country":"Netherlands","geoPoint":{"lat":51.9225,"lon":4.47917}},{"facility":"Hospital Clinic Barcelona","city":"Barcelona","zip":"08036","country":"Spain","geoPoint":{"lat":41.38879,"lon":2.15899}},{"facility":"Hospital General Universitario Gregorio Maranon","city":"Madrid","zip":"28007","country":"Spain","geoPoint":{"lat":40.4165,"lon":-3.70256}},{"facility":"University Hospital Zurich","city":"Zurich","zip":"8091","country":"Switzerland","geoPoint":{"lat":47.36667,"lon":8.55}},{"facility":"Royal Free Hospital","city":"London","state":"Hampstead","zip":"NW3 2QG","country":"United Kingdom","geoPoint":{"lat":51.50853,"lon":-0.12574}},{"facility":"John Radcliffe Hospital","city":"Oxford","state":"Headington","zip":"OX3 9DU","country":"United Kingdom","geoPoint":{"lat":51.75222,"lon":-1.25596}},{"facility":"Royal Victoria Hospital","city":"Belfast","zip":"BT12 6BA","country":"United Kingdom","geoPoint":{"lat":54.59682,"lon":-5.92541}},{"facility":"University Hospitals Birmingham NHS Foundation Trust - Wellcome Trust Birmingham Clinical Research Facility","city":"Birmingham","zip":"B15 2TH","country":"United Kingdom","geoPoint":{"lat":52.48142,"lon":-1.89983}},{"facility":"Cambridge University Hospitals NHS Foundation Trust - Addenbrooke's Hospital","city":"Cambridge","zip":"CB2 0QQ","country":"United Kingdom","geoPoint":{"lat":52.2,"lon":0.11667}},{"facility":"Lothian NHS Board","city":"Edinburgh","zip":"EH164SA","country":"United Kingdom","geoPoint":{"lat":55.95206,"lon":-3.19648}},{"facility":"St James' University Hospital Leeds Teaching Hospitals NHS Trust","city":"Leeds","zip":"LS9 7TF","country":"United Kingdom","geoPoint":{"lat":53.79648,"lon":-1.54785}},{"facility":"King's College Hospital NHS Foundation Trust","city":"London","zip":"SE5 9RS","country":"United Kingdom","geoPoint":{"lat":51.50853,"lon":-0.12574}},{"facility":"The Newcastle upon Tyne Hospitals NHS Foundation Trust - Royal Victoria Infirmary","city":"Newcastle upon Tyne","zip":"NE1 4LP","country":"United Kingdom","geoPoint":{"lat":54.97328,"lon":-1.61396}},{"facility":"Nottingham University Hospital NHS Trust","city":"Nottingham","zip":"NG7 2FT","country":"United Kingdom","geoPoint":{"lat":52.9536,"lon":-1.15047}},{"facility":"University Hospital Southampton NHS Foundation Trust","city":"Southampton","country":"United Kingdom","geoPoint":{"lat":50.90395,"lon":-1.40428}}]}},"derivedSection":{"miscInfoModule":{"versionHolder":"2026-02-25"},"conditionBrowseModule":{"meshes":[{"id":"D015209","term":"Cholangitis, Sclerosing"},{"id":"D011537","term":"Pruritus"},{"id":"D002779","term":"Cholestasis"}],"ancestors":[{"id":"D002761","term":"Cholangitis"},{"id":"D001649","term":"Bile Duct Diseases"},{"id":"D001660","term":"Biliary Tract Diseases"},{"id":"D004066","term":"Digestive System Diseases"},{"id":"D012871","term":"Skin Diseases"},{"id":"D017437","term":"Skin and Connective Tissue Diseases"},{"id":"D012877","term":"Skin Manifestations"},{"id":"D012816","term":"Signs and Symptoms"},{"id":"D013568","term":"Pathological Conditions, Signs and Symptoms"}]},"interventionBrowseModule":{"meshes":[{"id":"C000627853","term":"volixibat"}]}},"hasResults":false}