{"protocolSection":{"identificationModule":{"nctId":"NCT04136171","orgStudyIdInfo":{"id":"ION-682884-CS2"},"secondaryIdInfos":[{"id":"2019-002835-27","type":"EUDRACT_NUMBER"},{"id":"2024-514434-20-00","type":"CTIS"}],"organization":{"fullName":"Ionis Pharmaceuticals, Inc.","class":"INDUSTRY"},"briefTitle":"CARDIO-TTRansform: A Study to Evaluate the Efficacy and Safety of Eplontersen (Formerly Known as ION-682884, IONIS-TTR-LRx and AKCEA-TTR-LRx) in Participants With Transthyretin-Mediated Amyloid Cardiomyopathy (ATTR CM)","officialTitle":"A Phase 3 Global, Double-Blind, Randomized, Placebo-Controlled Study to Evaluate the Efficacy and Safety of ION-682884 in Patients With Transthyretin-Mediated Amyloid Cardiomyopathy (ATTR CM)"},"statusModule":{"statusVerifiedDate":"2025-08","overallStatus":"ACTIVE_NOT_RECRUITING","expandedAccessInfo":{"hasExpandedAccess":false},"startDateStruct":{"date":"2020-03-13","type":"ACTUAL"},"primaryCompletionDateStruct":{"date":"2026-04","type":"ESTIMATED"},"completionDateStruct":{"date":"2026-08","type":"ESTIMATED"},"studyFirstSubmitDate":"2019-10-21","studyFirstSubmitQcDate":"2019-10-21","studyFirstPostDateStruct":{"date":"2019-10-23","type":"ACTUAL"},"lastUpdateSubmitDate":"2025-08-06","lastUpdatePostDateStruct":{"date":"2025-08-08","type":"ACTUAL"}},"sponsorCollaboratorsModule":{"responsibleParty":{"type":"SPONSOR"},"leadSponsor":{"name":"Ionis Pharmaceuticals, Inc.","class":"INDUSTRY"},"collaborators":[{"name":"AstraZeneca","class":"INDUSTRY"}]},"oversightModule":{"oversightHasDmc":true,"isFdaRegulatedDrug":true,"isFdaRegulatedDevice":false,"isUsExport":true},"descriptionModule":{"briefSummary":"To evaluate the efficacy of eplontersen compared to placebo in participants with ATTR-CM receiving available standard of care (SoC).","detailedDescription":"This is a multicenter, double-blind study in 1438 participants, who will be randomized to receive subcutaneous (SC) injections of either eplontersen or placebo once every 4 weeks. Participants will also receive daily supplemental doses of the recommended daily allowance of vitamin A."},"conditionsModule":{"conditions":["Transthyretin-Mediated Amyloid Cardiomyopathy (ATTR CM)"],"keywords":["TTR","Amyloidosis","Cardiomyopathy"]},"designModule":{"studyType":"INTERVENTIONAL","phases":["PHASE3"],"designInfo":{"allocation":"RANDOMIZED","interventionModel":"PARALLEL","primaryPurpose":"TREATMENT","maskingInfo":{"masking":"DOUBLE","whoMasked":["PARTICIPANT","INVESTIGATOR"]}},"enrollmentInfo":{"count":1438,"type":"ACTUAL"}},"armsInterventionsModule":{"armGroups":[{"label":"Eplontersen","type":"EXPERIMENTAL","description":"Eplontersen by subcutaneous injection once every 4 weeks","interventionNames":["Drug: Eplontersen"]},{"label":"Placebo","type":"PLACEBO_COMPARATOR","description":"Eplontersen-matching placebo by subcutaneous injection once every 4 weeks","interventionNames":["Drug: Placebo"]}],"interventions":[{"type":"DRUG","name":"Eplontersen","description":"Eplontersen by subcutaneous injection","armGroupLabels":["Eplontersen"],"otherNames":["ION-682884","IONIS-TTR-LRx"]},{"type":"DRUG","name":"Placebo","description":"Eplontersen-matching placebo by subcutaneous injection","armGroupLabels":["Placebo"]}]},"outcomesModule":{"primaryOutcomes":[{"measure":"Composite Outcome of Cardiovascular (CV) Mortality and Recurrent CV Clinical Events up to Week 140","timeFrame":"Baseline up to Week 140"}],"secondaryOutcomes":[{"measure":"Change From Baseline in the 6-minute Walk Test (6MWT) Distance at Week 140","description":"The 6MWT is a submaximal exercise test that entails measurement of distance walked over a span of 6 minutes. The 6MWT provides information regarding functional capacity, response to therapy and prognosis across a range of chronic cardiopulmonary conditions.","timeFrame":"Baseline to Week 140"},{"measure":"Change From Baseline in the Kansas City Cardiomyopathy Questionnaire (KCCQ) Scores at Week 140","description":"The Kansas City Cardiomyopathy Questionnaire (KCCQ) is a 23-item self-administered questionnaire developed to independently measure the participant's perception of their health status, which includes heart failure symptoms, impact on physical and social function, and how their heart failure impacts their quality of life (QOL) within a 2-week recall period.\n\nThe KCCQ tool quantifies the following six (6) distinct domains and two (2) summary scores. KCCQ responses are provided along a rating scale continuum with equal spacing from worst to best, with a higher score equaling a better score.","timeFrame":"Baseline to Week 140"},{"measure":"Recurrent CV Clinical Events up to Week 140","timeFrame":"Baseline up to Week 140"},{"measure":"All-Cause Mortality up to Week 160","timeFrame":"Baseline up to Week 160"},{"measure":"All-Cause Mortality up to Week 140","timeFrame":"Baseline up to Week 140"},{"measure":"Composite Outcome of Cardiovascular (CV) Mortality and Recurrent CV Clinical Events up to Week 140 in Subgroup of Patients Treated with Tafamidis at Baseline","description":"To evaluate the effect of treatment with ION-682884 compared to placebo up to Week 140 on the composite endpoint of CV death and recurrent CV clinical events in patients with ATTR-CM on tafamidis at Baseline.","timeFrame":"Baseline up to Week 140"},{"measure":"CV Mortality up to Week 160","timeFrame":"Baseline up to Week 160"},{"measure":"CV Mortality up to Week 140","timeFrame":"Baseline up to Week 140"}]},"eligibilityModule":{"eligibilityCriteria":"Inclusion Criteria:\n\n* Females must be non-pregnant and non-lactating, and either surgically sterile or post-menopausal or abstinent. If engaged in sexual relations of child-bearing potential, agree to use 1 highly effective contraceptive method\n* Males must be surgically sterile or, abstinent or, if engaged in sexual relations with a woman of child-bearing potential, the participant or the participant's non-pregnant female partner must be using a highly effective contraceptive method\n* Amyloid deposits in cardiac or non-cardiac tissue confirmed by Congo Red (or equivalent) staining OR technetium scintigraphy (99mTc -3,3-diphosphono-1,2- propanodicarboxylic acid \\[DPD-Tc\\], 99m Tc-pyrophosphate \\[PYP-Tc\\], or 99m Tc-hydroxymethylene-diphosphonate \\[HMDP-Tc\\]) with Grade 2 or 3 cardiac uptake in the absence of abnormal light chains ratio, centrally confirmed\n* End-diastolic interventricular septum thickness of \\> 12 millimeters (mm) on Screening echocardiogram\n* New York Heart Association (NYHA) class I-III\n\nExclusion Criteria:\n\n* Acute coronary syndrome, unstable angina, stroke, transient ischemic attack (TIA), coronary revascularization, cardiac device implantation, cardiac valve repair, or major surgery within 3 months of Screening\n* Cardiomyopathy not primarily caused by ATTR-CM, for example, cardiomyopathy due to hypertension, valvular heart disease, or ischemic heart disease\n* Monoclonal gammopathy of undetermined significance (MGUS) and/or alterations in immunoglobulin free light chain (FLC) ratio unless fat, bone marrow, or heart biopsy confirming the absence of light chain and the presence of TTR protein by mass spectrometry or immunoelectron microscopy. For participants with chronic kidney disease (CKD) and without presence of monoclonal protein in blood and urine, the acceptable FLC ratio is 0.26-2.25. Results different from that may be discussed with local hematologist, Investigator and Medical Monitor if the risks associated with the biopsy outweigh the benefits\n* Prior liver or heart transplant, and/or Left Ventricular Assist Device (LVAD) or anticipated liver transplant or LVAD within 1 year after randomization\n* Current or previous treatment with Tegsedi™ (inotersen) or Onpattro™ (patisiran) or other oligonucleotide or ribonucleic acid (RNA) therapeutic (including small interfering ribonucleic acid \\[siRNA\\]; does not apply to COVID-19 mitochondrial \\[mRNA\\] vaccinations)\n* Current treatment with diflunisal, doxycycline, with or without ursodeoxycholic acid, and/or non-dihydropyridine calcium-channel blocker (e.g., verapamil, diltiazem). Participants receiving any of these agents must respect a wash-out period of 14 days before randomization.","healthyVolunteers":false,"sex":"ALL","minimumAge":"18 Years","maximumAge":"90 Years","stdAges":["ADULT","OLDER_ADULT"]},"contactsLocationsModule":{"locations":[{"facility":"Mayo Clinic - Arizona","city":"Phoenix","state":"Arizona","zip":"85054","country":"United States","geoPoint":{"lat":33.44838,"lon":-112.07404}},{"facility":"Altman Clinical and Translational Research Institute Center for Clinical Research","city":"La Jolla","state":"California","zip":"92037","country":"United States","geoPoint":{"lat":32.84727,"lon":-117.2742}},{"facility":"Cedars-Sinai Medical Center","city":"Los Angeles","state":"California","zip":"90048","country":"United States","geoPoint":{"lat":34.05223,"lon":-118.24368}},{"facility":"University of California, San Francisco (UCSF) - Medical Center","city":"San Francisco","state":"California","zip":"94143","country":"United States","geoPoint":{"lat":37.77493,"lon":-122.41942}},{"facility":"Stanford Hospital","city":"Stanford","state":"California","zip":"94305","country":"United States","geoPoint":{"lat":37.42411,"lon":-122.16608}},{"facility":"University of Colorado Hospital - Anschutz Medical Campus","city":"Aurora","state":"Colorado","zip":"80045","country":"United States","geoPoint":{"lat":39.72943,"lon":-104.83192}},{"facility":"MedStar Washington Hospital Center","city":"Washington D.C.","state":"District of Columbia","zip":"20010","country":"United States","geoPoint":{"lat":38.89511,"lon":-77.03637}},{"facility":"The George Washington Medical Faculty Associates - Foggy Bottom North Pavilion","city":"Washington D.C.","state":"District of Columbia","zip":"20037","country":"United States","geoPoint":{"lat":38.89511,"lon":-77.03637}},{"facility":"Cleveland Clinic Florida","city":"Weston","state":"Florida","zip":"33331","country":"United States","geoPoint":{"lat":26.10037,"lon":-80.39977}},{"facility":"Emory Heart and Vascular Center - Emory Clifton Campus","city":"Atlanta","state":"Georgia","zip":"30322","country":"United States","geoPoint":{"lat":33.749,"lon":-84.38798}},{"facility":"Piedmont Heart of Fayetteville","city":"Fayetteville","state":"Georgia","zip":"30214","country":"United States","geoPoint":{"lat":33.44873,"lon":-84.45493}},{"facility":"Northwestern University","city":"Chicago","state":"Illinois","zip":"60611","country":"United States","geoPoint":{"lat":41.85003,"lon":-87.65005}},{"facility":"The University of Chicago Medical Center","city":"Chicago","state":"Illinois","zip":"60637","country":"United States","geoPoint":{"lat":41.85003,"lon":-87.65005}},{"facility":"Loyola University Medical Center","city":"Maywood","state":"Illinois","zip":"60153","country":"United States","geoPoint":{"lat":41.8792,"lon":-87.84312}},{"facility":"Indiana University Health","city":"Indianapolis","state":"Indiana","zip":"46202","country":"United States","geoPoint":{"lat":39.76838,"lon":-86.15804}},{"facility":"University of Kansas Medical Center","city":"Kansas City","state":"Kansas","zip":"66160","country":"United States","geoPoint":{"lat":39.11417,"lon":-94.62746}},{"facility":"Louisiana State University Health Sciences Center","city":"New Orleans","state":"Louisiana","zip":"70112","country":"United States","geoPoint":{"lat":29.95465,"lon":-90.07507}},{"facility":"Tulane University Heart and Vascular Institute","city":"New Orleans","state":"Louisiana","zip":"70112","country":"United States","geoPoint":{"lat":29.95465,"lon":-90.07507}},{"facility":"Ochsner Health System","city":"New Orleans","state":"Louisiana","zip":"70121","country":"United States","geoPoint":{"lat":29.95465,"lon":-90.07507}},{"facility":"University of Maryland Medical Center","city":"Baltimore","state":"Maryland","zip":"21201","country":"United States","geoPoint":{"lat":39.29038,"lon":-76.61219}},{"facility":"Massachusetts General Hospital","city":"Boston","state":"Massachusetts","zip":"02114","country":"United States","geoPoint":{"lat":42.35843,"lon":-71.05977}},{"facility":"Brigham and Women's Hospital","city":"Boston","state":"Massachusetts","zip":"02115","country":"United States","geoPoint":{"lat":42.35843,"lon":-71.05977}},{"facility":"Boston University School of Medicine","city":"Boston","state":"Massachusetts","zip":"02118","country":"United States","geoPoint":{"lat":42.35843,"lon":-71.05977}},{"facility":"Henry Ford Health System","city":"Detroit","state":"Michigan","zip":"48202","country":"United States","geoPoint":{"lat":42.33143,"lon":-83.04575}},{"facility":"Minneapolis Heart Institute","city":"Minneapolis","state":"Minnesota","zip":"55407","country":"United States","geoPoint":{"lat":44.97997,"lon":-93.26384}},{"facility":"Mayo Clinic - Rochester","city":"Rochester","state":"Minnesota","zip":"55905","country":"United States","geoPoint":{"lat":44.02163,"lon":-92.4699}},{"facility":"Saint Luke's Hospital of Kansas City","city":"Kansas City","state":"Missouri","zip":"64111","country":"United States","geoPoint":{"lat":39.09973,"lon":-94.57857}},{"facility":"Barnes-Jewish Hospital","city":"St Louis","state":"Missouri","zip":"63110","country":"United States","geoPoint":{"lat":38.62727,"lon":-90.19789}},{"facility":"New York University Langone Cardiology Associates","city":"New York","state":"New York","zip":"10016","country":"United States","geoPoint":{"lat":40.71427,"lon":-74.00597}},{"facility":"Columbia University Irving Medical Center","city":"New York","state":"New York","zip":"10034","country":"United States","geoPoint":{"lat":40.71427,"lon":-74.00597}},{"facility":"Weill Cornell Medicine Cardiology","city":"New York","state":"New York","zip":"10065","country":"United States","geoPoint":{"lat":40.71427,"lon":-74.00597}},{"facility":"Laurelton Heart Specialists","city":"Rosedale","state":"New York","zip":"11422","country":"United States","geoPoint":{"lat":40.66205,"lon":-73.73541}},{"facility":"The University of North Carolina at Chapel Hill","city":"Chapel Hill","state":"North Carolina","zip":"27599","country":"United States","geoPoint":{"lat":35.9132,"lon":-79.05584}},{"facility":"Duke University Medical Center","city":"Durham","state":"North Carolina","zip":"27710","country":"United States","geoPoint":{"lat":35.99403,"lon":-78.89862}},{"facility":"Carl and Edyth Lindner Research Center at The Christ Hospital","city":"Cincinnati","state":"Ohio","zip":"45219","country":"United States","geoPoint":{"lat":39.12711,"lon":-84.51439}},{"facility":"University Hospitals Cleveland Medical Center","city":"Cleveland","state":"Ohio","zip":"44106","country":"United States","geoPoint":{"lat":41.4995,"lon":-81.69541}},{"facility":"Cleveland Clinic Main Campus","city":"Cleveland","state":"Ohio","zip":"44195","country":"United States","geoPoint":{"lat":41.4995,"lon":-81.69541}},{"facility":"The Ohio State University College of Medicine","city":"Columbus","state":"Ohio","zip":"43210","country":"United States","geoPoint":{"lat":39.96118,"lon":-82.99879}},{"facility":"Oregon Health and Science University","city":"Portland","state":"Oregon","zip":"97239","country":"United States","geoPoint":{"lat":45.52345,"lon":-122.67621}},{"facility":"Lancaster General Hospital","city":"Lancaster","state":"Pennsylvania","zip":"17602","country":"United States","geoPoint":{"lat":40.03788,"lon":-76.30551}},{"facility":"Penn Presbyterian Medical Center","city":"Philadelphia","state":"Pennsylvania","zip":"19104","country":"United States","geoPoint":{"lat":39.95238,"lon":-75.16362}},{"facility":"University of Pittsburgh Medical School","city":"Pittsburgh","state":"Pennsylvania","zip":"15261","country":"United States","geoPoint":{"lat":40.44062,"lon":-79.99589}},{"facility":"Medical University of South Carolina","city":"Charleston","state":"South Carolina","zip":"29425","country":"United States","geoPoint":{"lat":32.77632,"lon":-79.93275}},{"facility":"Vanderbilt University Medical Center","city":"Nashville","state":"Tennessee","zip":"37232","country":"United States","geoPoint":{"lat":36.16589,"lon":-86.78444}},{"facility":"University of Texas Southwestern Medical Center","city":"Dallas","state":"Texas","zip":"75390","country":"United States","geoPoint":{"lat":32.78306,"lon":-96.80667}},{"facility":"Houston Methodist Hospital","city":"Houston","state":"Texas","zip":"77030","country":"United States","geoPoint":{"lat":29.76328,"lon":-95.36327}},{"facility":"University of Utah","city":"Salt Lake City","state":"Utah","zip":"84112","country":"United States","geoPoint":{"lat":40.76078,"lon":-111.89105}},{"facility":"Virginia Commonwealth University (VCU)","city":"Richmond","state":"Virginia","zip":"23298","country":"United States","geoPoint":{"lat":37.55376,"lon":-77.46026}},{"facility":"University of Washington","city":"Seattle","state":"Washington","zip":"98195","country":"United States","geoPoint":{"lat":47.60621,"lon":-122.33207}},{"facility":"University of Wisconsin - Madison","city":"Madison","state":"Wisconsin","zip":"53792","country":"United States","geoPoint":{"lat":43.07305,"lon":-89.40123}},{"facility":"Froedtert & Medical College of Wisconsin","city":"Milwaukee","state":"Wisconsin","zip":"53226","country":"United States","geoPoint":{"lat":43.0389,"lon":-87.90647}},{"facility":"Instituto Cardiovascular de Buenos Aires","city":"Ciudad Autonoma de Buenos Aires","state":"Buenos Aires","zip":"C1428ART","country":"Argentina"},{"facility":"Hospital Italiano de Buenos Aires","city":"Ciudad Autónoma de Buenos Aires","state":"Buenos Aires","zip":"C1199ABB","country":"Argentina"},{"facility":"Liverpool Hospital","city":"Liverpool","state":"New South Wales","zip":"2170","country":"Australia","geoPoint":{"lat":-33.91938,"lon":150.92588}},{"facility":"The Westmead Institute for Medical Research","city":"Westmead","state":"New South Wales","zip":"NSW 2145","country":"Australia","geoPoint":{"lat":-33.80383,"lon":150.98768}},{"facility":"Princess Alexandra Hospital","city":"Woolloongabba","state":"Queensland","zip":"4102","country":"Australia","geoPoint":{"lat":-27.48855,"lon":153.03655}},{"facility":"Advara Heartcare","city":"Leabrook","state":"South Australia","zip":"5068","country":"Australia","geoPoint":{"lat":-34.92976,"lon":138.65862}},{"facility":"Royal Hobart Hospital","city":"Hobart","state":"Tasmania","zip":"7000","country":"Australia","geoPoint":{"lat":-42.87936,"lon":147.32941}},{"facility":"Box Hill Hospital","city":"Box Hill","state":"Victoria","zip":"3128","country":"Australia","geoPoint":{"lat":-37.81887,"lon":145.12545}},{"facility":"Advara HeartCare","city":"Joondalup","state":"Western Australia","zip":"6027","country":"Australia","geoPoint":{"lat":-31.74445,"lon":115.76835}},{"facility":"Advara HeartCare Murdoch","city":"Murdoch","state":"Western Australia","zip":"6150","country":"Australia","geoPoint":{"lat":-32.06987,"lon":115.83757}},{"facility":"Medizinische Universität Graz","city":"Graz","state":"Styria","zip":"8036","country":"Austria","geoPoint":{"lat":47.06733,"lon":15.44197}},{"facility":"Medizinische Universität Innsbruck","city":"Innsbruck","state":"Tyrol","zip":"6020","country":"Austria","geoPoint":{"lat":47.26266,"lon":11.39454}},{"facility":"Medizinische Universität Wien","city":"Vienna","zip":"1090","country":"Austria","geoPoint":{"lat":48.20849,"lon":16.37208}},{"facility":"Ziekenhuis Oost-Limburg - Campus Sint-Jan","city":"Genk","state":"Limburg","zip":"3600","country":"Belgium","geoPoint":{"lat":50.965,"lon":5.50082}},{"facility":"Algemeen Ziekenhuis Sint-Jan Brugge-Oostende - Campus Sint-Jan","city":"Bruges","state":"West-Vlaanderen","zip":"8000","country":"Belgium","geoPoint":{"lat":51.20892,"lon":3.22424}},{"facility":"Universidade Estadual de Campinas","city":"Campinas","zip":"13083881","country":"Brazil","geoPoint":{"lat":-22.90556,"lon":-47.06083}},{"facility":"Hospital Moinhos de Vento","city":"Porto Alegre","zip":"90560-030","country":"Brazil","geoPoint":{"lat":-30.03283,"lon":-51.23019}},{"facility":"Centro Avançado de Pesquisa e Estudos para o Diagnóstico CAPED","city":"Ribeirão Preto","zip":"14026-900","country":"Brazil","geoPoint":{"lat":-21.1775,"lon":-47.81028}},{"facility":"Hospital das Clínicas da Faculdade de Medicina de Ribeirão Preto","city":"Ribeirão Preto","zip":"14040-030","country":"Brazil","geoPoint":{"lat":-21.1775,"lon":-47.81028}},{"facility":"A Beneficência Portuguesa de São Paulo - Unidade Mirante","city":"São Paulo","zip":"01323-030","country":"Brazil","geoPoint":{"lat":-23.5475,"lon":-46.63611}},{"facility":"Instituto Dante Pazzanese de Cardiologia","city":"São Paulo","zip":"04012-909","country":"Brazil","geoPoint":{"lat":-23.5475,"lon":-46.63611}},{"facility":"Instituto do Coração de São Paulo","city":"São Paulo","zip":"05403-000","country":"Brazil","geoPoint":{"lat":-23.5475,"lon":-46.63611}},{"facility":"University of Calgary","city":"Calgary","state":"Alberta","zip":"T2N 4Z6","country":"Canada","geoPoint":{"lat":51.05011,"lon":-114.08529}},{"facility":"Gordon and Leslie Diamond Health Care Centre","city":"Vancouver","state":"British Columbia","zip":"V5Z 1M9","country":"Canada","geoPoint":{"lat":49.24966,"lon":-123.11934}},{"facility":"University Hospital - London Health Sciences Centre","city":"London","state":"Ontario","zip":"N6A 5A5","country":"Canada","geoPoint":{"lat":42.98339,"lon":-81.23304}},{"facility":"Toronto General Hospital","city":"Toronto","state":"Ontario","zip":"M5G 2M9","country":"Canada","geoPoint":{"lat":43.70643,"lon":-79.39864}},{"facility":"Centre Hospitalier de l'Université de Montréal (CHUM)","city":"Montreal","state":"Quebec","zip":"H2X 0C1","country":"Canada","geoPoint":{"lat":45.50884,"lon":-73.58781}},{"facility":"Hôpital Regional de Rimouski","city":"Rimouski","state":"Quebec","zip":"G5L 5T1","country":"Canada","geoPoint":{"lat":48.44879,"lon":-68.52396}},{"facility":"Fakultní Nemocnice u sv. Anny v Brn","city":"Brno","state":"South Moravian","zip":"656 91","country":"Czechia","geoPoint":{"lat":49.19522,"lon":16.60796}},{"facility":"Vseobecna Fakultni Nemocnice v Praze","city":"Prague","zip":"128 08","country":"Czechia","geoPoint":{"lat":50.08804,"lon":14.42076}},{"facility":"Institut Klinické a Experimentální Medicíny","city":"Prague","zip":"140 21","country":"Czechia","geoPoint":{"lat":50.08804,"lon":14.42076}},{"facility":"Rigshospitalet","city":"Copenhagen","state":"Capital Region","zip":"2100","country":"Denmark","geoPoint":{"lat":55.67594,"lon":12.56553}},{"facility":"Odense Universitetshospital","city":"Odense","state":"Region Syddanmark","zip":"5000","country":"Denmark","geoPoint":{"lat":55.39594,"lon":10.38831}},{"facility":"Hôpital Rangueil","city":"Toulouse","state":"Occitanie","zip":"31059","country":"France","geoPoint":{"lat":43.60426,"lon":1.44367}},{"facility":"Hôpitaux Universitaires Henri Mondor","city":"Créteil","zip":"94010","country":"France","geoPoint":{"lat":48.79266,"lon":2.46569}},{"facility":"Centre Hospitalier Départemental Vendée","city":"La Roche-sur-Yon","zip":"85925","country":"France","geoPoint":{"lat":46.66974,"lon":-1.42757}},{"facility":"Hôpital de la Timone","city":"Marseille","zip":"13005","country":"France","geoPoint":{"lat":43.29695,"lon":5.38107}},{"facility":"Hôpital Haut-Lévêque","city":"Pessac","zip":"33604","country":"France","geoPoint":{"lat":44.80565,"lon":-0.6324}},{"facility":"Centre Hospitalier Universitaire De Nantes - Hôpital Nord Laennec","city":"Saint-Herblain","zip":"44805","country":"France","geoPoint":{"lat":47.21154,"lon":-1.651}},{"facility":"Universitätsklinikum des Saarlandes","city":"Homburg","state":"Saarland","zip":"66421","country":"Germany","geoPoint":{"lat":49.32637,"lon":7.33867}},{"facility":"Charité Campus Mitte","city":"Berlin","zip":"10117","country":"Germany","geoPoint":{"lat":52.52437,"lon":13.41053}},{"facility":"Charité Universitätsmedizin Berlin","city":"Berlin","zip":"13353","country":"Germany","geoPoint":{"lat":52.52437,"lon":13.41053}},{"facility":"Uniklinik Koln","city":"Cologne","zip":"50937","country":"Germany","geoPoint":{"lat":50.93333,"lon":6.95}},{"facility":"Universitaetsklinikum Heidelberg - Zentrum fur Innere Medizin","city":"Heidelberg","zip":"69120","country":"Germany","geoPoint":{"lat":49.40768,"lon":8.69079}},{"facility":"Universitätsklinikum Münster","city":"Münster","zip":"48149","country":"Germany","geoPoint":{"lat":51.96236,"lon":7.62571}},{"facility":"Universitätsklinikum Würzburg","city":"Würzburg","zip":"97078","country":"Germany","geoPoint":{"lat":49.79391,"lon":9.95121}},{"facility":"Alexandra General Hospital","city":"Athens","zip":"11528","country":"Greece","geoPoint":{"lat":37.98376,"lon":23.72784}},{"facility":"Rambam Health Care Campus","city":"Haifa","zip":"3109601","country":"Israel","geoPoint":{"lat":32.81303,"lon":34.99928}},{"facility":"Hadassah University Hospital Ein Kerem","city":"Jerusalem","zip":"9112001","country":"Israel","geoPoint":{"lat":31.76904,"lon":35.21633}},{"facility":"Kaplan Medical Center","city":"Rehovot","country":"Israel","geoPoint":{"lat":31.89421,"lon":34.81199}},{"facility":"Azienda Ospedaliero Universitaria Delle Marche","city":"Ancona","zip":"60126","country":"Italy","geoPoint":{"lat":43.60717,"lon":13.5103}},{"facility":"Azienda Ospedaliero-Universitaria di Bologna Policlinico Sant Orsola-Malpighi","city":"Bologna","zip":"40138","country":"Italy","geoPoint":{"lat":44.49381,"lon":11.33875}},{"facility":"Azienda Ospedaliero - Universitaria Careggi","city":"Florence","zip":"50139","country":"Italy","geoPoint":{"lat":43.77925,"lon":11.24626}},{"facility":"Azienda Ospedale - Università di Padova","city":"Padua","zip":"35128","country":"Italy","geoPoint":{"lat":45.40797,"lon":11.88586}},{"facility":"Fondazione IRCCS Policlinico San Matteo","city":"Pavia","zip":"27100","country":"Italy","geoPoint":{"lat":45.19205,"lon":9.15917}},{"facility":"Fondazione Toscana Gabriele Monasterio per la Ricerca Medica e di Sanita Pubblica","city":"Pisa","zip":"56126","country":"Italy","geoPoint":{"lat":43.70853,"lon":10.4036}},{"facility":"Azienda Ospedaliera - Universitaria Sant' Andrea","city":"Roma","zip":"00189","country":"Italy","geoPoint":{"lat":44.99364,"lon":11.10642}},{"facility":"Uwajima City Hospital","city":"Uwajima-shi","state":"Ehime","zip":"798-8510","country":"Japan"},{"facility":"Hospital of the University of Occupational and Environmental Health","city":"Kitakyushu-shi","state":"Fukuoka","zip":"807-8555","country":"Japan"},{"facility":"Kurume University Hospital","city":"Kurume-shi","state":"Fukuoka","zip":"830-0011","country":"Japan"},{"facility":"Sapporo Medical University Hospital","city":"Sapporo","state":"Hokkaido","zip":"060-8543","country":"Japan","geoPoint":{"lat":43.06667,"lon":141.35}},{"facility":"Saiseikai Fukuoka General Hospital","city":"Fukuoka","state":"Hukuoka","zip":"810-0001","country":"Japan","geoPoint":{"lat":33.6,"lon":130.41667}},{"facility":"Kokura Memorial Hospital","city":"Kitakyushu","state":"Hukuoka","zip":"802-8555","country":"Japan","geoPoint":{"lat":33.85181,"lon":130.85034}},{"facility":"University Hospital Kyoto Prefectural University of Medicine","city":"Kyoto","state":"Kyoto","zip":"602-8566","country":"Japan","geoPoint":{"lat":35.02107,"lon":135.75385}},{"facility":"Shinshu University Hospital","city":"Matsumoto","state":"Nagano","zip":"390-8621","country":"Japan","geoPoint":{"lat":36.23333,"lon":137.96667}},{"facility":"Okayama University Hospital","city":"Okayama","state":"Okayama-ken","zip":"700-8558","country":"Japan","geoPoint":{"lat":34.65,"lon":133.93333}},{"facility":"Osaka Metropolitan University Hospital","city":"Osaka","state":"Osaka","zip":"545-8586","country":"Japan","geoPoint":{"lat":34.69379,"lon":135.50107}},{"facility":"Hamamatsu University Hospital","city":"Hamamatsu","state":"Shizuoka","zip":"431-3192","country":"Japan","geoPoint":{"lat":34.7,"lon":137.73333}},{"facility":"Keio University Hospital","city":"Shinjuku-Ku","state":"Tokyo","zip":"160-8582","country":"Japan"},{"facility":"Kumamoto University Hospital","city":"Kumamoto","zip":"860-8556","country":"Japan","geoPoint":{"lat":32.80589,"lon":130.69181}},{"facility":"Krakowski Szpital Specjalistyczny im. Jana Pawa II","city":"Krakow","zip":"31-202","country":"Poland","geoPoint":{"lat":50.06143,"lon":19.93658}},{"facility":"Narodowy Instytut Kardiologii Stefana kardyna Wyszyskiego - Pastwowy Instytut Badawczy","city":"Warsaw","zip":"04-628","country":"Poland","geoPoint":{"lat":52.22977,"lon":21.01178}},{"facility":"Hospital da Senhora da Oliveira - Guimarães","city":"Guimarães","zip":"4835-044","country":"Portugal","geoPoint":{"lat":41.44443,"lon":-8.29619}},{"facility":"Centro Hospitalar Universitário de Lisboa Central - Hospital de Santa Marta","city":"Lisbon","zip":"1169-024","country":"Portugal","geoPoint":{"lat":38.72509,"lon":-9.1498}},{"facility":"Centro Hospitalar Universitário do Porto - Hospital Geral de Santo Antonio","city":"Porto","zip":"4099-001","country":"Portugal","geoPoint":{"lat":41.1485,"lon":-8.61097}},{"facility":"Centro Hospitalar Universitário de São João","city":"Porto","zip":"4200-319","country":"Portugal","geoPoint":{"lat":41.1485,"lon":-8.61097}},{"facility":"Veterans Affairs Caribbean Healthcare System","city":"San Juan","zip":"00921","country":"Puerto Rico","geoPoint":{"lat":18.46633,"lon":-66.10572}},{"facility":"Hospital Universitari Vall d'Hebrón","city":"Barcelona","zip":"08035","country":"Spain","geoPoint":{"lat":41.38879,"lon":2.15899}},{"facility":"Hospital Universitario Puerta de Hierro - Majadahonda","city":"Majadahonda","zip":"28222","country":"Spain","geoPoint":{"lat":40.47353,"lon":-3.87182}},{"facility":"Hospital Clínico Universitario Virgen de la Arrixaca","city":"Murcia","zip":"30120","country":"Spain","geoPoint":{"lat":37.98704,"lon":-1.13004}},{"facility":"Complejo Hospitalario Universitario de Santiago","city":"Santiago de Compostela","zip":"15706","country":"Spain","geoPoint":{"lat":42.88052,"lon":-8.54569}},{"facility":"Sahlgrenska Universitetssjukhuset","city":"Gothenburg","zip":"413 45","country":"Sweden","geoPoint":{"lat":57.70716,"lon":11.96679}},{"facility":"Skellefteå lasarett","city":"Skellefteå","zip":"931 86","country":"Sweden","geoPoint":{"lat":64.75067,"lon":20.95279}},{"facility":"Synexus - Scotland Clinical Research Centre","city":"Glasgow","state":"Scotland","zip":"G20 0SP","country":"United Kingdom","geoPoint":{"lat":55.86515,"lon":-4.25763}},{"facility":"Synexus - Wales","city":"Cardiff","state":"Wales","zip":"CF15 9SS","country":"United Kingdom","geoPoint":{"lat":51.48,"lon":-3.18}},{"facility":"Synexus Midlands Clinical Research Centre","city":"Edgbaston","zip":"B15 2SQ","country":"United Kingdom","geoPoint":{"lat":52.4623,"lon":-1.92115}},{"facility":"Synexus - North Tees Clinical Research Centre","city":"Hexham","zip":"TS19 8PE","country":"United Kingdom","geoPoint":{"lat":54.96986,"lon":-2.104}},{"facility":"Synexus - Manchester Clinical Research Centre","city":"Liverpool","zip":"L22 0LG","country":"United Kingdom","geoPoint":{"lat":53.41058,"lon":-2.97794}},{"facility":"Synexus - Merseyside Clinical Research Centre","city":"Liverpool","zip":"L22 0LG","country":"United Kingdom","geoPoint":{"lat":53.41058,"lon":-2.97794}},{"facility":"Royal Free London NHS Foundation Trust","city":"London","zip":"HR3M+6R","country":"United Kingdom","geoPoint":{"lat":51.50853,"lon":-0.12574}},{"facility":"Richmond Pharmacology","city":"London","zip":"SE1 1YR","country":"United Kingdom","geoPoint":{"lat":51.50853,"lon":-0.12574}}]},"ipdSharingStatementModule":{"ipdSharing":"YES","description":"Ionis may share anonymized individual participant data, aggregated clinical data, and other types of data that support the results in this study. Data requests from qualified researchers will be considered once all three of the following criteria are met: (1) 12 months from marketing approval of the study drug in both the United States and European Union; (2) 18 months from conclusion of the study; and (3) 6 months from publication of study article. Access would be via a secure environment and is contingent upon approval of a research proposal and entry into an appropriate data use agreement. Requests to access data can be submitted via the website https://vivli.org/ourmember/ionis/."}},"derivedSection":{"miscInfoModule":{"versionHolder":"2026-02-25"},"conditionBrowseModule":{"meshes":[{"id":"D000686","term":"Amyloidosis"},{"id":"D009202","term":"Cardiomyopathies"}],"ancestors":[{"id":"D057165","term":"Proteostasis Deficiencies"},{"id":"D008659","term":"Metabolic Diseases"},{"id":"D009750","term":"Nutritional and Metabolic Diseases"},{"id":"D006331","term":"Heart Diseases"},{"id":"D002318","term":"Cardiovascular Diseases"}]},"interventionBrowseModule":{"meshes":[{"id":"C000730926","term":"eplontersen"}]}},"hasResults":false}