{"protocolSection":{"identificationModule":{"nctId":"NCT06443463","orgStudyIdInfo":{"id":"BHV7000-201"},"secondaryIdInfos":[{"id":"2023-508813-18-00","type":"CTIS"}],"organization":{"fullName":"Biohaven Pharmaceuticals, Inc.","class":"INDUSTRY"},"briefTitle":"Long-term Safety and Tolerability of BHV-7000","officialTitle":"A Phase 2, Global, Multicenter, Long-term Safety Study Designed to Assess the Safety and Tolerability of BHV-7000 in Subjects With Refractory Focal Onset Epilepsy"},"statusModule":{"statusVerifiedDate":"2026-01","overallStatus":"ENROLLING_BY_INVITATION","expandedAccessInfo":{"hasExpandedAccess":false},"startDateStruct":{"date":"2024-07-30","type":"ACTUAL"},"primaryCompletionDateStruct":{"date":"2026-12","type":"ESTIMATED"},"completionDateStruct":{"date":"2027-01","type":"ESTIMATED"},"studyFirstSubmitDate":"2024-05-30","studyFirstSubmitQcDate":"2024-05-30","studyFirstPostDateStruct":{"date":"2024-06-05","type":"ACTUAL"},"lastUpdateSubmitDate":"2026-01-16","lastUpdatePostDateStruct":{"date":"2026-01-20","type":"ACTUAL"}},"sponsorCollaboratorsModule":{"responsibleParty":{"type":"SPONSOR"},"leadSponsor":{"name":"Biohaven Therapeutics Ltd.","class":"INDUSTRY"}},"oversightModule":{"oversightHasDmc":false,"isFdaRegulatedDrug":true,"isFdaRegulatedDevice":false},"descriptionModule":{"briefSummary":"A study to determine if BHV- 7000 is safe and tolerable in adults with refractory focal onset epilepsy"},"conditionsModule":{"conditions":["Focal Epilepsy"],"keywords":["Focal Epilepsy","Epilepsy","Seizure","Refractory Epilepsy","Partial Epilepsy"]},"designModule":{"studyType":"INTERVENTIONAL","phases":["PHASE2"],"designInfo":{"allocation":"NON_RANDOMIZED","interventionModel":"PARALLEL","primaryPurpose":"TREATMENT","maskingInfo":{"masking":"NONE"}},"enrollmentInfo":{"count":660,"type":"ESTIMATED"}},"armsInterventionsModule":{"armGroups":[{"label":"BHV-7000 50 mg","type":"EXPERIMENTAL","interventionNames":["Drug: BHV-7000"]},{"label":"BHV-7000 75 mg","type":"EXPERIMENTAL","interventionNames":["Drug: BHV-7000"]}],"interventions":[{"type":"DRUG","name":"BHV-7000","description":"BHV-7000 50 mg. Participants will take open-label investigational product (IP) once daily","armGroupLabels":["BHV-7000 50 mg"]},{"type":"DRUG","name":"BHV-7000","description":"BHV-7000 75 mg. Participants will take open-label investigational product (IP) once daily","armGroupLabels":["BHV-7000 75 mg"]}]},"outcomesModule":{"primaryOutcomes":[{"measure":"Number of Participants With Deaths, Serious AEs (SAEs), AEs Leading to Study Drug Discontinuation, and moderate or severe AEs","description":"To assess the safety and tolerability of BHV-7000. This objective will be measured by assessing the number of unique subjects with deaths, SAEs, AEs leading to discontinuation, and moderate and severe AEs.","timeFrame":"Up to 104 weeks"},{"measure":"Number of Subjects with Clinically Significant Laboratory Abnormalities","description":"To assess the safety and tolerability of BHV-7000. This objective will be measured by assessing the number of unique subjects with grade 3 or 4 laboratory abnormalities.","timeFrame":"Up to 104 weeks"}]},"eligibilityModule":{"eligibilityCriteria":"Key Inclusion Criteria:\n\n* Subjects who completed the double-blind phase (DBP) of prior parent study, BHV7000-302 or BHV7000-303.\n* (FOCBP) Females of Child Bearing Potential must have a negative urine pregnancy test at the Baseline/Day 0 visit\n\nKey Exclusion Criteria:\n\n* Any condition, such as an ongoing AE with/without sequelae, or is poorly tolerating IP in the double-blind phase of the parent study, that would interfere with the subject's ability to comply with study instructions, place the subject at unacceptable risk, and/or confound the interpretation of safety or efficacy data from the study, as judged by the Investigator.\n* Any medical condition, based on the judgement of the Investigator, that would confound the ability to adequately assess safety and efficacy outcome measures","healthyVolunteers":false,"sex":"ALL","minimumAge":"18 Years","maximumAge":"75 Years","stdAges":["ADULT","OLDER_ADULT"]},"contactsLocationsModule":{"locations":[{"facility":"Accel Research","city":"Birmingham","state":"Alabama","zip":"35244","country":"United States","geoPoint":{"lat":33.52066,"lon":-86.80249}},{"facility":"Onyx Clinical Trials","city":"Peoria","state":"Arizona","zip":"85381","country":"United States","geoPoint":{"lat":33.5806,"lon":-112.23738}},{"facility":"Xenoscience, Inc.","city":"Phoenix","state":"Arizona","zip":"85004","country":"United States","geoPoint":{"lat":33.44838,"lon":-112.07404}},{"facility":"University of Arizona / Banner University Medical Center Phoenix","city":"Phoenix","state":"Arizona","zip":"85006","country":"United States","geoPoint":{"lat":33.44838,"lon":-112.07404}},{"facility":"Barrow Neurological Institute","city":"Phoenix","state":"Arizona","zip":"85013","country":"United States","geoPoint":{"lat":33.44838,"lon":-112.07404}},{"facility":"ARENSIA Exploratory Medicine","city":"Phoenix","state":"Arizona","zip":"85015","country":"United States","geoPoint":{"lat":33.44838,"lon":-112.07404}},{"facility":"Center for Neurosciences","city":"Tucson","state":"Arizona","zip":"85718","country":"United States","geoPoint":{"lat":32.22174,"lon":-110.92648}},{"facility":"Clinical Trials, Inc.","city":"Little Rock","state":"Arkansas","zip":"72205","country":"United States","geoPoint":{"lat":34.74648,"lon":-92.28959}},{"facility":"WRN","city":"Rogers","state":"Arkansas","zip":"72758","country":"United States","geoPoint":{"lat":36.33202,"lon":-94.11854}},{"facility":"University of California San Diego","city":"La Jolla","state":"California","zip":"92041","country":"United States","geoPoint":{"lat":32.84727,"lon":-117.2742}},{"facility":"Amicis Research Center","city":"Lancaster","state":"California","zip":"93534","country":"United States","geoPoint":{"lat":34.69804,"lon":-118.13674}},{"facility":"Memorialcare Miller Children's & Women's Hospital Long Beach","city":"Long Beach","state":"California","zip":"90806","country":"United States","geoPoint":{"lat":33.76696,"lon":-118.18923}},{"facility":"University of California, Los Angeles","city":"Los Angeles","state":"California","zip":"90095","country":"United States","geoPoint":{"lat":34.05223,"lon":-118.24368}},{"facility":"Tri Valley Neurology Medical Associates, Inc.","city":"Mission Hills","state":"California","zip":"91345","country":"United States","geoPoint":{"lat":34.68609,"lon":-120.43683}},{"facility":"Stanford University","city":"Palo Alto","state":"California","zip":"94304","country":"United States","geoPoint":{"lat":37.44188,"lon":-122.14302}},{"facility":"Profound Research LLC","city":"Pasadena","state":"California","zip":"91105","country":"United States","geoPoint":{"lat":34.14778,"lon":-118.14452}},{"facility":"Profound Research LLC","city":"Poway","state":"California","zip":"92065","country":"United States","geoPoint":{"lat":32.96282,"lon":-117.03586}},{"facility":"Kaiser Permanente","city":"Aurora","state":"Colorado","zip":"80011","country":"United States","geoPoint":{"lat":39.72943,"lon":-104.83192}},{"facility":"University of Colorado Anschultz Medical Campus","city":"Aurora","state":"Colorado","zip":"80045","country":"United States","geoPoint":{"lat":39.72943,"lon":-104.83192}},{"facility":"UConn Health","city":"Farmington","state":"Connecticut","zip":"06030","country":"United States","geoPoint":{"lat":41.71982,"lon":-72.83204}},{"facility":"Yale School of Medicine - Yale-New Haven Hospital","city":"New Haven","state":"Connecticut","zip":"06519","country":"United States","geoPoint":{"lat":41.30815,"lon":-72.92816}},{"facility":"EZR Research LLC","city":"Boca Raton","state":"Florida","zip":"33486","country":"United States","geoPoint":{"lat":26.35869,"lon":-80.0831}},{"facility":"Nova Clinical Research, LLC","city":"Bradenton","state":"Florida","zip":"34209","country":"United States","geoPoint":{"lat":27.49893,"lon":-82.57482}},{"facility":"Las Mercedes Medical Research","city":"Hialeah","state":"Florida","zip":"33012","country":"United States","geoPoint":{"lat":25.8576,"lon":-80.27811}},{"facility":"Coral Clinic Research","city":"Homestead","state":"Florida","zip":"33032","country":"United States","geoPoint":{"lat":25.46872,"lon":-80.47756}},{"facility":"University of Florida (Jacksonville)","city":"Jacksonville","state":"Florida","zip":"32209","country":"United States","geoPoint":{"lat":30.33218,"lon":-81.65565}},{"facility":"Dm Healthworks","city":"Kissimmee","state":"Florida","zip":"34741","country":"United States","geoPoint":{"lat":28.30468,"lon":-81.41667}},{"facility":"University of Miami","city":"Miami","state":"Florida","zip":"33136","country":"United States","geoPoint":{"lat":25.77427,"lon":-80.19366}},{"facility":"Y&L Advance Health Care, Inc d/b/a Elite Clinical Research","city":"Miami","state":"Florida","zip":"33144","country":"United States","geoPoint":{"lat":25.77427,"lon":-80.19366}},{"facility":"Serenity Research Center","city":"Miami","state":"Florida","zip":"33176","country":"United States","geoPoint":{"lat":25.77427,"lon":-80.19366}},{"facility":"Floridian Research Institute","city":"Miami","state":"Florida","zip":"33179","country":"United States","geoPoint":{"lat":25.77427,"lon":-80.19366}},{"facility":"AdventHealth Orlando","city":"Orlando","state":"Florida","zip":"32804","country":"United States","geoPoint":{"lat":28.53834,"lon":-81.37924}},{"facility":"Research Institute of Orlando","city":"Orlando","state":"Florida","zip":"32806","country":"United States","geoPoint":{"lat":28.53834,"lon":-81.37924}},{"facility":"Comprehensive Neurology Clinic","city":"Orlando","state":"Florida","zip":"32825","country":"United States","geoPoint":{"lat":28.53834,"lon":-81.37924}},{"facility":"Panhandle Research & Medical Clinic","city":"Pensacola","state":"Florida","zip":"32502","country":"United States","geoPoint":{"lat":30.42131,"lon":-87.21691}},{"facility":"Medsol Clinical Research Center","city":"Port Charlotte","state":"Florida","zip":"33952","country":"United States","geoPoint":{"lat":26.97617,"lon":-82.09064}},{"facility":"Knight Neurology","city":"Rockledge","state":"Florida","zip":"32955","country":"United States","geoPoint":{"lat":28.35084,"lon":-80.72533}},{"facility":"PENS","city":"Tampa","state":"Florida","zip":"33609","country":"United States","geoPoint":{"lat":27.94752,"lon":-82.45843}},{"facility":"Santos Research Center","city":"Tampa","state":"Florida","zip":"33615","country":"United States","geoPoint":{"lat":27.94752,"lon":-82.45843}},{"facility":"Encore Medical Research of Weston LLC.","city":"Weston","state":"Florida","zip":"33331","country":"United States","geoPoint":{"lat":26.10037,"lon":-80.39977}},{"facility":"Pediatrix Medical Group of Florida","city":"Winter Park","state":"Florida","zip":"32789","country":"United States","geoPoint":{"lat":28.6,"lon":-81.33924}},{"facility":"Augusta University","city":"Augusta","state":"Georgia","zip":"30912","country":"United States","geoPoint":{"lat":33.47097,"lon":-81.97484}},{"facility":"Accelerated Clinical Trials, LLC","city":"Peachtree Corners","state":"Georgia","zip":"30071","country":"United States","geoPoint":{"lat":33.9701,"lon":-84.22159}},{"facility":"Hawaii Pacific Neuroscience","city":"Honolulu","state":"Hawaii","zip":"96817","country":"United States","geoPoint":{"lat":21.30694,"lon":-157.85833}},{"facility":"Consultants in Epilepsy & Neurology, PLLC","city":"Boise","state":"Idaho","zip":"83702","country":"United States","geoPoint":{"lat":43.6135,"lon":-116.20345}},{"facility":"Northwestern University","city":"Chicago","state":"Illinois","zip":"60611","country":"United States","geoPoint":{"lat":41.85003,"lon":-87.65005}},{"facility":"Revive Research Institute, Inc.","city":"Elgin","state":"Illinois","zip":"60123","country":"United States","geoPoint":{"lat":42.03725,"lon":-88.28119}},{"facility":"McFarland Clinic","city":"Ames","state":"Iowa","zip":"50010","country":"United States","geoPoint":{"lat":42.03471,"lon":-93.61994}},{"facility":"Bluegrass Epilepsy Research","city":"Lexington","state":"Kentucky","zip":"40504","country":"United States","geoPoint":{"lat":37.98869,"lon":-84.47772}},{"facility":"OLOLRMC","city":"Baton Rouge","state":"Louisiana","zip":"70808","country":"United States","geoPoint":{"lat":30.44332,"lon":-91.18747}},{"facility":"DelRicht Research","city":"Baton Rouge","state":"Louisiana","zip":"70810","country":"United States","geoPoint":{"lat":30.44332,"lon":-91.18747}},{"facility":"Neurocare Of Louisiana","city":"Covington","state":"Louisiana","zip":"70433","country":"United States","geoPoint":{"lat":30.47549,"lon":-90.10042}},{"facility":"University Medical Center New Orleans","city":"New Orleans","state":"Louisiana","zip":"70112","country":"United States","geoPoint":{"lat":29.95465,"lon":-90.07507}},{"facility":"DelRicht Research","city":"New Orleans","state":"Louisiana","zip":"70119","country":"United States","geoPoint":{"lat":29.95465,"lon":-90.07507}},{"facility":"LSU Health Shreveport","city":"Shreveport","state":"Louisiana","zip":"71103","country":"United States","geoPoint":{"lat":32.52515,"lon":-93.75018}},{"facility":"John Hopkins University","city":"Baltimore","state":"Maryland","zip":"21287","country":"United States","geoPoint":{"lat":39.29038,"lon":-76.61219}},{"facility":"Mid-Atlantic Epilepsy & Sleep Center, LLC","city":"Bethesda","state":"Maryland","zip":"20817","country":"United States","geoPoint":{"lat":38.98067,"lon":-77.10026}},{"facility":"Javara","city":"Silver Spring","state":"Maryland","zip":"20901","country":"United States","geoPoint":{"lat":38.99067,"lon":-77.02609}},{"facility":"Boston Clinical Trials","city":"Boston","state":"Massachusetts","zip":"02131","country":"United States","geoPoint":{"lat":42.35843,"lon":-71.05977}},{"facility":"Boston Neuro Research","city":"South Dartmouth","state":"Massachusetts","zip":"02747","country":"United States","geoPoint":{"lat":41.59177,"lon":-70.94115}},{"facility":"SRI International","city":"Plymouth","state":"Michigan","zip":"48170","country":"United States","geoPoint":{"lat":42.37143,"lon":-83.47021}},{"facility":"Revive Research Institute, Inc.","city":"Rochester Hills","state":"Michigan","zip":"48307","country":"United States","geoPoint":{"lat":42.65837,"lon":-83.14993}},{"facility":"Minnesota Epilepsy Group, P.A.","city":"Roseville","state":"Minnesota","zip":"55113","country":"United States","geoPoint":{"lat":45.00608,"lon":-93.15661}},{"facility":"University of Missouri Health Care","city":"Columbia","state":"Missouri","zip":"65212","country":"United States","geoPoint":{"lat":38.95171,"lon":-92.33407}},{"facility":"Washington University School of Medicine","city":"St Louis","state":"Missouri","zip":"63110","country":"United States","geoPoint":{"lat":38.62727,"lon":-90.19789}},{"facility":"Somnos Clinical Research","city":"Lincoln","state":"Nebraska","zip":"68510","country":"United States","geoPoint":{"lat":40.8,"lon":-96.66696}},{"facility":"NEREG","city":"Hackensack","state":"New Jersey","zip":"07601","country":"United States","geoPoint":{"lat":40.88593,"lon":-74.04347}},{"facility":"Inst of Neurology","city":"Livingston","state":"New Jersey","zip":"07039","country":"United States","geoPoint":{"lat":40.79593,"lon":-74.31487}},{"facility":"Tekton Research","city":"Marlboro","state":"New Jersey","zip":"07746","country":"United States","geoPoint":{"lat":40.31539,"lon":-74.24626}},{"facility":"Jersey Shore Medical Center","city":"Neptune City","state":"New Jersey","zip":"07753","country":"United States","geoPoint":{"lat":40.20011,"lon":-74.02792}},{"facility":"Dent Neurosciences Research Center","city":"Amherst","state":"New York","zip":"14226","country":"United States","geoPoint":{"lat":42.97839,"lon":-78.79976}},{"facility":"Northwell Health","city":"Great Neck","state":"New York","zip":"11021","country":"United States","geoPoint":{"lat":40.80066,"lon":-73.72846}},{"facility":"BCHP","city":"Hawthorne","state":"New York","zip":"10532","country":"United States","geoPoint":{"lat":41.10732,"lon":-73.79597}},{"facility":"Northwell Health","city":"New Hyde Park","state":"New York","zip":"11042","country":"United States","geoPoint":{"lat":40.7351,"lon":-73.68791}},{"facility":"NYU Langone Health","city":"New York","state":"New York","zip":"10016","country":"United States","geoPoint":{"lat":40.71427,"lon":-74.00597}},{"facility":"NYU","city":"New York","state":"New York","zip":"10016","country":"United States","geoPoint":{"lat":40.71427,"lon":-74.00597}},{"facility":"Stony Brook Medicine","city":"Stony Brook","state":"New York","zip":"11794","country":"United States","geoPoint":{"lat":40.92565,"lon":-73.14094}},{"facility":"Montefiore Medical Center","city":"The Bronx","state":"New York","zip":"10467","country":"United States","geoPoint":{"lat":40.84985,"lon":-73.86641}},{"facility":"Five Towns Neuroscience Research","city":"Woodmere","state":"New York","zip":"11598","country":"United States","geoPoint":{"lat":40.63205,"lon":-73.71263}},{"facility":"UNC-Chapel Hill","city":"Chapel Hill","state":"North Carolina","zip":"27514","country":"United States","geoPoint":{"lat":35.9132,"lon":-79.05584}},{"facility":"OnSite Clinical Solutions","city":"Charlotte","state":"North Carolina","zip":"28211","country":"United States","geoPoint":{"lat":35.22709,"lon":-80.84313}},{"facility":"Accellacare","city":"Mooresville","state":"North Carolina","zip":"28117","country":"United States","geoPoint":{"lat":35.58486,"lon":-80.81007}},{"facility":"Wake Forest Baptist","city":"Winston-Salem","state":"North Carolina","zip":"27157","country":"United States","geoPoint":{"lat":36.09986,"lon":-80.24422}},{"facility":"NeuroScience Research Center","city":"Canton","state":"Ohio","zip":"44718","country":"United States","geoPoint":{"lat":40.79895,"lon":-81.37845}},{"facility":"University of Cincinnati","city":"Cincinnati","state":"Ohio","zip":"45267","country":"United States","geoPoint":{"lat":39.12711,"lon":-84.51439}},{"facility":"OSU","city":"Columbus","state":"Ohio","zip":"43214","country":"United States","geoPoint":{"lat":39.96118,"lon":-82.99879}},{"facility":"Wright State University","city":"Dayton","state":"Ohio","zip":"45409","country":"United States","geoPoint":{"lat":39.75895,"lon":-84.19161}},{"facility":"Oregon Neurology Associates","city":"Springfield","state":"Oregon","zip":"97477","country":"United States","geoPoint":{"lat":44.04624,"lon":-123.02203}},{"facility":"University of Pennsylvania","city":"Philadelphia","state":"Pennsylvania","zip":"19104","country":"United States","geoPoint":{"lat":39.95238,"lon":-75.16362}},{"facility":"Thomas Jefferson University","city":"Philadelphia","state":"Pennsylvania","zip":"19107","country":"United States","geoPoint":{"lat":39.95238,"lon":-75.16362}},{"facility":"AHN","city":"Pittsburgh","state":"Pennsylvania","zip":"15212","country":"United States","geoPoint":{"lat":40.44062,"lon":-79.99589}},{"facility":"UPMC","city":"Pittsburgh","state":"Pennsylvania","zip":"15213","country":"United States","geoPoint":{"lat":40.44062,"lon":-79.99589}},{"facility":"MUSC","city":"Charleston","state":"South Carolina","zip":"29425","country":"United States","geoPoint":{"lat":32.77632,"lon":-79.93275}},{"facility":"WR-ClinSearch","city":"Chattanooga","state":"Tennessee","zip":"37421","country":"United States","geoPoint":{"lat":35.04563,"lon":-85.30968}},{"facility":"Le Bonheur Children's Hospital","city":"Memphis","state":"Tennessee","zip":"38103","country":"United States","geoPoint":{"lat":35.14953,"lon":-90.04898}},{"facility":"Vanderbilt University Medical Center","city":"Nashville","state":"Tennessee","zip":"37232","country":"United States","geoPoint":{"lat":36.16589,"lon":-86.78444}},{"facility":"Horizon Clinical Research Group","city":"Cypress","state":"Texas","zip":"77429","country":"United States","geoPoint":{"lat":29.96911,"lon":-95.69717}},{"facility":"Clinical Research Solutions LLC","city":"Cypress","state":"Texas","zip":"77433","country":"United States","geoPoint":{"lat":29.96911,"lon":-95.69717}},{"facility":"Neurology Consultants of Dallas, PA","city":"Dallas","state":"Texas","zip":"75243","country":"United States","geoPoint":{"lat":32.78306,"lon":-96.80667}},{"facility":"M3 Wake Research-Dallas","city":"Dallas","state":"Texas","zip":"75246","country":"United States","geoPoint":{"lat":32.78306,"lon":-96.80667}},{"facility":"ANESC Research","city":"El Paso","state":"Texas","zip":"79912","country":"United States","geoPoint":{"lat":31.75872,"lon":-106.48693}},{"facility":"Tarrant Neurology Consultants","city":"Fort Worth","state":"Texas","zip":"76104","country":"United States","geoPoint":{"lat":32.72541,"lon":-97.32085}},{"facility":"Michael E. DeBakey VA Medical Center","city":"Houston","state":"Texas","zip":"77030","country":"United States","geoPoint":{"lat":29.76328,"lon":-95.36327}},{"facility":"UTHealth Houston","city":"Houston","state":"Texas","zip":"77030","country":"United States","geoPoint":{"lat":29.76328,"lon":-95.36327}},{"facility":"UTHSC","city":"Houston","state":"Texas","zip":"77030","country":"United States","geoPoint":{"lat":29.76328,"lon":-95.36327}},{"facility":"Stryde Research","city":"Plano","state":"Texas","zip":"75093","country":"United States","geoPoint":{"lat":33.01984,"lon":-96.69889}},{"facility":"UT Health San Antonio","city":"San Antonio","state":"Texas","zip":"78229","country":"United States","geoPoint":{"lat":29.42412,"lon":-98.49363}},{"facility":"Road Runner Research, Ltd","city":"San Antonio","state":"Texas","zip":"78249","country":"United States","geoPoint":{"lat":29.42412,"lon":-98.49363}},{"facility":"Intermountain Health","city":"Murray","state":"Utah","zip":"84107","country":"United States","geoPoint":{"lat":40.66689,"lon":-111.88799}},{"facility":"University of Utah","city":"Salt Lake City","state":"Utah","zip":"84132","country":"United States","geoPoint":{"lat":40.76078,"lon":-111.89105}},{"facility":"UVM MC","city":"Burlington","state":"Vermont","zip":"05401","country":"United States","geoPoint":{"lat":44.47588,"lon":-73.21207}},{"facility":"University of Virginia","city":"Charlottesville","state":"Virginia","zip":"22903","country":"United States","geoPoint":{"lat":38.02931,"lon":-78.47668}},{"facility":"Medstar Health Research Institute","city":"McLean","state":"Virginia","zip":"22101","country":"United States","geoPoint":{"lat":38.93428,"lon":-77.17748}},{"facility":"Henrico Doctors Neurology Associates, LLC","city":"Richmond","state":"Virginia","zip":"23235","country":"United States","geoPoint":{"lat":37.55376,"lon":-77.46026}},{"facility":"Carilion Clinic","city":"Roanoke","state":"Virginia","zip":"24011","country":"United States","geoPoint":{"lat":37.27097,"lon":-79.94143}},{"facility":"STAT Research S.A.","city":"Ciudad Autónoma de Buenos Aires","state":"Buenos Aires","zip":"C1013AAB","country":"Argentina"},{"facility":"Hospital General de Agudos Dr. José María Ramos Mejia","city":"Balvanera","state":"Ciudad Autónoma de BuenosAires","zip":"C1221ADC","country":"Argentina","geoPoint":{"lat":-34.61032,"lon":-58.39766}},{"facility":"Centro de Educación Médica e Investigaciones Clínicas Norberto Quirno CEMIC-Elías Galván 4102","city":"Buenos Aires","state":"Ciudad Autónoma de BuenosAires","zip":"C1431FWO","country":"Argentina","geoPoint":{"lat":-34.61315,"lon":-58.37723}},{"facility":"Hospital Británico de Buenos Aires","city":"Buenos Aires","state":"Ciudad Autónoma de BuenosAires","zip":"C1437JCH","country":"Argentina","geoPoint":{"lat":-34.61315,"lon":-58.37723}},{"facility":"Investigaciones Sanatorio Del Sur","city":"San Miguel de Tucumán","state":"Tucumán Province","zip":"T4000AXL","country":"Argentina","geoPoint":{"lat":-26.81601,"lon":-65.21051}},{"facility":"Sanatorio de la Trinidad - Mitre","city":"Buenos Aires","zip":"C1039AAO","country":"Argentina","geoPoint":{"lat":-34.61315,"lon":-58.37723}},{"facility":"Hospital Italiano de Buenos Aires","city":"Buenos Aires","zip":"C1181ACH","country":"Argentina","geoPoint":{"lat":-34.61315,"lon":-58.37723}},{"facility":"Fundación Para La Lucha Contra Las Enfermedades Neurológicas de La Infancia - FLENI","city":"Buenos Aires","zip":"C1428AQK","country":"Argentina","geoPoint":{"lat":-34.61315,"lon":-58.37723}},{"facility":"Instituto Privado Kremer","city":"Córdoba","zip":"X5004AOA","country":"Argentina","geoPoint":{"lat":-31.40648,"lon":-64.18853}},{"facility":"Conci Carpinella - Santa Rosa N° 748","city":"Córdoba","zip":"X5008HHW","country":"Argentina","geoPoint":{"lat":-31.40648,"lon":-64.18853}},{"facility":"Royal Prince Alfred Hospital","city":"Camperdown","state":"New South Wales","zip":"2050","country":"Australia","geoPoint":{"lat":-33.88965,"lon":151.17642}},{"facility":"Prince of Wales Hospital","city":"Randwick","state":"New South Wales","zip":"2031","country":"Australia","geoPoint":{"lat":-33.91439,"lon":151.24895}},{"facility":"Royal Brisbane & Women's Hospital","city":"Herston","state":"Queensland","zip":"4029","country":"Australia","geoPoint":{"lat":-27.44453,"lon":153.01852}},{"facility":"St Vincents Hospital Melbourne - PPDS","city":"Fitzroy","state":"Victoria","zip":"3065","country":"Australia","geoPoint":{"lat":-37.79839,"lon":144.97833}},{"facility":"Austin Health","city":"Heidelberg","state":"Victoria","zip":"3084","country":"Australia","geoPoint":{"lat":-37.75,"lon":145.06667}},{"facility":"The Alfred Hospital","city":"Melbourne","state":"Victoria","zip":"3004","country":"Australia","geoPoint":{"lat":-37.814,"lon":144.96332}},{"facility":"Royal Melbourne Hospital","city":"Parkville","state":"Victoria","zip":"3050","country":"Australia","geoPoint":{"lat":-37.78333,"lon":144.95}},{"facility":"Flinders Medical Centre","city":"Bedford Park","zip":"5042","country":"Australia","geoPoint":{"lat":-35.02204,"lon":138.56815}},{"facility":"Kepler Universitätsklinikum Linz - Med Campus III","city":"Linz","state":"Upper Austria","zip":"4020","country":"Austria","geoPoint":{"lat":48.30639,"lon":14.28611}},{"facility":"Christian Doppler-Klinik - Universitätsklinikum der PMU","city":"Salzburg","zip":"5020","country":"Austria","geoPoint":{"lat":47.79941,"lon":13.04399}},{"facility":"Universitätsklinikum St. Pölten","city":"Sankt Pölten","zip":"3100","country":"Austria","geoPoint":{"lat":48.20762,"lon":15.63725}},{"facility":"Medizinische Universitat Wien (Medical University of Vienna)","city":"Vienna","zip":"1090","country":"Austria","geoPoint":{"lat":48.20849,"lon":16.37208}},{"facility":"UZ Antwerpen","city":"Edegem","state":"Antwerpen","zip":"2650","country":"Belgium","geoPoint":{"lat":51.15662,"lon":4.44504}},{"facility":"Hôpital Erasme","city":"Anderlecht","state":"Brussels Capital","zip":"1070","country":"Belgium","geoPoint":{"lat":50.83619,"lon":4.31454}},{"facility":"Cliniques Universitaires Saint-Luc","city":"Brussels","state":"Brussels Capital","zip":"1200","country":"Belgium","geoPoint":{"lat":50.85045,"lon":4.34878}},{"facility":"CHU UCL Namur - Site Godinne","city":"Yvoir","state":"Namur","zip":"5530","country":"Belgium","geoPoint":{"lat":50.3279,"lon":4.88059}},{"facility":"UZ Gent","city":"Ghent","state":"Oost-Vlaanderen","zip":"9000","country":"Belgium","geoPoint":{"lat":51.05,"lon":3.71667}},{"facility":"Centro de especialidades médicas Vanguardia","city":"Temuco","state":"Región de la Araucanía","zip":"4780000","country":"Chile","geoPoint":{"lat":-38.73628,"lon":-72.59738}},{"facility":"Instituto Neurologico Thalamus","city":"Viña del Mar","state":"Región de Valparaíso","zip":"2520021","country":"Chile","geoPoint":{"lat":-33.02457,"lon":-71.55183}},{"facility":"Hospital Padre Hurtado","city":"Santiago","state":"Región-MetropolitanadeSantiago","zip":"8260094","country":"Chile","geoPoint":{"lat":-33.45694,"lon":-70.64827}},{"facility":"BIOCINETIC Ltda","city":"Santiago","state":"Región-MetropolitanadeSantiago","zip":"8320000","country":"Chile","geoPoint":{"lat":-33.45694,"lon":-70.64827}},{"facility":"Centro de Investigacion Clinica UC","city":"Santiago","state":"Región-MetropolitanadeSantiago","zip":"8320000","country":"Chile","geoPoint":{"lat":-33.45694,"lon":-70.64827}},{"facility":"Clinical Hospital Dubrava","city":"Zagreb","state":"City of Zagreb","zip":"10000","country":"Croatia","geoPoint":{"lat":45.81444,"lon":15.97798}},{"facility":"Clinical Hospital Sveti duh","city":"Zagreb","state":"City of Zagreb","zip":"10000","country":"Croatia","geoPoint":{"lat":45.81444,"lon":15.97798}},{"facility":"Klinicki bolnicki centar Sestre Milosrdnice - Vinogradska cesta 29","city":"Zagreb","state":"City of Zagreb","zip":"10000","country":"Croatia","geoPoint":{"lat":45.81444,"lon":15.97798}},{"facility":"Klinicki bolnicki centar Zagreb","city":"Zagreb","state":"City of Zagreb","zip":"10000","country":"Croatia","geoPoint":{"lat":45.81444,"lon":15.97798}},{"facility":"Clinical Hospital Center Rijeka - PPDS","city":"Rijeka","zip":"51000","country":"Croatia","geoPoint":{"lat":45.32673,"lon":14.44241}},{"facility":"Fakultni nemocnice v Motole","city":"Prague","state":"Praha, Hlavní Mesto","zip":"150 06","country":"Czechia","geoPoint":{"lat":50.08804,"lon":14.42076}},{"facility":"Fakultni nemocnice u sv. Anny v Brne","city":"Brno","state":"South Moravian","zip":"602 00","country":"Czechia","geoPoint":{"lat":49.19522,"lon":16.60796}},{"facility":"Odense Universitetshospital","city":"Odense","state":"Fyn","zip":"5000","country":"Denmark","geoPoint":{"lat":55.39594,"lon":10.38831}},{"facility":"Aarhus University Hospital","city":"Aarhus","zip":"8200","country":"Denmark","geoPoint":{"lat":56.15674,"lon":10.21076}},{"facility":"Epilepsihospitalet Filadelfia","city":"Dianalund","zip":"4293","country":"Denmark","geoPoint":{"lat":55.53133,"lon":11.4925}},{"facility":"Kuopion yliopistollinen sairaala","city":"Kuopio","state":"Northern Savonia","zip":"70200","country":"Finland","geoPoint":{"lat":62.89238,"lon":27.67703}},{"facility":"Tampereen yliopistollinen sairaala","city":"Tampere","state":"Pirkanmaa","zip":"33520","country":"Finland","geoPoint":{"lat":61.49911,"lon":23.78712}},{"facility":"Helsinki University Hospital","city":"Helsinki","state":"Uusimaa","zip":"00290","country":"Finland","geoPoint":{"lat":60.16952,"lon":24.93545}},{"facility":"CHU de Strasbourg - Hôpital de Hautepierre","city":"Strasbourg","state":"Bas-Rhin","zip":"67000","country":"France","geoPoint":{"lat":48.58392,"lon":7.74553}},{"facility":"CHU Dijon Bourgogne","city":"Dijon","state":"Côte-d'Or","zip":"21000","country":"France","geoPoint":{"lat":47.31344,"lon":5.01391}},{"facility":"CHU de Toulouse-Hôpital Pierre-Paul Riquet-Site de Purpan","city":"Toulouse","state":"Haute-Garonne","zip":"31059","country":"France","geoPoint":{"lat":43.60426,"lon":1.44367}},{"facility":"CHU de Montpellier- Hôpital Gui De Chauliac","city":"Montpellier","state":"Hérault","zip":"34295","country":"France","geoPoint":{"lat":43.61093,"lon":3.87635}},{"facility":"CHRU de Tours - Hôpital Bretonneau","city":"Tours","state":"Indre-et-Loire","zip":"37000","country":"France","geoPoint":{"lat":47.39484,"lon":0.70398}},{"facility":"CHRU Nancy","city":"Nancy","state":"Meurthe-et-Moselle","zip":"54000","country":"France","geoPoint":{"lat":48.68439,"lon":6.18496}},{"facility":"CHU de Lille - Hopital Claude Huriez","city":"Lille","state":"Nord","zip":"59037","country":"France","geoPoint":{"lat":50.63391,"lon":3.05512}},{"facility":"Hospices Civils de Lyon - 59 Bd Pinel","city":"Lyon","state":"Rhône","zip":"69003","country":"France","geoPoint":{"lat":45.74906,"lon":4.84789}},{"facility":"Hôpital Pontchaillou","city":"Rennes","zip":"35033","country":"France","geoPoint":{"lat":48.11109,"lon":-1.67431}},{"facility":"Universitätsklinikum Freiburg","city":"Freiburg im Breisgau","state":"Baden-Wurttemberg","zip":"79106","country":"Germany","geoPoint":{"lat":47.9959,"lon":7.85222}},{"facility":"Epilepsiezentrum Kork","city":"Kehl","state":"Baden-Wurttemberg","zip":"77694","country":"Germany","geoPoint":{"lat":48.57297,"lon":7.81523}},{"facility":"Universitätsklinikum Ulm","city":"Ulm","state":"Baden-Wurttemberg","zip":"89081","country":"Germany","geoPoint":{"lat":48.39841,"lon":9.99155}},{"facility":"Universitätsklinikum Erlangen","city":"Erlangen","state":"Bavaria","zip":"91054","country":"Germany","geoPoint":{"lat":49.59099,"lon":11.00783}},{"facility":"LMU Klinikum der Universität München - Campus Großhadern","city":"München","state":"Bavaria","zip":"81377","country":"Germany","geoPoint":{"lat":48.69668,"lon":13.46314}},{"facility":"Epilepsieklinik Tabor","city":"Bernau bei Berlin","state":"Brandenburg","zip":"16321","country":"Germany","geoPoint":{"lat":52.67982,"lon":13.58708}},{"facility":"Universitätsklinikum Gießen und Marburg GmbH - Standort Marburg","city":"Marburg","state":"Hesse","zip":"35043","country":"Germany","geoPoint":{"lat":50.80904,"lon":8.77069}},{"facility":"Klinikum Osnabrück GmbH","city":"Osnabrück","state":"Lower Saxony","zip":"49076","country":"Germany","geoPoint":{"lat":52.27264,"lon":8.0498}},{"facility":"Krankenhaus Mara gGmbH","city":"Bielefeld","state":"North Rhine-Westphalia","zip":"33617","country":"Germany","geoPoint":{"lat":52.03333,"lon":8.53333}},{"facility":"Universitätsklinikum Bonn","city":"Bonn","state":"North Rhine-Westphalia","zip":"53127","country":"Germany","geoPoint":{"lat":50.73438,"lon":7.09549}},{"facility":"Universitätsklinikum Münster","city":"Münster","state":"North Rhine-Westphalia","zip":"48149","country":"Germany","geoPoint":{"lat":51.96236,"lon":7.62571}},{"facility":"Universitätsklinikum Leipzig","city":"Leipzig","state":"Saxony","zip":"04103","country":"Germany","geoPoint":{"lat":51.33962,"lon":12.37129}},{"facility":"Kleinwachau Sächsisches Epilepsiezentrum Radeberg Gemeinnützige Gmbh","city":"Radeberg","state":"Saxony","zip":"01454","country":"Germany","geoPoint":{"lat":51.11112,"lon":13.91199}},{"facility":"Vivantes - Humboldt Klinikum","city":"Berlin","zip":"13509","country":"Germany","geoPoint":{"lat":52.52437,"lon":13.41053}},{"facility":"Universitätsklinikum Frankfurt","city":"Frankfurt","zip":"60590","country":"Germany","geoPoint":{"lat":49.68333,"lon":10.53333}},{"facility":"Epilepsie-Zentrum Bodensee","city":"Ravensburg","zip":"88214","country":"Germany","geoPoint":{"lat":47.78198,"lon":9.61062}},{"facility":"University General Hospital of Alexandroupolis","city":"Alexandroupoli","zip":"681 00","country":"Greece","geoPoint":{"lat":40.84995,"lon":25.87644}},{"facility":"University General Hospital ''ATTIKON''","city":"Chaïdári","zip":"124 62","country":"Greece","geoPoint":{"lat":38.01135,"lon":23.66597}},{"facility":"University General Hospital of Ioannina","city":"Ioannina","zip":"455 00","country":"Greece","geoPoint":{"lat":39.66341,"lon":20.85187}},{"facility":"AHEPA University General Hospital of Thessaloniki","city":"Thessaloniki","zip":"546 36","country":"Greece","geoPoint":{"lat":40.64072,"lon":22.93493}},{"facility":"Georgios Papanikolaou General Hospital of Thessaloniki","city":"Thessaloniki","zip":"546 36","country":"Greece","geoPoint":{"lat":40.64072,"lon":22.93493}},{"facility":"Pécsi Tudományegyetem Klinikai Kozpont -Ret u.","city":"Pécs","state":"Baranya","zip":"7623","country":"Hungary","geoPoint":{"lat":46.07617,"lon":18.22814}},{"facility":"Debreceni Egyetem Klinikai Kozpont Kenezy Gyula Campus","city":"Debrecen","state":"Hajdú-Bihar","zip":"4031","country":"Hungary","geoPoint":{"lat":47.53167,"lon":21.62444}},{"facility":"Budapesti Bajcsy-Zsilinszky Korhaz es Rendelointezet","city":"Budapest","zip":"1106","country":"Hungary","geoPoint":{"lat":47.49835,"lon":19.04045}},{"facility":"SE INK Juhasz Pal Epilepszia Központ","city":"Budapest","zip":"1145","country":"Hungary","geoPoint":{"lat":47.49835,"lon":19.04045}},{"facility":"Nizam's Insti. of Medical Sciences","city":"Hyderabad","zip":"500082","country":"India","geoPoint":{"lat":17.38405,"lon":78.45636}},{"facility":"Mallikatta Neuro Centre","city":"Mangalore","zip":"575002","country":"India","geoPoint":{"lat":12.91723,"lon":74.85603}},{"facility":"Jaslok Hospital and Research","city":"Mumbai","zip":"400026","country":"India","geoPoint":{"lat":19.07283,"lon":72.88261}},{"facility":"Dr G M Taori Memorial CIIMS","city":"Nagpur","zip":"440010","country":"India","geoPoint":{"lat":21.14631,"lon":79.08491}},{"facility":"All India Institute of Medical Sciences (AIIMS)","city":"New Delhi","zip":"110029","country":"India","geoPoint":{"lat":28.62137,"lon":77.2148}},{"facility":"Università degli Studi G. D'Annunzio Chieti-Pescara","city":"Chieti","state":"Abruzzo","zip":"66013","country":"Italy","geoPoint":{"lat":42.34827,"lon":14.16494}},{"facility":"Azienda Ospedaliera Universitaria Renato Dulbecco - AO Mater Domini","city":"Catanzaro","state":"Calabria","zip":"88100","country":"Italy","geoPoint":{"lat":38.88247,"lon":16.60086}},{"facility":"AORN Antonio Cardarelli","city":"Napoli","state":"Campania","zip":"80131","country":"Italy","geoPoint":{"lat":40.87618,"lon":14.5195}},{"facility":"AUSL di Bologna - Ospedale Bellaria","city":"Bologna","state":"Emilia-Romagna","zip":"40123","country":"Italy","geoPoint":{"lat":44.49381,"lon":11.33875}},{"facility":"Fondazione PTV Policlinico Tor Vergata","city":"Rome","state":"Lazio","zip":"00133","country":"Italy","geoPoint":{"lat":41.89193,"lon":12.51133}},{"facility":"Istituto G Gaslini Ospedale Pediatrico IRCCS - INCIPIT - PIN","city":"Genoa","state":"Liguria","zip":"16147","country":"Italy","geoPoint":{"lat":44.40478,"lon":8.94439}},{"facility":"Ospedale San Raffaele S.r.l. - PPDS","city":"Milan","state":"Lombardy","zip":"20132","country":"Italy","geoPoint":{"lat":45.46427,"lon":9.18951}},{"facility":"Fondazione IRCCS Istituto Neurologico Carlo Besta","city":"Milan","state":"Lombardy","zip":"20133","country":"Italy","geoPoint":{"lat":45.46427,"lon":9.18951}},{"facility":"ASST Santi Paolo e Carlo - Azienda Universitaria-Polo Universitario San Paolo","city":"Milan","state":"Lombardy","zip":"20142","country":"Italy","geoPoint":{"lat":45.46427,"lon":9.18951}},{"facility":"Fondazione Istituto Neurologico Nazionale Casimiro Mondino IRCCS","city":"Pavia","state":"Lombardy","zip":"27100","country":"Italy","geoPoint":{"lat":45.19205,"lon":9.15917}},{"facility":"Azienda Ospedaliero-Universitaria di Modena - Ospedale Civile di Baggiovara","city":"Baggiovara","state":"Modena","zip":"41126","country":"Italy","geoPoint":{"lat":44.60416,"lon":10.86256}},{"facility":"IRCCS Istituto Neurologico Mediterraneo Neuromed","city":"Pozzilli","state":"Molise","zip":"86077","country":"Italy","geoPoint":{"lat":41.51142,"lon":14.06252}},{"facility":"Università Politecnica delle Marche Azienda Ospedaliero Universitaria Ospedali Riuniti di Ancona","city":"Ancona","state":"The Marches","zip":"60121","country":"Italy","geoPoint":{"lat":43.60717,"lon":13.5103}},{"facility":"Azienda Ospedaliero Universitaria A Meyer - INCIPIT - PIN","city":"Calambrone","state":"Tuscany","zip":"56018","country":"Italy","geoPoint":{"lat":43.58333,"lon":10.3}},{"facility":"Fondazione Policlinico Universitario A Gemelli-Rome","city":"Roma","zip":"00168","country":"Italy","geoPoint":{"lat":44.99364,"lon":11.10642}},{"facility":"IRCCS Ospedale Pediatrico Bambino Gesù - INCIPIT - PIN","city":"Rome","zip":"00165","country":"Italy","geoPoint":{"lat":41.89193,"lon":12.51133}},{"facility":"Azienda Ospedaliera Universitaria Integrata Di Verona","city":"Verona","zip":"37126","country":"Italy","geoPoint":{"lat":45.43854,"lon":10.9938}},{"facility":"Unidad de Investigación en Salud de Chihuahua S.C.-Mexico city","city":"Mexico City","zip":"14050","country":"Mexico","geoPoint":{"lat":19.42847,"lon":-99.12766}},{"facility":"Clinstile, S.A. de C.V.","city":"Mexico City","zip":"6700","country":"Mexico","geoPoint":{"lat":19.42847,"lon":-99.12766}},{"facility":"Accelerium, S. de R.L. de C.V. - PPDS","city":"Monterrey","zip":"64000","country":"Mexico","geoPoint":{"lat":25.68435,"lon":-100.31721}},{"facility":"Axis Heilsa S. de R.L. de C.V.","city":"Obispado","zip":"64060","country":"Mexico","geoPoint":{"lat":22.13968,"lon":-100.93171}},{"facility":"Neurociencias Estudios Clinicos S.C.","city":"Sinaloa","zip":"80020","country":"Mexico","geoPoint":{"lat":15.89261,"lon":-92.12896}},{"facility":"Clinical Research Institute SC-Mexico","city":"Tlalnepantla","zip":"54055","country":"Mexico","geoPoint":{"lat":19.54005,"lon":-99.19538}},{"facility":"FAICIC S De RL De CV","city":"Veracruz","zip":"91900","country":"Mexico","geoPoint":{"lat":19.18095,"lon":-96.1429}},{"facility":"Kempenhaeghe - PPDS","city":"Heeze","state":"North Brabant","zip":"5591 VE","country":"Netherlands","geoPoint":{"lat":51.3828,"lon":5.57145}},{"facility":"Stichting Epilepsie Instellingen Nederland - Heemstede","city":"Heemstede","state":"North Holland","zip":"2103 SW","country":"Netherlands","geoPoint":{"lat":52.34992,"lon":4.62301}},{"facility":"Stichting Epilepsie Instellingen Nederland - Dokter Denekampweg 20","city":"Zwolle","state":"Overijssel","zip":"8025 BV","country":"Netherlands","geoPoint":{"lat":52.5125,"lon":6.09444}},{"facility":"AES - DRS - Synexus Polska Sp. z o.o. Oddzial w Poznaniu","city":"Poznan","state":"Greater Poland Voivodeship","zip":"60-702","country":"Poland","geoPoint":{"lat":52.40692,"lon":16.92993}},{"facility":"Przychodnia VISTAMED","city":"Wroclaw","state":"Lower Silesian Voivodeship","zip":"53-149","country":"Poland","geoPoint":{"lat":51.10286,"lon":17.03006}},{"facility":"Clinical Best Solutions - Lublin","city":"Lublin","state":"Lublin Voivodeship","zip":"20-078","country":"Poland","geoPoint":{"lat":51.25058,"lon":22.57009}},{"facility":"NZOZ IGNIS dr med. Alicja Lobinska","city":"Świdnik","state":"Lublin Voivodeship","zip":"21-040","country":"Poland","geoPoint":{"lat":51.21898,"lon":22.69621}},{"facility":"Twoja Przychodnia Nowosolskie Centrum Medyczne sp. z o.o","city":"Nowa Sól","state":"Lubusz Voivodeship","zip":"67-100","country":"Poland","geoPoint":{"lat":51.80333,"lon":15.71702}},{"facility":"Santa Familia PTG Lodz","city":"Lodz","state":"Lódzkie","zip":"90-302","country":"Poland","geoPoint":{"lat":51.77058,"lon":19.47395}},{"facility":"MTZ Clinical Research Powered by PRATIA - PPDS","city":"Warsaw","state":"Masovian Voivodeship","zip":"02-172","country":"Poland","geoPoint":{"lat":52.22977,"lon":21.01178}},{"facility":"Neurosphera SP. Z O.O","city":"Warsaw","state":"Masovian Voivodeship","zip":"02-829","country":"Poland","geoPoint":{"lat":52.22977,"lon":21.01178}},{"facility":"Instytut Psychiatrii i Neurologii","city":"Warsaw","state":"Masovian Voivodeship","zip":"02-957","country":"Poland","geoPoint":{"lat":52.22977,"lon":21.01178}},{"facility":"Centrum Badan Klinicznych PI-House sp. z o.o.","city":"Gdansk","state":"Pomeranian Voivodeship","zip":"80-546","country":"Poland","geoPoint":{"lat":54.35227,"lon":18.64912}},{"facility":"Copernicus Podmiot Leczniczy Sp. z o.o. - ul. Nowe Ogrody 1-6","city":"Gdansk","zip":"80-803","country":"Poland","geoPoint":{"lat":54.35227,"lon":18.64912}},{"facility":"Novo-Med Zielinski i wsp. Sp.J. - ul. Brynowska 44","city":"Katowice","zip":"40-594","country":"Poland","geoPoint":{"lat":50.2597,"lon":19.02173}},{"facility":"Pratia MCM Kraków","city":"Krakow","zip":"30-727","country":"Poland","geoPoint":{"lat":50.06143,"lon":19.93658}},{"facility":"LANDA Specjalistyczne Gabinety Lekarskie","city":"Krakow","zip":"31-156","country":"Poland","geoPoint":{"lat":50.06143,"lon":19.93658}},{"facility":"Premium Clinic Wrocław","city":"Wroclaw","zip":"50-414","country":"Poland","geoPoint":{"lat":51.10286,"lon":17.03006}},{"facility":"ULS de Entre Douro e Vouga, EPE - Hospital de São Sebastião","city":"Santa Maria da Feira","state":"Aveiro District","zip":"4520-211","country":"Portugal","geoPoint":{"lat":40.92726,"lon":-8.54839}},{"facility":"ULS de Matosinhos, EPE - Hospital Pedro Hispano","city":"Senhora da Hora","state":"Porto District","zip":"4454-509","country":"Portugal","geoPoint":{"lat":41.18641,"lon":-8.65172}},{"facility":"Centro Clínico Académico, Braga - Hospital de Braga","city":"Braga","zip":"4710-243","country":"Portugal","geoPoint":{"lat":41.5514,"lon":-8.42311}},{"facility":"ULS de Coimbra, EPE - Hospitais da Universidade de Coimbra","city":"Coimbra","zip":"3000-459","country":"Portugal","geoPoint":{"lat":40.20686,"lon":-8.41996}},{"facility":"ULS de Lisboa Ocidental, EPE - Hospital Egas Moniz","city":"Lisbon","zip":"1449-005","country":"Portugal","geoPoint":{"lat":38.72509,"lon":-9.1498}},{"facility":"Hospital da Luz Torres de Lisboa","city":"Lisbon","zip":"1600-209","country":"Portugal","geoPoint":{"lat":38.72509,"lon":-9.1498}},{"facility":"Targu-Mures Emergency Clinical County Hospital - Str. Gh. Marinescu nr.50","city":"Târgu Mureş","state":"Mureș County","zip":"540136","country":"Romania","geoPoint":{"lat":46.54245,"lon":24.55747}},{"facility":"Emergency University Hospital","city":"Bucharest","zip":"11635","country":"Romania","geoPoint":{"lat":44.43225,"lon":26.10626}},{"facility":"IN MEDIC, s.r.o.","city":"Bardejov","zip":"085 01","country":"Slovakia","geoPoint":{"lat":49.29175,"lon":21.27271}},{"facility":"Kraskova 2636, Neurologické oddelenie","city":"Rimavská Sobota","zip":"979 01","country":"Slovakia","geoPoint":{"lat":48.38284,"lon":20.02239}},{"facility":"University Clinical Centre Maribor","city":"Maribor","zip":"2000","country":"Slovenia","geoPoint":{"lat":46.55583,"lon":15.64593}},{"facility":"InnoMed Clinical Trial Centre","city":"Cape Town","state":"Western Cape","zip":"7530","country":"South Africa","geoPoint":{"lat":-33.92584,"lon":18.42322}},{"facility":"Groote Schuur Hospital","city":"Cape Town","state":"Western Cape","zip":"7700","country":"South Africa","geoPoint":{"lat":-33.92584,"lon":18.42322}},{"facility":"Hospital Universitario Germans Trias i Pujol","city":"Badalona","state":"Barcelona","zip":"08916","country":"Spain","geoPoint":{"lat":41.45004,"lon":2.24741}},{"facility":"Hospital Universitario de Bellvitge","city":"L'Hospitalet de Llobregat","state":"Barcelona","zip":"08907","country":"Spain","geoPoint":{"lat":41.35967,"lon":2.10028}},{"facility":"Hospital Universitario de Navarra","city":"Pamplona","state":"Navarre","zip":"31008","country":"Spain","geoPoint":{"lat":42.81687,"lon":-1.64323}},{"facility":"CHUVI - H.U. Alvaro Cunqueiro","city":"Vigo","state":"Pontevedra","zip":"36312","country":"Spain","geoPoint":{"lat":42.23282,"lon":-8.72264}},{"facility":"Hospital del Mar","city":"Barcelona","zip":"08003","country":"Spain","geoPoint":{"lat":41.38879,"lon":2.15899}},{"facility":"Hospital Universitario Vall d'Hebron - PPDS","city":"Barcelona","zip":"08035","country":"Spain","geoPoint":{"lat":41.38879,"lon":2.15899}},{"facility":"Fundacio Assistencial Mutua de Terrassa","city":"Barcelona","zip":"08221","country":"Spain","geoPoint":{"lat":41.38879,"lon":2.15899}},{"facility":"Hospital Universitario Clínico San Cecilio","city":"Granada","zip":"18007","country":"Spain","geoPoint":{"lat":37.18817,"lon":-3.60667}},{"facility":"Hospital Vithas Granada","city":"Granada","zip":"18008","country":"Spain","geoPoint":{"lat":37.18817,"lon":-3.60667}},{"facility":"Hospital Universitario Virgen de Las Nieves","city":"Granada","zip":"18013","country":"Spain","geoPoint":{"lat":37.18817,"lon":-3.60667}},{"facility":"Hospital Ruber Internacional (Grupo Quironsalud)","city":"Madrid","zip":"28034","country":"Spain","geoPoint":{"lat":40.4165,"lon":-3.70256}},{"facility":"Hospital Universitario Fundacion Jimenez Diaz","city":"Madrid","zip":"28040","country":"Spain","geoPoint":{"lat":40.4165,"lon":-3.70256}},{"facility":"Blua Sanitas Valdebebas Hospital","city":"Madrid","zip":"28055","country":"Spain","geoPoint":{"lat":40.4165,"lon":-3.70256}},{"facility":"Hospital blua sanitas valdebebas","city":"Madrid","zip":"28055","country":"Spain","geoPoint":{"lat":40.4165,"lon":-3.70256}},{"facility":"Hospital Regional Universitario de Malaga - Hospital General","city":"Málaga","zip":"29010","country":"Spain","geoPoint":{"lat":36.72016,"lon":-4.42034}},{"facility":"Centro de Neurologia Avanzada","city":"Seville","zip":"41013","country":"Spain","geoPoint":{"lat":37.38283,"lon":-5.97317}},{"facility":"Hospital Universitari i Politecnic La Fe de Valencia","city":"Valencia","zip":"46026","country":"Spain","geoPoint":{"lat":39.47391,"lon":-0.37966}},{"facility":"Hospital Clinico Universitario de Valladolid","city":"Valladolid","zip":"47003","country":"Spain","geoPoint":{"lat":41.65541,"lon":-4.72353}},{"facility":"Klinik Lengg AG","city":"Zurich","state":"Zürich (de)","zip":"8008","country":"Switzerland","geoPoint":{"lat":47.36667,"lon":8.55}},{"facility":"Morriston Hospital","city":"Swansea","state":"Glamorgan","zip":"SA6 6NL","country":"United Kingdom","geoPoint":{"lat":51.62079,"lon":-3.94323}},{"facility":"Queen Elizabeth University Hospital-PPDS","city":"Glasgow","state":"Glasgow City","zip":"G51 4TF","country":"United Kingdom","geoPoint":{"lat":55.86515,"lon":-4.25763}},{"facility":"Salford Royal Hospital - PPDS","city":"Salford","state":"Manchester","zip":"M6 8HD","country":"United Kingdom","geoPoint":{"lat":53.48771,"lon":-2.29042}},{"facility":"The Walton Centre - PPDS","city":"Liverpool","state":"Merseyside","zip":"L9 7LJ","country":"United Kingdom","geoPoint":{"lat":53.41058,"lon":-2.97794}},{"facility":"University College Hospital","city":"London","state":"Middlesex","zip":"WC1N 3BG","country":"United Kingdom","geoPoint":{"lat":51.50853,"lon":-0.12574}},{"facility":"John Radcliffe Hospital","city":"Oxford","state":"Oxfordshire","zip":"OX3 9DU","country":"United Kingdom","geoPoint":{"lat":51.75222,"lon":-1.25596}},{"facility":"University Hospital of Wales","city":"Cardiff","state":"South Glamorgan","zip":"CF14 4XW","country":"United Kingdom","geoPoint":{"lat":51.48,"lon":-3.18}},{"facility":"Royal Victoria Infirmary","city":"Newcastle upon Tyne","zip":"NE1 4LP","country":"United Kingdom","geoPoint":{"lat":54.97328,"lon":-1.61396}}]}},"derivedSection":{"miscInfoModule":{"versionHolder":"2026-02-25"},"conditionBrowseModule":{"meshes":[{"id":"D004828","term":"Epilepsies, Partial"},{"id":"D004827","term":"Epilepsy"},{"id":"D012640","term":"Seizures"},{"id":"D000069279","term":"Drug Resistant Epilepsy"}],"ancestors":[{"id":"D001927","term":"Brain Diseases"},{"id":"D002493","term":"Central Nervous System Diseases"},{"id":"D009422","term":"Nervous System Diseases"},{"id":"D009461","term":"Neurologic Manifestations"},{"id":"D012816","term":"Signs and Symptoms"},{"id":"D013568","term":"Pathological Conditions, Signs and Symptoms"}]}},"hasResults":false}