{"protocolSection":{"identificationModule":{"nctId":"NCT07142811","orgStudyIdInfo":{"id":"VIR-CHDV-V206"},"organization":{"fullName":"Vir Biotechnology, Inc.","class":"INDUSTRY"},"briefTitle":"A Study to Evaluate Tobevibart+Elebsiran Versus Bulevirtide in Chronic HDV Infection","officialTitle":"A Phase 2b Randomized, Open-Label Study to Evaluate the Efficacy and Safety of Tobevibart+Elebsiran Combination Therapy Versus Bulevirtide in Participants With Chronic HDV Infection (ECLIPSE 3)"},"statusModule":{"statusVerifiedDate":"2026-01","overallStatus":"ACTIVE_NOT_RECRUITING","startDateStruct":{"date":"2025-08-05","type":"ACTUAL"},"primaryCompletionDateStruct":{"date":"2026-11","type":"ESTIMATED"},"completionDateStruct":{"date":"2030-07","type":"ESTIMATED"},"studyFirstSubmitDate":"2025-08-19","studyFirstSubmitQcDate":"2025-08-19","studyFirstPostDateStruct":{"date":"2025-08-27","type":"ACTUAL"},"lastUpdateSubmitDate":"2026-01-15","lastUpdatePostDateStruct":{"date":"2026-01-16","type":"ACTUAL"}},"sponsorCollaboratorsModule":{"responsibleParty":{"type":"SPONSOR"},"leadSponsor":{"name":"Vir Biotechnology, Inc.","class":"INDUSTRY"}},"oversightModule":{"oversightHasDmc":true,"isFdaRegulatedDrug":true,"isFdaRegulatedDevice":false},"descriptionModule":{"briefSummary":"A Study to Evaluate Tobevibart+Elebsiran versus Bulevirtide in Chronic HDV Infection"},"conditionsModule":{"conditions":["Viral Hepatitis"],"keywords":["HDV","Hepatitis D Virus","Hepatitis","Chronic Hepatitis D Virus","Hepatitis D","Hepatitis D, Chronic","Hepatitis Delta Virus","Digestive System Diseases","Liver Diseases"]},"designModule":{"studyType":"INTERVENTIONAL","phases":["PHASE2"],"designInfo":{"allocation":"RANDOMIZED","interventionModel":"PARALLEL","primaryPurpose":"TREATMENT","maskingInfo":{"masking":"NONE"}},"enrollmentInfo":{"count":100,"type":"ESTIMATED"}},"armsInterventionsModule":{"armGroups":[{"label":"Arm 1","type":"EXPERIMENTAL","description":"Participants will receive treatment with tobevibart + elebsiran up to 240 weeks.","interventionNames":["Drug: Tobevibart","Drug: Elebsiran"]},{"label":"Arm 2","type":"EXPERIMENTAL","description":"Participants will receive Bulevirtide for approximately 48 weeks and switch to receive tobevibart + elebsiran for additional 192 weeks","interventionNames":["Drug: Tobevibart","Drug: Elebsiran","Drug: Bulevirtide"]}],"interventions":[{"type":"DRUG","name":"Tobevibart","description":"Tobevibart administered by subcutaneous injection","armGroupLabels":["Arm 1","Arm 2"],"otherNames":["VIR-3434"]},{"type":"DRUG","name":"Elebsiran","description":"Elebsiran administered by subcutaneous injection","armGroupLabels":["Arm 1","Arm 2"],"otherNames":["VIR-2218"]},{"type":"DRUG","name":"Bulevirtide","description":"Bulevirtide administered by subcutaneous injection","armGroupLabels":["Arm 2"],"otherNames":["Hepcludex"]}]},"outcomesModule":{"primaryOutcomes":[{"measure":"HDV RNA < Lower Limit of Quantification (LLOQ), Target not detected (TND) at Week 48","timeFrame":"Week 48"},{"measure":"HDV RNA < Lower Limit of Quantification (LLOQ), Target not detected (TND) 24 weeks after end of treatment","timeFrame":"24 Weeks after End of Treatment"},{"measure":"Incidence of treatment-emergent adverse events (TEAEs) and serious adverse events (SAEs) through Week 48","timeFrame":"Week 48"}],"secondaryOutcomes":[{"measure":"Change from baseline in HDV RNA at Week 48","timeFrame":"Week 48"},{"measure":"Change from baseline in ALT at Week 48","timeFrame":"Week 48"},{"measure":"HDV RNA < Lower Limit of Quantification (LLOQ), Target not detected (TND) at Week 96, Week 120, Week 144, Week 192 and Week 240","timeFrame":"Week 96, Week 120, Week 144, Week 192 and Week 240"},{"measure":"Change from baseline in HDV RNA at Week 96, Week 120, Week 144, Week 192 and Week 240","timeFrame":"Week 96, Week 120, Week 144, Week 192 and Week 240"},{"measure":"Change from baseline in ALT at Week 96, Week 120, Week 144, Week 192 and Week 240","timeFrame":"Week 96 to Week 120, Week 144, Week 192 and Week 240"}]},"eligibilityModule":{"eligibilityCriteria":"Inclusion Criteria:\n\n1. Male or female ages 18 to 70 years at screening\n2. Positive HDV antibody or positive HDV RNA PCR result for at least 6 months prior to screening and HDV RNA ≥ 500 IU/mL at screening\n3. Noncirrhotic or compensated cirrhotic liver disease at screening\n4. On NRTI therapy against HBV for at least 12 weeks prior to day 1 or have HBV DNA \\< 10 IU/ml at screening, currently on locally approved NRTI therapy\n\nExclusion Criteria:\n\n1. Serum ALT ≥ 5 × ULN\n2. Any clinically significant chronic or acute medical or psychiatric condition that makes the participant unsuitable for participation.\n3. History of significant liver disease from non-HBV or non-HDV etiology\n4. History of allergic reactions, hypersensitivity, or intolerance to study drug, its metabolites, or excipients.\n5. History of anaphylaxis\n6. History of immune complex disease\n7. History of autoimmune disorder\n8. Current therapy or therapy within 24 weeks of screening with an immunomodulatory agent, immune checkpoint inhibitors, immunosuppressants, cytotoxic or chemotherapeutic agent, or chronic systemic corticosteroids.\n9. Any previous treatment with Bulivertide","healthyVolunteers":false,"sex":"ALL","minimumAge":"18 Years","maximumAge":"70 Years","stdAges":["ADULT","OLDER_ADULT"]},"contactsLocationsModule":{"locations":[{"facility":"Investigative Site","city":"Brussels","zip":"1020","country":"Belgium","geoPoint":{"lat":50.85045,"lon":4.34878}},{"facility":"Investigative Site","city":"Brussels","zip":"1070","country":"Belgium","geoPoint":{"lat":50.85045,"lon":4.34878}},{"facility":"Investigative Site","city":"Edegem","zip":"2650","country":"Belgium","geoPoint":{"lat":51.15662,"lon":4.44504}},{"facility":"Investigative Site","city":"Sofia","zip":"1407","country":"Bulgaria","geoPoint":{"lat":42.69751,"lon":23.32415}},{"facility":"Investigative Site","city":"Sofia","zip":"1431","country":"Bulgaria","geoPoint":{"lat":42.69751,"lon":23.32415}},{"facility":"Investigative Site","city":"Stara Zagora","zip":"6003","country":"Bulgaria","geoPoint":{"lat":42.43205,"lon":25.64262}},{"facility":"Investigative Site","city":"Clichy","zip":"92110","country":"France","geoPoint":{"lat":48.90018,"lon":2.30952}},{"facility":"Investigative Site","city":"Créteil","zip":"94000","country":"France","geoPoint":{"lat":48.79266,"lon":2.46569}},{"facility":"Investigative Site","city":"Limoges","zip":"87042","country":"France","geoPoint":{"lat":45.83362,"lon":1.24759}},{"facility":"Investigative Site","city":"Rennes","zip":"35000","country":"France","geoPoint":{"lat":48.11109,"lon":-1.67431}},{"facility":"Investigative Site","city":"Toulouse","zip":"31059","country":"France","geoPoint":{"lat":43.60426,"lon":1.44367}},{"facility":"Investigative Site","city":"Hanover","zip":"30625","country":"Germany","geoPoint":{"lat":52.37052,"lon":9.73322}},{"facility":"Investigative Site","city":"Chisinau","zip":"2025","country":"Moldova","geoPoint":{"lat":47.00902,"lon":28.85938}},{"facility":"Investigative Site","city":"Amsterdam","zip":"1081 HV","country":"Netherlands","geoPoint":{"lat":52.37403,"lon":4.88969}},{"facility":"Investigative Site","city":"Nijmegen","zip":"6525 GA","country":"Netherlands","geoPoint":{"lat":51.8425,"lon":5.85278}},{"facility":"Investigative Site","city":"Rotterdam","zip":"3015 GD","country":"Netherlands","geoPoint":{"lat":51.9225,"lon":4.47917}},{"facility":"Investigative Site","city":"Karachi","zip":"74800","country":"Pakistan","geoPoint":{"lat":24.8608,"lon":67.0104}},{"facility":"Investigative Site","city":"Karachi","zip":"75600","country":"Pakistan","geoPoint":{"lat":24.8608,"lon":67.0104}},{"facility":"Investigative Site","city":"Lahore","zip":"54800","country":"Pakistan","geoPoint":{"lat":31.558,"lon":74.35071}},{"facility":"Investigative Site","city":"Rawalpindi","zip":"46000","country":"Pakistan","geoPoint":{"lat":33.59733,"lon":73.0479}},{"facility":"Investigative Site","city":"Bucharest","zip":"021105","country":"Romania","geoPoint":{"lat":44.43225,"lon":26.10626}},{"facility":"Investigative Site","city":"Bucharest","zip":"022328","country":"Romania","geoPoint":{"lat":44.43225,"lon":26.10626}},{"facility":"Investigative Site","city":"Bucharest","zip":"030303","country":"Romania","geoPoint":{"lat":44.43225,"lon":26.10626}},{"facility":"Investigative Site","city":"Barcelona","zip":"08028","country":"Spain","geoPoint":{"lat":41.38879,"lon":2.15899}},{"facility":"Investigative Site","city":"Madrid","zip":"28064","country":"Spain","geoPoint":{"lat":40.4165,"lon":-3.70256}},{"facility":"Investigative","city":"Valencia","zip":"46014","country":"Spain","geoPoint":{"lat":39.47391,"lon":-0.37966}},{"facility":"Investigative Site","city":"Kyiv","zip":"01135","country":"Ukraine","geoPoint":{"lat":50.45466,"lon":30.5238}},{"facility":"Investigative Site","city":"London","zip":"E1 1BB","country":"United Kingdom","geoPoint":{"lat":51.50853,"lon":-0.12574}},{"facility":"Investigative Site","city":"London","zip":"SE5 9RS","country":"United Kingdom","geoPoint":{"lat":51.50853,"lon":-0.12574}},{"facility":"Investigative Site","city":"Manchester","zip":"M8 5RB","country":"United Kingdom","geoPoint":{"lat":53.48095,"lon":-2.23743}},{"facility":"Investigative Site","city":"Nottingham","zip":"NG7 2UH","country":"United Kingdom","geoPoint":{"lat":52.9536,"lon":-1.15047}}]}},"derivedSection":{"miscInfoModule":{"versionHolder":"2026-02-25"},"conditionBrowseModule":{"meshes":[{"id":"D006505","term":"Hepatitis"},{"id":"D003699","term":"Hepatitis D"},{"id":"D019701","term":"Hepatitis D, Chronic"},{"id":"D004066","term":"Digestive System Diseases"},{"id":"D008107","term":"Liver Diseases"}],"ancestors":[{"id":"D006525","term":"Hepatitis, Viral, Human"},{"id":"D014777","term":"Virus Diseases"},{"id":"D007239","term":"Infections"},{"id":"D012327","term":"RNA Virus Infections"},{"id":"D006521","term":"Hepatitis, Chronic"},{"id":"D002908","term":"Chronic Disease"},{"id":"D020969","term":"Disease Attributes"},{"id":"D010335","term":"Pathologic Processes"},{"id":"D013568","term":"Pathological Conditions, Signs and Symptoms"}]},"interventionBrowseModule":{"meshes":[{"id":"C000718249","term":"bulevirtide"}]}},"hasResults":false}