{"protocolSection":{"identificationModule":{"nctId":"NCT06208306","orgStudyIdInfo":{"id":"LTS18133"},"secondaryIdInfos":[{"id":"U1111-1295-3333","type":"REGISTRY","domain":"ICTRP"},{"id":"2023-508085-15-00","type":"REGISTRY","domain":"CTIS"}],"organization":{"fullName":"Sanofi","class":"INDUSTRY"},"briefTitle":"A Study to Investigate Long-term Safety and Tolerability of Itepekimab in Participants With COPD","officialTitle":"A Double-blinded Extension Study to Evaluate the Long-term Safety and Tolerability of Itepekimab in Patients With Chronic Obstructive Pulmonary Disease (COPD) Who Participated in Either EFC16750 or EFC16819 Clinical Studies","acronym":"AERIFY-4"},"statusModule":{"statusVerifiedDate":"2025-06","overallStatus":"ACTIVE_NOT_RECRUITING","expandedAccessInfo":{"hasExpandedAccess":false},"startDateStruct":{"date":"2024-01-11","type":"ACTUAL"},"primaryCompletionDateStruct":{"date":"2026-12-01","type":"ESTIMATED"},"completionDateStruct":{"date":"2026-12-01","type":"ESTIMATED"},"studyFirstSubmitDate":"2024-01-05","studyFirstSubmitQcDate":"2024-01-05","studyFirstPostDateStruct":{"date":"2024-01-17","type":"ACTUAL"},"lastUpdateSubmitDate":"2025-06-09","lastUpdatePostDateStruct":{"date":"2025-06-12","type":"ACTUAL"}},"sponsorCollaboratorsModule":{"responsibleParty":{"type":"SPONSOR"},"leadSponsor":{"name":"Sanofi","class":"INDUSTRY"},"collaborators":[{"name":"Regeneron Pharmaceuticals","class":"INDUSTRY"}]},"oversightModule":{"oversightHasDmc":true,"isFdaRegulatedDrug":true,"isFdaRegulatedDevice":false},"descriptionModule":{"briefSummary":"This is a parallel, double blind, Phase 3, 2-arm study that is designed to provide additional safety information, assess the durability of treatment response, and provide additional PK and immunogenicity assessments.\n\nThe primary purpose of this study is to evaluate safety and tolerability of both itepekimab SC Q2W or itepekimab SC Q4W in participants with COPD having completed the treatment period of the clinical studies EFC16750 or EFC16819. A secondary purpose of this study is to provide efficacy outcomes beyond the treatment period of the parent trials EFC16750 and EFC16819.\n\nStudy details include:\n\n* The study duration will be up to 72 weeks\n* The treatment duration will be up to 52 weeks\n* A follow-up period of 20 weeks will be conducted\n* The number of on-site visits will be 7 and the number of phone contacts will be 5"},"conditionsModule":{"conditions":["Chronic Obstructive Pulmonary Disease"]},"designModule":{"studyType":"INTERVENTIONAL","phases":["PHASE3"],"designInfo":{"allocation":"RANDOMIZED","interventionModel":"PARALLEL","primaryPurpose":"TREATMENT","maskingInfo":{"masking":"TRIPLE","whoMasked":["PARTICIPANT","CARE_PROVIDER","INVESTIGATOR"]}},"enrollmentInfo":{"count":700,"type":"ESTIMATED"}},"armsInterventionsModule":{"armGroups":[{"label":"Itepekimab Q2W","type":"EXPERIMENTAL","description":"Subcutaneous (SC) administration of Itepekimab every 2 weeks (Q2W) for up to 52 weeks","interventionNames":["Drug: Itepekimab (SAR440340)"]},{"label":"Itepekimab Q4W","type":"EXPERIMENTAL","description":"SC administration of Itepekimab every 4 weeks (Q4W) for up to 52 weeks, with alternating SC administration of matching placebo at the 2-week interval between active IMP","interventionNames":["Drug: Itepekimab (SAR440340)","Drug: Placebo"]}],"interventions":[{"type":"DRUG","name":"Itepekimab (SAR440340)","description":"Pharmaceutical form:solution for injection in pre-filled syringe Route of administration:subcutaneous","armGroupLabels":["Itepekimab Q2W","Itepekimab Q4W"],"otherNames":["REGN3500"]},{"type":"DRUG","name":"Placebo","description":"Pharmaceutical form:solution for injection in pre-filled syringe Route of administration:subcutaneous","armGroupLabels":["Itepekimab Q4W"]}]},"outcomesModule":{"primaryOutcomes":[{"measure":"Incidence of treatment-emergent AEs, AESIs, SAEs, and AEs leading to permanent treatment discontinuation","description":"All AEs (serious or nonserious) will be collected from the signing of the informed consent form (ICF) until the end of study visit","timeFrame":"Baseline up to Week 72"}],"secondaryOutcomes":[{"measure":"Functional itepekimab concentrations in serum","timeFrame":"Baseline up to Week 52"},{"measure":"Incidence of treatment-emergent (TE) anti-drug antibody responses","timeFrame":"Baseline up to Week 72"},{"measure":"Annualized rate of moderate-to-severe acute exacerbation of COPD (AECOPD)","timeFrame":"Baseline up to Week 52"},{"measure":"Annualized rate of severe AECOPD","timeFrame":"Baseline up to Week 52"},{"measure":"Time to first moderate-to-severe AECOPD","timeFrame":"Baseline up to Week 52"},{"measure":"Time to first severe AECOPD","timeFrame":"Baseline up to Week 52"},{"measure":"Change from baseline of the parent studies (EFC16750, EFC16819): Pre-BD and post-BD FEV1","description":"FEV1 is force expiratory volume in 1 second","timeFrame":"Baseline of the parent studies (EFC16750,EFC16819) up to Week 52"},{"measure":"Change from baseline of the parent studies (EFC16750, EFC16819): SGRQ total score and domain scores","description":"The St. George's Respiratory Questionnaire (SGRQ) is a 50-item questionnaire designed to measure and quantify health status in adult participants with chronic airflow limitation.","timeFrame":"Baseline of the parent studies (EFC16750,EFC16819) up to Week 52"},{"measure":"Change from baseline of the parent studies (EFC16750, EFC16819): EQ-5D-5L single index score","description":"The European Quality of Life 5 Dimensions 5 Level Version (EQ 5D 5L) is a standardized health-related quality-of-life (HRQoL) questionnaire which consists of a descriptive system and the EuroQol visual analog scale (EQ-VAS).","timeFrame":"Baseline of the parent studies (EFC16750,EFC16819) up to Week 52"},{"measure":"Change from baseline of the parent studies (EFC16750, EFC16819): EQ-VAS","description":"The EuroQol visual analog scale (EQ VAS) records the participant's self-rated health on a vertical VAS.","timeFrame":"Baseline of the parent studies (EFC16750,EFC16819) up to Week 52"},{"measure":"Change from Week 0 for CASA-Q","description":"The cough and sputum assessment questionnaire (CASA-Q) was developed for use in COPD and chronic (non-obstructive) bronchitis patients.","timeFrame":"Baseline up to Week 52"}]},"eligibilityModule":{"eligibilityCriteria":"Inclusion Criteria:\n\n\\- Patients with COPD who completed the treatment period in a previous itepekimab COPD Phase 3 clinical study (ie, EFC16750 or EFC16819) and for which an end-of-treatment (EOT) visit occurred no later than 3 days before the enrolment visit of this study.\n\nExclusion Criteria:\n\n* Diagnosis of a malignancy during parent study, except a squamous or basal cell carcinoma of the skin\n* Any opportunistic infection during the parent study, such as tuberculosis (TB) or other infections whose nature or course may suggest an immunocompromised status\n* Anaphylactic reactions or systemic allergic reactions that are related to IMP and require treatment during the parent study\n* Any situation that led to a permanent premature IMP discontinuation in parent trials\n\nThe above information is not intended to contain all considerations relevant to a patient's potential participation in a clinical trial.","healthyVolunteers":false,"sex":"ALL","minimumAge":"40 Years","maximumAge":"85 Years","stdAges":["ADULT","OLDER_ADULT"]},"contactsLocationsModule":{"overallOfficials":[{"name":"Clinical Sciences & Operations","affiliation":"Sanofi","role":"STUDY_DIRECTOR"}],"locations":[{"facility":"Chandler Clinical Research Trials- Site Number : 8401034","city":"Chandler","state":"Arizona","zip":"85224","country":"United States","geoPoint":{"lat":33.30616,"lon":-111.84125}},{"facility":"Noble Clinical Research Site Number : 8401182","city":"Tucson","state":"Arizona","zip":"85704","country":"United States","geoPoint":{"lat":32.22174,"lon":-110.92648}},{"facility":"Tucson Clinical Research Institute- Site Number : 8401431","city":"Tucson","state":"Arizona","zip":"85712","country":"United States","geoPoint":{"lat":32.22174,"lon":-110.92648}},{"facility":"IMAX Clinical Trials- Site Number : 8401419","city":"La Palma","state":"California","zip":"90623","country":"United States","geoPoint":{"lat":33.8464,"lon":-118.04673}},{"facility":"Antelope Valley Clinical Trials Site Number : 8401003","city":"Lancaster","state":"California","zip":"93534","country":"United States","geoPoint":{"lat":34.69804,"lon":-118.13674}},{"facility":"Downtown L.A. Research Center- Site Number : 8401027","city":"Los Angeles","state":"California","zip":"90017","country":"United States","geoPoint":{"lat":34.05223,"lon":-118.24368}},{"facility":"Allianz Research Institute CO Site Number : 8402061","city":"Aurora","state":"Colorado","zip":"80014","country":"United States","geoPoint":{"lat":39.72943,"lon":-104.83192}},{"facility":"Alpine Clinical Research Center - Boulder - 47th Street- Site Number : 8401180","city":"Boulder","state":"Colorado","zip":"80301","country":"United States","geoPoint":{"lat":40.01499,"lon":-105.27055}},{"facility":"Helix Biomedics- Site Number : 8402049","city":"Boynton Beach","state":"Florida","zip":"33435","country":"United States","geoPoint":{"lat":26.52535,"lon":-80.06643}},{"facility":"Beautiful Minds Clinical Research Center Site Number : 8401201","city":"Cutler Bay","state":"Florida","zip":"33157","country":"United States","geoPoint":{"lat":25.5783,"lon":-80.3377}},{"facility":"Omega Research Consultants - Debary - North Charles Richard Beall Boulevard- Site Number : 8402031","city":"DeBary","state":"Florida","zip":"32713","country":"United States","geoPoint":{"lat":28.88305,"lon":-81.30868}},{"facility":"Science Connections, LLC Site Number : 8402045","city":"Doral","state":"Florida","zip":"33178","country":"United States","geoPoint":{"lat":25.81954,"lon":-80.35533}},{"facility":"Direct Helpers Research Center- Site Number : 8402065","city":"Hialeah","state":"Florida","zip":"33012","country":"United States","geoPoint":{"lat":25.8576,"lon":-80.27811}},{"facility":"Premier Medical Associates Site Number : 8401388","city":"Lady Lake","state":"Florida","zip":"32159","country":"United States","geoPoint":{"lat":28.91749,"lon":-81.92286}},{"facility":"Advanced Pulmonary Research Institute Site Number : 8402018","city":"Loxahatchee Groves","state":"Florida","zip":"33470","country":"United States","geoPoint":{"lat":26.68368,"lon":-80.27977}},{"facility":"Finlay Medical Research- Site Number : 8402007","city":"Miami","state":"Florida","zip":"33126","country":"United States","geoPoint":{"lat":25.77427,"lon":-80.19366}},{"facility":"Elite Clinical Research - Miami- Site Number : 8402009","city":"Miami","state":"Florida","zip":"33144","country":"United States","geoPoint":{"lat":25.77427,"lon":-80.19366}},{"facility":"DL Research Solutions- Site Number : 8401033","city":"Miami","state":"Florida","zip":"33155","country":"United States","geoPoint":{"lat":25.77427,"lon":-80.19366}},{"facility":"My Community Research Center Site Number : 8402060","city":"Miami","state":"Florida","zip":"33155","country":"United States","geoPoint":{"lat":25.77427,"lon":-80.19366}},{"facility":"Phoenix Medical Research - Miami - 24th Street- Site Number : 8402019","city":"Miami","state":"Florida","zip":"33165","country":"United States","geoPoint":{"lat":25.77427,"lon":-80.19366}},{"facility":"Research Institute of South Florida- Site Number : 8401006","city":"Miami","state":"Florida","zip":"33173","country":"United States","geoPoint":{"lat":25.77427,"lon":-80.19366}},{"facility":"Reed Medical Research Site Number : 8401032","city":"Miami","state":"Florida","zip":"33176","country":"United States","geoPoint":{"lat":25.77427,"lon":-80.19366}},{"facility":"High Quality Research Site Number : 8401406","city":"Miami","state":"Florida","zip":"33184","country":"United States","geoPoint":{"lat":25.77427,"lon":-80.19366}},{"facility":"Deluxe Health Center Site Number : 8401188","city":"Miami Lakes","state":"Florida","zip":"33014","country":"United States","geoPoint":{"lat":25.90871,"lon":-80.30866}},{"facility":"Renstar Medical Research - Ocala - Northeast 1st Avenue- Site Number : 8402015","city":"Ocala","state":"Florida","zip":"34470","country":"United States","geoPoint":{"lat":29.1872,"lon":-82.14009}},{"facility":"Heuer M.D. Research- Site Number : 8402016","city":"Orlando","state":"Florida","zip":"32819","country":"United States","geoPoint":{"lat":28.53834,"lon":-81.37924}},{"facility":"Florida Institute for Clinical Research Site Number : 8401013","city":"Orlando","state":"Florida","zip":"32825","country":"United States","geoPoint":{"lat":28.53834,"lon":-81.37924}},{"facility":"Oviedo Medical Research Site Number : 8402026","city":"Oviedo","state":"Florida","zip":"32765","country":"United States","geoPoint":{"lat":28.67,"lon":-81.20812}},{"facility":"Innovation Medical Research Center - Palmetto Bay- Site Number : 8402067","city":"Palmetto Bay","state":"Florida","zip":"33157","country":"United States","geoPoint":{"lat":25.62177,"lon":-80.32477}},{"facility":"Pines Care Research Center- Site Number : 8402056","city":"Pembroke Pines","state":"Florida","zip":"33024","country":"United States","geoPoint":{"lat":26.00315,"lon":-80.22394}},{"facility":"Tellabio International Research Services Site Number : 8401411","city":"Pembroke Pines","state":"Florida","zip":"33025","country":"United States","geoPoint":{"lat":26.00315,"lon":-80.22394}},{"facility":"Clinical Research of West Florida - Tampa - North Howard Avenue- Site Number : 8402008","city":"Tampa","state":"Florida","zip":"33606","country":"United States","geoPoint":{"lat":27.94752,"lon":-82.45843}},{"facility":"Appalachian Clinical Research Site Number : 8400024","city":"Calhoun","state":"Georgia","zip":"30701","country":"United States","geoPoint":{"lat":34.50259,"lon":-84.95105}},{"facility":"Private Practice - Dr. David Kavtaradze- Site Number : 8401029","city":"Cordele","state":"Georgia","zip":"31015","country":"United States","geoPoint":{"lat":31.96351,"lon":-83.78239}},{"facility":"Alpha Clinical Research Group - Dunwoody- Site Number : 8401190","city":"Dunwoody","state":"Georgia","zip":"30350","country":"United States","geoPoint":{"lat":33.94621,"lon":-84.33465}},{"facility":"Covenant Pulmonary Critical Care Site Number : 8401183","city":"East Point","state":"Georgia","zip":"30344","country":"United States","geoPoint":{"lat":33.67955,"lon":-84.43937}},{"facility":"OSF Saint Fracis Medical Center- Site Number : 8402024","city":"Peoria","state":"Illinois","zip":"61637","country":"United States","geoPoint":{"lat":40.69365,"lon":-89.58899}},{"facility":"Benchmark Research - Covington- Site Number : 8401193","city":"Covington","state":"Louisiana","zip":"70433","country":"United States","geoPoint":{"lat":30.47549,"lon":-90.10042}},{"facility":"Care Access - Shreveport- Site Number : 8402047","city":"Shreveport","state":"Louisiana","zip":"71105","country":"United States","geoPoint":{"lat":32.52515,"lon":-93.75018}},{"facility":"Private Practice - Dr. Paul Shapero- Site Number : 8401016","city":"Bangor","state":"Maine","zip":"04401","country":"United States","geoPoint":{"lat":44.79884,"lon":-68.77265}},{"facility":"Care Access - Boston- Site Number : 8402276","city":"Boston","state":"Massachusetts","zip":"02110","country":"United States","geoPoint":{"lat":42.35843,"lon":-71.05977}},{"facility":"Revive Research Institute - Lathrup Village- Site Number : 8402186","city":"Lathrup Village","state":"Michigan","zip":"48076","country":"United States","geoPoint":{"lat":42.49642,"lon":-83.22271}},{"facility":"Pulmonary and Medicine Associates- Site Number : 8401403","city":"Warren","state":"Michigan","zip":"48088","country":"United States","geoPoint":{"lat":42.49044,"lon":-83.01304}},{"facility":"Hannibal Regional Healthcare System-HRMG-Hannibal Site Number : 8401383","city":"Hannibal","state":"Missouri","zip":"63401-6890","country":"United States","geoPoint":{"lat":39.70838,"lon":-91.35848}},{"facility":"Midwest Chest Consultants- Site Number : 8401002","city":"Saint Charles","state":"Missouri","zip":"63301","country":"United States","geoPoint":{"lat":38.78394,"lon":-90.48123}},{"facility":"Washington University- Site Number : 8402035","city":"St Louis","state":"Missouri","zip":"63110","country":"United States","geoPoint":{"lat":38.62727,"lon":-90.19789}},{"facility":"Henderson Clinical Trials Site Number : 8401365","city":"Henderson","state":"Nevada","zip":"89052","country":"United States","geoPoint":{"lat":36.0397,"lon":-114.98194}},{"facility":"VA Western New York Healthcare System Site Number : 8402050","city":"Buffalo","state":"New York","zip":"14215","country":"United States","geoPoint":{"lat":42.88645,"lon":-78.87837}},{"facility":"Schenectady Pulmonary and Critical Care Associates - Schenectady Main Office- Site Number : 8402029","city":"Schenectady","state":"New York","zip":"12308","country":"United States","geoPoint":{"lat":42.81424,"lon":-73.93957}},{"facility":"East Carolina University- Site Number : 8401022","city":"Greenville","state":"North Carolina","zip":"27858","country":"United States","geoPoint":{"lat":35.61266,"lon":-77.36635}},{"facility":"Advanced Respiratory and Sleep Medicine - Huntersville- Site Number : 8400022","city":"Huntersville","state":"North Carolina","zip":"28078","country":"United States","geoPoint":{"lat":35.41069,"lon":-80.84285}},{"facility":"OK Clinical Research- Site Number : 8402001","city":"Edmond","state":"Oklahoma","zip":"73034","country":"United States","geoPoint":{"lat":35.65283,"lon":-97.4781}},{"facility":"Clinical Research Associates of Central PA - Dubois- Site Number : 8401023","city":"DuBois","state":"Pennsylvania","zip":"15801","country":"United States","geoPoint":{"lat":41.11923,"lon":-78.76003}},{"facility":"Allegheny General Hospital- Site Number : 8402058","city":"Pittsburgh","state":"Pennsylvania","zip":"15212","country":"United States","geoPoint":{"lat":40.44062,"lon":-79.99589}},{"facility":"MedTrial- Site Number : 8402048","city":"Columbia","state":"South Carolina","zip":"29204","country":"United States","geoPoint":{"lat":34.00071,"lon":-81.03481}},{"facility":"Clinical Research of Rock Hill Site Number : 8401008","city":"Rock Hill","state":"South Carolina","zip":"29732","country":"United States","geoPoint":{"lat":34.92487,"lon":-81.02508}},{"facility":"REX Clinical Trials - Beaumont- Site Number : 8401371","city":"Beaumont","state":"Texas","zip":"77701","country":"United States","geoPoint":{"lat":30.08605,"lon":-94.10185}},{"facility":"South Texas Medical Research Institute - TTS Research- Site Number : 8402012","city":"Boerne","state":"Texas","zip":"78006","country":"United States","geoPoint":{"lat":29.79466,"lon":-98.73197}},{"facility":"ClinRx Research - Carrollton- Site Number : 8401021","city":"Carrollton","state":"Texas","zip":"75007","country":"United States","geoPoint":{"lat":32.95373,"lon":-96.89028}},{"facility":"Corsicana Medical Research- Site Number : 8401018","city":"Corsicana","state":"Texas","zip":"75110","country":"United States","geoPoint":{"lat":32.09543,"lon":-96.46887}},{"facility":"The Methodist Hospital Research Institute Site Number : 8401194","city":"Houston","state":"Texas","zip":"77030","country":"United States","geoPoint":{"lat":29.76328,"lon":-95.36327}},{"facility":"Metroplex Pulmonary and Sleep Center Site Number : 8401015","city":"McKinney","state":"Texas","zip":"75069","country":"United States","geoPoint":{"lat":33.19762,"lon":-96.61527}},{"facility":"Clear Lake Specialties Research Center, PLLC Site Number : 8401025","city":"Webster","state":"Texas","zip":"77598","country":"United States","geoPoint":{"lat":29.53773,"lon":-95.11826}},{"facility":"Rheumatology & Pulmonary Clinic- Site Number : 8402053","city":"Beckley","state":"West Virginia","zip":"25801","country":"United States","geoPoint":{"lat":37.77817,"lon":-81.18816}},{"facility":"Investigational Site Number : 0320012","city":"Berazategui","state":"Buenos Aires","zip":"1886","country":"Argentina","geoPoint":{"lat":-34.76531,"lon":-58.21278}},{"facility":"Investigational Site Number : 0320013","city":"La Plata","state":"Buenos Aires","zip":"B1900BNN","country":"Argentina","geoPoint":{"lat":-34.92126,"lon":-57.95442}},{"facility":"Investigational Site Number : 0320003","city":"Rosario","state":"Santa Fe Province","zip":"2000","country":"Argentina","geoPoint":{"lat":-32.94682,"lon":-60.63932}},{"facility":"Investigational Site Number : 0320007","city":"Rosario","state":"Santa Fe Province","zip":"2000","country":"Argentina","geoPoint":{"lat":-32.94682,"lon":-60.63932}},{"facility":"Investigational Site Number : 0320008","city":"Rosario","state":"Santa Fe Province","zip":"2000","country":"Argentina","geoPoint":{"lat":-32.94682,"lon":-60.63932}},{"facility":"Investigational Site Number : 0320011","city":"Rosario","state":"Santa Fe Province","zip":"2000","country":"Argentina","geoPoint":{"lat":-32.94682,"lon":-60.63932}},{"facility":"Investigational Site Number : 0320010","city":"Buenos Aires","zip":"1023","country":"Argentina","geoPoint":{"lat":-34.61315,"lon":-58.37723}},{"facility":"Investigational Site Number : 0320005","city":"Buenos Aires","zip":"1414","country":"Argentina","geoPoint":{"lat":-34.61315,"lon":-58.37723}},{"facility":"Investigational Site Number : 0320002","city":"Buenos Aires","zip":"1425","country":"Argentina","geoPoint":{"lat":-34.61315,"lon":-58.37723}},{"facility":"Investigational Site Number : 0320006","city":"Buenos Aires","zip":"1638","country":"Argentina","geoPoint":{"lat":-34.61315,"lon":-58.37723}},{"facility":"Investigational Site Number : 0320009","city":"Buenos Aires","zip":"1650","country":"Argentina","geoPoint":{"lat":-34.61315,"lon":-58.37723}},{"facility":"Investigational Site Number : 0320004","city":"Mendoza","zip":"5500","country":"Argentina","geoPoint":{"lat":-32.88946,"lon":-68.84582}},{"facility":"Centro de Diagnostico e Pesquisa da Osteoporose do Espirito Santo- Site Number : 0760009","city":"Vitória","state":"Espírito Santo","zip":"29055-450","country":"Brazil","geoPoint":{"lat":-20.31944,"lon":-40.33778}},{"facility":"Serviços Especializados em Reumatologia- Site Number : 0760020","city":"Salvador","state":"Estado de Bahia","zip":"40150-150","country":"Brazil","geoPoint":{"lat":-12.97563,"lon":-38.49096}},{"facility":"Centro De Cardiologia Clinica E Pesquisa- Site Number : 0760018","city":"Brasília","state":"Federal District","zip":"70710-100","country":"Brazil","geoPoint":{"lat":-15.77972,"lon":-47.92972}},{"facility":"Santa Casa de Misericordia de Belo Horizonte- Site Number : 0760014","city":"Belo Horizonte","state":"Minas Gerais","zip":"30150-221","country":"Brazil","geoPoint":{"lat":-19.92083,"lon":-43.93778}},{"facility":"Centro de Estudos em Terapias Inovadoras- Site Number : 0760012","city":"Curitiba","state":"Paraná","zip":"80030-110","country":"Brazil","geoPoint":{"lat":-25.42778,"lon":-49.27306}},{"facility":"Irmandade da Santa Casa de Misericórdia de Porto Alegre- Site Number : 0760001","city":"Porto Alegre","state":"Rio Grande do Sul","zip":"90020-090","country":"Brazil","geoPoint":{"lat":-30.03283,"lon":-51.23019}},{"facility":"Instituto Ceos Site Number : 0760021","city":"Porto Alegre","state":"Rio Grande do Sul","zip":"90480-020","country":"Brazil","geoPoint":{"lat":-30.03283,"lon":-51.23019}},{"facility":"Hospital São Lucas da PUCRS - Porto Alegre - Avenida Ipiranga- Site Number : 0760007","city":"Porto Alegre","state":"Rio Grande do Sul","zip":"90610-000","country":"Brazil","geoPoint":{"lat":-30.03283,"lon":-51.23019}},{"facility":"WM Pesquisas Clínicas em Doenças Respiratórias- Site Number : 0760006","city":"Porto Alegre","state":"Rio Grande do Sul","zip":"91010-006","country":"Brazil","geoPoint":{"lat":-30.03283,"lon":-51.23019}},{"facility":"Universidade Estadual Paulista - Faculdade de Medicina de Botucatu- Site Number : 0760005","city":"Botucatu","state":"São Paulo","zip":"18618-970","country":"Brazil","geoPoint":{"lat":-22.88583,"lon":-48.445}},{"facility":"Hospital e Maternidade Celso Pierro - PUC-Campinas- Site Number : 0760010","city":"Campinas","state":"São Paulo","zip":"13034-685","country":"Brazil","geoPoint":{"lat":-22.90556,"lon":-47.06083}},{"facility":"Centro Multidisciplinar de Estudos Clínicos- Site Number : 0760015","city":"São Bernardo do Campo","state":"São Paulo","zip":"09715-090","country":"Brazil","geoPoint":{"lat":-23.69389,"lon":-46.565}},{"facility":"Núcleo de Pesquisa Clínica da Rede São Camilo- Site Number : 0760013","city":"São Paulo","zip":"04014-002","country":"Brazil","geoPoint":{"lat":-23.5475,"lon":-46.63611}},{"facility":"Investigational Site Number : 1000004","city":"Gabrovo","zip":"5300","country":"Bulgaria","geoPoint":{"lat":42.87419,"lon":25.31823}},{"facility":"Investigational Site Number : 1000007","city":"Haskovo","zip":"6300","country":"Bulgaria","geoPoint":{"lat":41.93415,"lon":25.55557}},{"facility":"Investigational Site Number : 1000018","city":"Rousse","zip":"7000","country":"Bulgaria","geoPoint":{"lat":43.84872,"lon":25.9534}},{"facility":"Investigational Site Number : 1000010","city":"Rousse","zip":"7002","country":"Bulgaria","geoPoint":{"lat":43.84872,"lon":25.9534}},{"facility":"Investigational Site Number : 1000016","city":"Sofia","zip":"1142","country":"Bulgaria","geoPoint":{"lat":42.69751,"lon":23.32415}},{"facility":"Investigational Site Number : 1000001","city":"Sofia","zip":"1233","country":"Bulgaria","geoPoint":{"lat":42.69751,"lon":23.32415}},{"facility":"Investigational Site Number : 1000009","city":"Sofia","zip":"1756","country":"Bulgaria","geoPoint":{"lat":42.69751,"lon":23.32415}},{"facility":"Investigational Site Number : 1000017","city":"Stara Zagora","zip":"6000","country":"Bulgaria","geoPoint":{"lat":42.43205,"lon":25.64262}},{"facility":"Investigational Site Number : 1000003","city":"Stara Zagora","zip":"6003","country":"Bulgaria","geoPoint":{"lat":42.43205,"lon":25.64262}},{"facility":"Investigational Site Number : 1000013","city":"Veliko Tarnovo","zip":"5000","country":"Bulgaria","geoPoint":{"lat":43.08124,"lon":25.62904}},{"facility":"Investigational Site Number : 1000006","city":"Vidin","zip":"3700","country":"Bulgaria","geoPoint":{"lat":43.99159,"lon":22.88236}},{"facility":"Investigational Site Number : 1240006","city":"Sherwood Park","state":"Alberta","zip":"T8H 0N2","country":"Canada","geoPoint":{"lat":53.51684,"lon":-113.3187}},{"facility":"Investigational Site Number : 1240021","city":"Ajax","state":"Ontario","zip":"L1S 2J5","country":"Canada","geoPoint":{"lat":43.85012,"lon":-79.03288}},{"facility":"Investigational Site Number : 1240009","city":"Toronto","state":"Ontario","zip":"M5T 3A9","country":"Canada","geoPoint":{"lat":43.70643,"lon":-79.39864}},{"facility":"Investigational Site Number : 1240022","city":"Windsor","state":"Ontario","zip":"N8X 1T3","country":"Canada","geoPoint":{"lat":42.30008,"lon":-83.01654}},{"facility":"Investigational Site Number : 1240018","city":"Windsor","state":"Ontario","zip":"N8X 5A6","country":"Canada","geoPoint":{"lat":42.30008,"lon":-83.01654}},{"facility":"Investigational Site Number : 1240004","city":"Sherbrooke","state":"Quebec","zip":"J1H 5N4","country":"Canada","geoPoint":{"lat":45.40008,"lon":-71.89908}},{"facility":"Investigational Site Number : 1240001","city":"Trois-Rivières","state":"Quebec","zip":"G8T 7A1","country":"Canada","geoPoint":{"lat":46.34515,"lon":-72.5477}},{"facility":"Investigational Site Number : 1240002","city":"Victoriaville","state":"Quebec","zip":"G6P 3Z8","country":"Canada","geoPoint":{"lat":46.05007,"lon":-71.96579}},{"facility":"Investigational Site Number : 1520008","city":"Valdivia","state":"Los Ríos Region","zip":"5110683","country":"Chile","geoPoint":{"lat":-39.81422,"lon":-73.24589}},{"facility":"Investigational Site Number : 1520006","city":"Talca","state":"Maule Region","zip":"3465584","country":"Chile","geoPoint":{"lat":-35.4232,"lon":-71.64974}},{"facility":"Investigational Site Number : 1520007","city":"Santiago","state":"Reg Metropolitana de Santiago","zip":"7500010","country":"Chile","geoPoint":{"lat":-33.45694,"lon":-70.64827}},{"facility":"Investigational Site Number : 1520001","city":"Santiago","state":"Reg Metropolitana de Santiago","zip":"7500692","country":"Chile","geoPoint":{"lat":-33.45694,"lon":-70.64827}},{"facility":"Investigational Site Number : 1520003","city":"Santiago","state":"Reg Metropolitana de Santiago","zip":"7500698","country":"Chile","geoPoint":{"lat":-33.45694,"lon":-70.64827}},{"facility":"Investigational Site Number : 1520002","city":"Santiago","state":"Reg Metropolitana de Santiago","zip":"7750000","country":"Chile","geoPoint":{"lat":-33.45694,"lon":-70.64827}},{"facility":"Investigational Site Number : 1520005","city":"Quillota","state":"Región de Valparaíso","zip":"2260877","country":"Chile","geoPoint":{"lat":-32.88341,"lon":-71.24882}},{"facility":"Investigational Site Number : 1560012","city":"Beijing","zip":"100038","country":"China","geoPoint":{"lat":39.9075,"lon":116.39723}},{"facility":"Investigational Site Number : 1560004","city":"Changchun","zip":"130021","country":"China","geoPoint":{"lat":43.88,"lon":125.32278}},{"facility":"Investigational Site Number : 1560001","city":"Chengdu","zip":"610041","country":"China","geoPoint":{"lat":30.66667,"lon":104.06667}},{"facility":"Investigational Site Number : 1560018","city":"Haikou","zip":"570216","country":"China","geoPoint":{"lat":20.03421,"lon":110.34651}},{"facility":"Investigational Site Number : 1560016","city":"Hefei","zip":"230032","country":"China","geoPoint":{"lat":31.86389,"lon":117.28083}},{"facility":"Investigational Site Number : 1560017","city":"Hohhot","zip":"010050","country":"China","geoPoint":{"lat":40.81056,"lon":111.65222}},{"facility":"Investigational Site Number : 1560002","city":"Jinan","zip":"250014","country":"China","geoPoint":{"lat":36.66833,"lon":116.99722}},{"facility":"Investigational Site Number : 1560014","city":"Nanchang","zip":"330006","country":"China","geoPoint":{"lat":28.68396,"lon":115.85306}},{"facility":"Investigational Site Number : 1560019","city":"Pingxiang","zip":"337055","country":"China","geoPoint":{"lat":27.61672,"lon":113.85353}},{"facility":"Investigational Site Number : 1560020","city":"Shanghai","zip":"200025","country":"China","geoPoint":{"lat":31.22222,"lon":121.45806}},{"facility":"Investigational Site Number : 1560006","city":"Shanghai","zip":"200433","country":"China","geoPoint":{"lat":31.22222,"lon":121.45806}},{"facility":"Investigational Site Number : 1560008","city":"Shenyang","zip":"110004","country":"China","geoPoint":{"lat":41.79222,"lon":123.43278}},{"facility":"Investigational Site Number : 1560005","city":"Wuhan","zip":"430014","country":"China","geoPoint":{"lat":30.58333,"lon":114.26667}},{"facility":"Investigational Site Number : 1560011","city":"Xiangtan","zip":"411100","country":"China","geoPoint":{"lat":27.85,"lon":112.9}},{"facility":"Investigational Site Number : 1560007","city":"Xuzhou","zip":"221006","country":"China","geoPoint":{"lat":34.20442,"lon":117.28386}},{"facility":"Investigational Site Number : 1560015","city":"Yangzhou","zip":"225000","country":"China","geoPoint":{"lat":32.39722,"lon":119.43583}},{"facility":"Investigational Site Number : 2030003","city":"Havlíčkův Brod","zip":"580 01","country":"Czechia","geoPoint":{"lat":49.6069,"lon":15.57937}},{"facility":"Investigational Site Number : 2030001","city":"Jindřichův Hradec","zip":"377 01","country":"Czechia","geoPoint":{"lat":49.14404,"lon":15.00301}},{"facility":"Investigational Site Number : 2330001","city":"Tartu","zip":"50406","country":"Estonia","geoPoint":{"lat":58.38062,"lon":26.72509}},{"facility":"Investigational Site Number : 2500001","city":"Lyon","zip":"69004","country":"France","geoPoint":{"lat":45.74906,"lon":4.84789}},{"facility":"Investigational Site Number : 2500004","city":"Reims","zip":"51092","country":"France","geoPoint":{"lat":49.26526,"lon":4.02853}},{"facility":"Investigational Site Number : 2680006","city":"Batumi","zip":"6010","country":"Georgia","geoPoint":{"lat":41.64077,"lon":41.6306}},{"facility":"Investigational Site Number : 2680002","city":"Tbilisi","zip":"0105","country":"Georgia","geoPoint":{"lat":41.69143,"lon":44.83412}},{"facility":"Investigational Site Number : 2680003","city":"Tbilisi","zip":"0112","country":"Georgia","geoPoint":{"lat":41.69143,"lon":44.83412}},{"facility":"Investigational Site Number : 2680001","city":"Tbilisi","zip":"0159","country":"Georgia","geoPoint":{"lat":41.69143,"lon":44.83412}},{"facility":"Investigational Site Number : 2760006","city":"Bendorf","zip":"56170","country":"Germany","geoPoint":{"lat":50.42289,"lon":7.57924}},{"facility":"Investigational Site Number : 2760010","city":"Berlin","zip":"12159","country":"Germany","geoPoint":{"lat":52.52437,"lon":13.41053}},{"facility":"Investigational Site Number : 2760005","city":"Frankfurt","zip":"60596","country":"Germany","geoPoint":{"lat":49.68333,"lon":10.53333}},{"facility":"Investigational Site Number : 2760008","city":"Leipzig","zip":"04299","country":"Germany","geoPoint":{"lat":51.33962,"lon":12.37129}},{"facility":"Investigational Site Number : 2760007","city":"Leipzig","zip":"04347","country":"Germany","geoPoint":{"lat":51.33962,"lon":12.37129}},{"facility":"Investigational Site Number : 2760003","city":"Lübeck","zip":"23552","country":"Germany","geoPoint":{"lat":53.86893,"lon":10.68729}},{"facility":"Investigational Site Number : 2760001","city":"Mainz","zip":"55128","country":"Germany","geoPoint":{"lat":49.98185,"lon":8.28008}},{"facility":"Investigational Site Number : 2760011","city":"Rosenheim","zip":"83022","country":"Germany","geoPoint":{"lat":47.85637,"lon":12.12247}},{"facility":"Investigational Site Number : 3000008","city":"Palaió Fáliro","zip":"175 62","country":"Greece","geoPoint":{"lat":37.92812,"lon":23.70105}},{"facility":"Investigational Site Number : 3000002","city":"Thessaloniki","zip":"570 10","country":"Greece","geoPoint":{"lat":40.64072,"lon":22.93493}},{"facility":"Investigational Site Number : 3480009","city":"Budapest","zip":"1106","country":"Hungary","geoPoint":{"lat":47.49835,"lon":19.04045}},{"facility":"Investigational Site Number : 3480001","city":"Gödöllő","zip":"2100","country":"Hungary","geoPoint":{"lat":47.59657,"lon":19.35515}},{"facility":"Investigational Site Number : 3480004","city":"Hajdúnánás","zip":"4080","country":"Hungary","geoPoint":{"lat":47.85,"lon":21.43333}},{"facility":"Investigational Site Number : 3480002","city":"Mosonmagyaróvár","zip":"9200","country":"Hungary","geoPoint":{"lat":47.86789,"lon":17.26994}},{"facility":"Investigational Site Number : 3480003","city":"Püspökladány","zip":"4150","country":"Hungary","geoPoint":{"lat":47.31667,"lon":21.11667}},{"facility":"Investigational Site Number : 3560001","city":"Calicut","zip":"673008","country":"India","geoPoint":{"lat":11.6,"lon":92.73333}},{"facility":"Investigational Site Number : 3560006","city":"Chandigarh","zip":"160012","country":"India","geoPoint":{"lat":30.73629,"lon":76.7884}},{"facility":"Investigational Site Number : 3560005","city":"Hyderabad","zip":"500 084","country":"India","geoPoint":{"lat":17.38405,"lon":78.45636}},{"facility":"Investigational Site Number : 3560009","city":"Jaipur","zip":"302023","country":"India","geoPoint":{"lat":26.91962,"lon":75.78781}},{"facility":"Investigational Site Number : 3560004","city":"Jaipur","zip":"302039","country":"India","geoPoint":{"lat":26.91962,"lon":75.78781}},{"facility":"Investigational Site Number : 3560012","city":"Kanpur","zip":"208001","country":"India","geoPoint":{"lat":26.46523,"lon":80.34975}},{"facility":"Investigational Site Number : 3560010","city":"Nagpur","zip":"440010","country":"India","geoPoint":{"lat":21.14631,"lon":79.08491}},{"facility":"Investigational Site Number : 3560011","city":"Nagpur","zip":"440012","country":"India","geoPoint":{"lat":21.14631,"lon":79.08491}},{"facility":"Investigational Site Number : 3560007","city":"Nagpur","zip":"440015","country":"India","geoPoint":{"lat":21.14631,"lon":79.08491}},{"facility":"Investigational Site Number : 3560003","city":"Nagpur","zip":"441203","country":"India","geoPoint":{"lat":21.14631,"lon":79.08491}},{"facility":"Investigational Site Number : 3560013","city":"Pune","zip":"411057","country":"India","geoPoint":{"lat":18.51957,"lon":73.85535}},{"facility":"Investigational Site Number : 3760008","city":"Haifa","zip":"3436212","country":"Israel","geoPoint":{"lat":32.81303,"lon":34.99928}},{"facility":"Investigational Site Number : 3760003","city":"Jerusalem","zip":"9103102","country":"Israel","geoPoint":{"lat":31.76904,"lon":35.21633}},{"facility":"Investigational Site Number : 3760002","city":"Jerusalem","zip":"9112001","country":"Israel","geoPoint":{"lat":31.76904,"lon":35.21633}},{"facility":"Investigational Site Number : 3760006","city":"Kefar Sava","zip":"4428164","country":"Israel","geoPoint":{"lat":32.175,"lon":34.90694}},{"facility":"Investigational Site Number : 3760001","city":"Petah Tikva","zip":"4941492","country":"Israel","geoPoint":{"lat":32.08707,"lon":34.88747}},{"facility":"Investigational Site Number : 3760009","city":"Ramat Gan","zip":"5262100","country":"Israel","geoPoint":{"lat":32.08227,"lon":34.81065}},{"facility":"Investigational Site Number : 3760004","city":"Rehovot","zip":"7610001","country":"Israel","geoPoint":{"lat":31.89421,"lon":34.81199}},{"facility":"Investigational Site Number : 3760007","city":"Tel Aviv","zip":"6423906","country":"Israel","geoPoint":{"lat":32.08088,"lon":34.78057}},{"facility":"Investigational Site Number : 3800001","city":"Ferrara","zip":"44100","country":"Italy","geoPoint":{"lat":44.83804,"lon":11.62057}},{"facility":"Investigational Site Number : 3920008","city":"Nagoya","state":"Aichi-ken","zip":"457-8511","country":"Japan","geoPoint":{"lat":35.18147,"lon":136.90641}},{"facility":"Investigational Site Number : 3920002","city":"Kurume","state":"Fukuoka","zip":"830-0011","country":"Japan","geoPoint":{"lat":33.31667,"lon":130.51667}},{"facility":"Investigational Site Number : 3920007","city":"Kure","state":"Hiroshima","zip":"737-0811","country":"Japan","geoPoint":{"lat":34.23222,"lon":132.56658}},{"facility":"Investigational Site Number : 3920006","city":"Himeji","state":"Hyōgo","zip":"670-0849","country":"Japan","geoPoint":{"lat":34.81667,"lon":134.7}},{"facility":"Investigational Site Number : 3920009","city":"Yokohama","state":"Kanagawa","zip":"234-0054","country":"Japan","geoPoint":{"lat":35.43333,"lon":139.65}},{"facility":"Investigational Site Number : 3920001","city":"Matsusaka","state":"Mie-ken","zip":"515-0073","country":"Japan","geoPoint":{"lat":34.57895,"lon":136.53706}},{"facility":"Investigational Site Number : 3920005","city":"Kiyose","state":"Tokyo","zip":"204-8522","country":"Japan","geoPoint":{"lat":35.77952,"lon":139.53014}},{"facility":"Investigational Site Number : 3920003","city":"Fukuoka","zip":"819-0055","country":"Japan","geoPoint":{"lat":33.6,"lon":130.41667}},{"facility":"Investigational Site Number : 3920004","city":"Tokyo","zip":"140-8522","country":"Japan","geoPoint":{"lat":35.6895,"lon":139.69171}},{"facility":"Investigational Site Number : 4400002","city":"Kaunas","zip":"49449","country":"Lithuania","geoPoint":{"lat":54.90156,"lon":23.90909}},{"facility":"Investigational Site Number : 4840007","city":"Durango","zip":"34000","country":"Mexico","geoPoint":{"lat":24.02032,"lon":-104.65756}},{"facility":"Investigational Site Number : 5280001","city":"Breda","zip":"4818 CK","country":"Netherlands","geoPoint":{"lat":51.58656,"lon":4.77596}},{"facility":"Investigational Site Number : 5780001","city":"Lørenskog","zip":"1478","country":"Norway"},{"facility":"Investigational Site Number : 6160001","city":"Bialystok","state":"Podlaskie Voivodeship","zip":"15-044","country":"Poland","geoPoint":{"lat":53.13333,"lon":23.16433}},{"facility":"Investigational Site Number : 6160002","city":"Ostrowiec Świętokrzyski","state":"Świętokrzyskie Voivodeship","zip":"27-400","country":"Poland","geoPoint":{"lat":50.92936,"lon":21.38525}},{"facility":"Investigational Site Number : 6200006","city":"Porto","zip":"3814-501","country":"Portugal","geoPoint":{"lat":41.1485,"lon":-8.61097}},{"facility":"Investigational Site Number : 6420002","city":"Cluj-Napoca","zip":"400275","country":"Romania","geoPoint":{"lat":46.76667,"lon":23.6}},{"facility":"Investigational Site Number : 7030002","city":"Humenné","zip":"066 01","country":"Slovakia","geoPoint":{"lat":48.93707,"lon":21.91625}},{"facility":"Investigational Site Number : 7030004","city":"Prešov","zip":"080 01","country":"Slovakia","geoPoint":{"lat":48.99923,"lon":21.2355}},{"facility":"Investigational Site Number : 7030003","city":"Spišská Nová Ves","zip":"052 01","country":"Slovakia","geoPoint":{"lat":48.94464,"lon":20.56153}},{"facility":"Investigational Site Number : 7100004","city":"Benoni","zip":"1500","country":"South Africa","geoPoint":{"lat":-26.18848,"lon":28.32078}},{"facility":"Investigational Site Number : 7100001","city":"Durban","zip":"4001","country":"South Africa","geoPoint":{"lat":-29.8579,"lon":31.0292}},{"facility":"Investigational Site Number : 7100006","city":"Durban","zip":"4001","country":"South Africa","geoPoint":{"lat":-29.8579,"lon":31.0292}},{"facility":"Investigational Site Number : 7100005","city":"Durban","zip":"4302","country":"South Africa","geoPoint":{"lat":-29.8579,"lon":31.0292}},{"facility":"Investigational Site Number : 4100002","city":"Wŏnju","state":"Gangwon-do","zip":"26426","country":"South Korea","geoPoint":{"lat":37.35139,"lon":127.94528}},{"facility":"Investigational Site Number : 4100001","city":"Seoul","state":"Seoul-teukbyeolsi","zip":"05030","country":"South Korea","geoPoint":{"lat":37.566,"lon":126.9784}},{"facility":"Investigational Site Number : 7240014","city":"Barcelona","state":"Barcelona [Barcelona]","zip":"08017","country":"Spain","geoPoint":{"lat":41.38879,"lon":2.15899}},{"facility":"Investigational Site Number : 7240006","city":"Sant Boi de Llobregat","state":"Catalunya [Cataluña]","zip":"08830","country":"Spain","geoPoint":{"lat":41.34357,"lon":2.03659}},{"facility":"Investigational Site Number : 7240008","city":"Pozuelo de Alarcón","state":"Madrid","zip":"28223","country":"Spain","geoPoint":{"lat":40.43293,"lon":-3.81338}},{"facility":"Investigational Site Number : 7240003","city":"Madrid","zip":"28007","country":"Spain","geoPoint":{"lat":40.4165,"lon":-3.70256}},{"facility":"Investigational Site Number : 7240007","city":"Madrid","zip":"28040","country":"Spain","geoPoint":{"lat":40.4165,"lon":-3.70256}},{"facility":"Investigational Site Number : 7240001","city":"Málaga","zip":"29010","country":"Spain","geoPoint":{"lat":36.72016,"lon":-4.42034}},{"facility":"Investigational Site Number : 7240004","city":"Palma","zip":"07120","country":"Spain","geoPoint":{"lat":39.56939,"lon":2.65024}},{"facility":"Investigational Site Number : 7240012","city":"Zaragoza","zip":"50009","country":"Spain","geoPoint":{"lat":41.65606,"lon":-0.87734}},{"facility":"Investigational Site Number : 1580005","city":"Kaohsiung City","zip":"807","country":"Taiwan","geoPoint":{"lat":22.61626,"lon":120.31333}},{"facility":"Investigational Site Number : 1580006","city":"Taichung","zip":"404","country":"Taiwan","geoPoint":{"lat":24.1469,"lon":120.6839}},{"facility":"Investigational Site Number : 1580003","city":"Taipei","zip":"110","country":"Taiwan","geoPoint":{"lat":25.05306,"lon":121.52639}},{"facility":"Investigational Site Number : 7920002","city":"Akdeniz","zip":"33070","country":"Turkey (Türkiye)","geoPoint":{"lat":38.42523,"lon":27.13385}},{"facility":"Investigational Site Number : 7920007","city":"Ankara","zip":"06230","country":"Turkey (Türkiye)","geoPoint":{"lat":39.91987,"lon":32.85427}},{"facility":"Investigational Site Number : 7920001","city":"Istanbul","zip":"34098","country":"Turkey (Türkiye)","geoPoint":{"lat":41.01384,"lon":28.94966}},{"facility":"Investigational Site Number : 7920006","city":"Kırıkkale","zip":"71100","country":"Turkey (Türkiye)","geoPoint":{"lat":39.84528,"lon":33.50639}},{"facility":"Investigational Site Number : 8260004","city":"Portsmouth","state":"Hampshire","zip":"PO6 3LY","country":"United Kingdom","geoPoint":{"lat":50.79899,"lon":-1.09125}},{"facility":"Investigational Site Number : 8260002","city":"Chertsey","state":"Surrey","zip":"KT16 0PZ","country":"United Kingdom","geoPoint":{"lat":51.38812,"lon":-0.50782}},{"facility":"Investigational Site Number : 8260003","city":"Bradford","zip":"BD9 6RJ","country":"United Kingdom","geoPoint":{"lat":53.79391,"lon":-1.75206}},{"facility":"Investigational Site Number : 8260014","city":"Hounslow","zip":"TW5 9ER","country":"United Kingdom","geoPoint":{"lat":51.46839,"lon":-0.36092}},{"facility":"Investigational Site Number : 8260005","city":"Liverpool","zip":"L14 3PE","country":"United Kingdom","geoPoint":{"lat":53.41058,"lon":-2.97794}},{"facility":"Investigational Site Number : 8260010","city":"London","zip":"EC1M 6BQ","country":"United Kingdom","geoPoint":{"lat":51.50853,"lon":-0.12574}},{"facility":"Investigational Site Number : 8260008","city":"Milton Keynes","zip":"MK15 0DU","country":"United Kingdom","geoPoint":{"lat":52.04172,"lon":-0.75583}}]},"ipdSharingStatementModule":{"ipdSharing":"YES","description":"Qualified researchers may request access to patient level data and related study documents including the clinical study report, study protocol with any amendments, blank case report form, statistical analysis plan, and dataset specifications. Patient level data will be anonymized and study documents will be redacted to protect the privacy of trial participants. Further details on Sanofi's data sharing criteria, eligible studies, and process for requesting access can be found at: https://vivli.org"}},"derivedSection":{"miscInfoModule":{"versionHolder":"2026-02-25"},"conditionBrowseModule":{"meshes":[{"id":"D029424","term":"Pulmonary Disease, Chronic Obstructive"}],"ancestors":[{"id":"D008173","term":"Lung Diseases, Obstructive"},{"id":"D008171","term":"Lung Diseases"},{"id":"D012140","term":"Respiratory Tract Diseases"},{"id":"D002908","term":"Chronic Disease"},{"id":"D020969","term":"Disease Attributes"},{"id":"D010335","term":"Pathologic Processes"},{"id":"D013568","term":"Pathological Conditions, Signs and Symptoms"}]},"interventionBrowseModule":{"meshes":[{"id":"C000720033","term":"itepekimab"}]}},"hasResults":false}