{"protocolSection":{"identificationModule":{"nctId":"NCT04287621","orgStudyIdInfo":{"id":"R668-AS-1885"},"secondaryIdInfos":[{"id":"EUPAS41963","type":"OTHER","domain":"HMA-EMA RWD Catalogues"}],"organization":{"fullName":"Regeneron Pharmaceuticals","class":"INDUSTRY"},"briefTitle":"Registry of Asthma Patients Initiating DUPIXENT®","officialTitle":"Registry of Asthma Patients Initiating DUPIXENT® (RAPID)","acronym":"RAPID"},"statusModule":{"statusVerifiedDate":"2025-04","overallStatus":"ACTIVE_NOT_RECRUITING","expandedAccessInfo":{"hasExpandedAccess":false},"startDateStruct":{"date":"2020-03-02","type":"ACTUAL"},"primaryCompletionDateStruct":{"date":"2026-05-13","type":"ESTIMATED"},"completionDateStruct":{"date":"2026-05-13","type":"ESTIMATED"},"studyFirstSubmitDate":"2020-02-25","studyFirstSubmitQcDate":"2020-02-25","studyFirstPostDateStruct":{"date":"2020-02-27","type":"ACTUAL"},"lastUpdateSubmitDate":"2025-04-21","lastUpdatePostDateStruct":{"date":"2025-04-22","type":"ACTUAL"}},"sponsorCollaboratorsModule":{"responsibleParty":{"type":"SPONSOR"},"leadSponsor":{"name":"Regeneron Pharmaceuticals","class":"INDUSTRY"},"collaborators":[{"name":"Sanofi","class":"INDUSTRY"}]},"oversightModule":{"oversightHasDmc":false,"isFdaRegulatedDrug":true,"isFdaRegulatedDevice":false},"descriptionModule":{"briefSummary":"The primary objective of the study is to characterize the patients who initiate treatment for asthma with DUPIXENT® in a real-world setting to understand the attributes of treated patients in real life.\n\nThis includes characterization of:\n\n* Patient demographics (eg, gender, age, and race)\n* Patient baseline characteristics (eg, prior medications and procedures, medical history, asthma history, weight, height)\n\nThe secondary objectives of the study are:\n\n* To characterize real-world use patterns of DUPIXENT® for asthma\n* To assess the long-term effectiveness of DUPIXENT® in asthma patients in a real-world setting\n* To assess effectiveness on comorbid type 2 inflammatory conditions in asthma patients treated with DUPIXENT®\n* To collect long-term safety data on study participants in the real-world setting","detailedDescription":"3-year registry of real-world use of DUPIXENT® for asthma in patients age 12 and over"},"conditionsModule":{"conditions":["Asthma"],"keywords":["Primary Indication of Asthma"]},"designModule":{"studyType":"OBSERVATIONAL","patientRegistry":true,"targetDuration":"156 Weeks","designInfo":{"observationalModel":"COHORT","timePerspective":"PROSPECTIVE"},"enrollmentInfo":{"count":718,"type":"ACTUAL"}},"armsInterventionsModule":{"interventions":[{"type":"DRUG","name":"DUPIXENT®","description":"There is no investigational product provided by the study sponsor and no therapeutic intervention regulated by this protocol. As a condition for eligibility, patients are required to initiate DUPIXENT® for asthma, according to the country-specific prescribing information, prescribed by their physician as part of their normal care (ie, not for the purpose of enrolling in the registry). Once patients enter the study, there are no protocol requirements regarding DUPIXENT® or any other treatments.","otherNames":["dupilumab","REGN668","SAR231893"]}]},"outcomesModule":{"primaryOutcomes":[{"measure":"Demography","description":"Including gender, age, race","timeFrame":"At Baseline"},{"measure":"Baseline Characteristics","description":"Including prior medications and procedures, medical history, asthma history, weight, height","timeFrame":"At Baseline"}],"secondaryOutcomes":[{"measure":"Baseline Treatment Characteristics","description":"Including but not limited to treatment dose, frequency, duration and asthma treatment associations.","timeFrame":"At Baseline"},{"measure":"Incidence of adverse events (AEs)","description":"Including but not limited to: frequency, percentage and exposure-adjusted incidence rate of AEs","timeFrame":"Baseline up to 3 years"},{"measure":"Physician Assessment: - Spirometry","description":"Assessment collected as per standard of care. Includes forced expiratory volume in 1 second (FEV1), peak expiratory flow (PEF), forced vital capacity (FVC), forced expiratory flow (FEF) between 25% to 75% of vital capacity (FEF25%-75%), post-bronchodilator FEV1.","timeFrame":"Baseline up to 3 years"},{"measure":"Physician Assessment: Fractional exhaled Nitric Oxide (FeNO)","description":"Assessment collected as per standard of care.","timeFrame":"Baseline up to 3 Years"},{"measure":"Patient Reported Outcome: Asthma Control Questionnaire, 6-item (ACQ-6)","description":"Questionnaire assessing the most common asthma symptoms during the previous week, using a 7-point Likert scale (0=fully controlled; 6=severely uncontrolled). Higher score indicates worse asthma control.","timeFrame":"Baseline up to 3 Years"},{"measure":"Patient Reported Outcome: Mini Asthma Quality of Life Questionnaire (MiniAQLQ)","description":"Questionnaire answered using a 7-point Likert scale (1=maximum impairment; 7=no impairment). Higher score indicates less impact of asthma on quality of life.","timeFrame":"Baseline up to 3 Years"},{"measure":"Patient Reported Outcome: Global Patient Assessment","description":"Assessing patient's symptom severity over the past week and the patient's overall satisfaction with their asthma treatment. Higher scores indicate higher severity of asthma symptoms and lower satisfaction with asthma treatment.","timeFrame":"Baseline up to 3 Years"},{"measure":"Patient Reported Outcome: Physical Activity Limitation Questionnaire (PALQ)","description":"Assessing patient's physical activity in their free time. Higher score indicates more health-related quality of life impairment.","timeFrame":"Baseline up to 3 Years"},{"measure":"Patient Reported Outcome in patients with allergic rhinitis: Allergic Rhinitis Visual Analog Scale (AR-VAS)","description":"Assessing severity of rhinits symptoms where higher score indicates more bothersome allergic symptoms.","timeFrame":"Baseline up to 3 Years"},{"measure":"Patient Reported Outcome in patients with allergic rhinitis: Standardized Rhinoconjunctivitis Quality of Life Questionnaire for patients 12 years of age and older (RQLQ[S]+12)","description":"Health-related quality of life signs and symptoms that are most problematic, as a result of perennial or seasonal allergic rhinitis. RQLQ(S)+12 responses are based on 7-point Likert scale with responses ranging from 0 (not troubled) to 6 (extremely troubled). Higher score indicates more health-related quality of life impairment.","timeFrame":"Baseline up to 3 Years"},{"measure":"Patient Reported Outcome in patients with chronic (rhino) sinusitis and/or nasal polyps: Sino-Nasal Outcome Test (SNOT-22)","description":"Questionnaire to assess the impact of chronic rhinosinusitis on quality of life. Lower score represents better health related quality of life.","timeFrame":"Baseline up to 3 Years"},{"measure":"Patient Reported Outcome in patients with atopic dermatitis: Patient Oriented Eczema Measure (POEM)","description":"Questionnaire assessing eczema severity with lower score representing impact of lower severity of less severe eczema.","timeFrame":"Baseline up to 3 Years"},{"measure":"Patient Reported Outcome: Work Productivity and Activity Impairment Questionnaire for asthma (WPAI-asthma)","description":"Questionnaire to measure impairments in work and activities with higher score indicating greater impairment and less productivity.","timeFrame":"Baseline up to 3 Years"},{"measure":"Healthcare Utilization: Healthcare Resource Utilization Questionnaire (HCRUQ)","description":"The HCRUQ collects information on unscheduled healthcare resource encounters related to asthma","timeFrame":"Baseline up to 3 years"}]},"eligibilityModule":{"eligibilityCriteria":"Key Inclusion Criteria:\n\n* Willing and able to comply with the required clinic visits, study procedures and assessments\n* Able to understand and complete study-related questionnaires\n* Provide signed informed consent; for patients under the age of 18, both parental (legal guardian) consent and patient assent are required\n* Initiating treatment with DUPIXENT® for a primary indication of asthma according to the country-specific prescribing information\n\nKey Exclusion Criteria:\n\n* Patients who have a contraindication to DUPIXENT® according to the country-specific prescribing information\n* Treatment with dupilumab within 6 months before the screening visit, or within 6 months of the baseline visit if the screening and baseline occur on the same day\n* Any condition that, in the opinion of the investigator, may interfere with patient's ability to participate in the study or personal conditions and circumstances that can predictably prevent the patient from adequately completing the schedule of visits and assessments.\n\nNOTE: Other protocol defined Inclusion/Exclusion criteria apply.","healthyVolunteers":false,"sex":"ALL","minimumAge":"12 Years","stdAges":["CHILD","ADULT","OLDER_ADULT"],"studyPopulation":"The target population comprises adult and adolescent patients (male or female, ≥12 years old), who are initiating treatment with DUPIXENT® for asthma according to the country-specific prescribing information.","samplingMethod":"NON_PROBABILITY_SAMPLE"},"contactsLocationsModule":{"overallOfficials":[{"name":"Clinical Trial Management","affiliation":"Regeneron Pharmaceuticals","role":"STUDY_DIRECTOR"}],"locations":[{"facility":"Clinical Research Center of Alabama, LLC","city":"Birmingham","state":"Alabama","zip":"35209","country":"United States","geoPoint":{"lat":33.52066,"lon":-86.80249}},{"facility":"Arizona Allergy & Immunology Research","city":"Gilbert","state":"Arizona","zip":"85234","country":"United States","geoPoint":{"lat":33.35283,"lon":-111.78903}},{"facility":"Medical Research of Arizona, a Division of Allergy, Asthma & Immunology Associates, Ltd.","city":"Scottsdale","state":"Arizona","zip":"85251","country":"United States","geoPoint":{"lat":33.50921,"lon":-111.89903}},{"facility":"Children's Hospital of Orange County","city":"Orange","state":"California","zip":"92868","country":"United States","geoPoint":{"lat":33.78779,"lon":-117.85311}},{"facility":"Riviera Allergy Medical Center","city":"Redondo Beach","state":"California","zip":"90277","country":"United States","geoPoint":{"lat":33.84918,"lon":-118.38841}},{"facility":"Allergy & Asthma Medical Group and Research, A PC","city":"San Diego","state":"California","zip":"92123","country":"United States","geoPoint":{"lat":32.71571,"lon":-117.16472}},{"facility":"Bensch Clinical Research, LLC","city":"Stockton","state":"California","zip":"95207","country":"United States","geoPoint":{"lat":37.9577,"lon":-121.29078}},{"facility":"Allianz Research Institute, Inc.","city":"Westminster","state":"California","zip":"92683","country":"United States","geoPoint":{"lat":33.75918,"lon":-118.00673}},{"facility":"Global Research Solutions","city":"Hollywood","state":"Florida","zip":"33021","country":"United States","geoPoint":{"lat":26.0112,"lon":-80.14949}},{"facility":"Memorial Healthcare System","city":"Hollywood","state":"Florida","zip":"33021","country":"United States","geoPoint":{"lat":26.0112,"lon":-80.14949}},{"facility":"Clinical Research Specialists, LLC","city":"Kissimmee","state":"Florida","zip":"34746","country":"United States","geoPoint":{"lat":28.30468,"lon":-81.41667}},{"facility":"Kratz Allergy & Asthma","city":"Port Richey","state":"Florida","zip":"34653","country":"United States","geoPoint":{"lat":28.27168,"lon":-82.71955}},{"facility":"GCP, Global Clinical Professionals","city":"St. Petersburg","state":"Florida","zip":"33702","country":"United States","geoPoint":{"lat":27.77086,"lon":-82.67927}},{"facility":"Allergy & Asthma Diagnostic Treatment Center","city":"Tallahassee","state":"Florida","zip":"32308","country":"United States","geoPoint":{"lat":30.43826,"lon":-84.28073}},{"facility":"Omni Allergy","city":"Atlanta","state":"Georgia","zip":"30342","country":"United States","geoPoint":{"lat":33.749,"lon":-84.38798}},{"facility":"Columbus Regional Research Institute","city":"Columbus","state":"Georgia","zip":"31904","country":"United States","geoPoint":{"lat":32.46098,"lon":-84.98771}},{"facility":"IACT Health Southeast Lung Associates","city":"Rincon","state":"Georgia","zip":"31326","country":"United States","geoPoint":{"lat":32.29603,"lon":-81.23539}},{"facility":"Treasure Valley Medical Research","city":"Boise","state":"Idaho","zip":"83706","country":"United States","geoPoint":{"lat":43.6135,"lon":-116.20345}},{"facility":"Northwestern Medical Group Allergy & Immunology Clinic","city":"Chicago","state":"Illinois","zip":"60611","country":"United States","geoPoint":{"lat":41.85003,"lon":-87.65005}},{"facility":"The University of Chicago","city":"Chicago","state":"Illinois","zip":"60634","country":"United States","geoPoint":{"lat":41.85003,"lon":-87.65005}},{"facility":"NorthShore University Health System","city":"Evanston","state":"Illinois","zip":"60201","country":"United States","geoPoint":{"lat":42.04114,"lon":-87.69006}},{"facility":"Asthma and Allergy Center of Chicago","city":"Oak Park","state":"Illinois","zip":"60301","country":"United States","geoPoint":{"lat":41.88503,"lon":-87.7845}},{"facility":"Riley Hospital for Children at Indiana University Health","city":"Indianapolis","state":"Indiana","zip":"46202","country":"United States","geoPoint":{"lat":39.76838,"lon":-86.15804}},{"facility":"Velocity Clinical Research","city":"Overland Park","state":"Kansas","zip":"66210","country":"United States","geoPoint":{"lat":38.98223,"lon":-94.67079}},{"facility":"Dr. Henry J. Kanarek Allergy, Asthma & Immunology","city":"Overland Park","state":"Kansas","zip":"66211","country":"United States","geoPoint":{"lat":38.98223,"lon":-94.67079}},{"facility":"Family Allergy and Asthma","city":"Louisville","state":"Kentucky","zip":"40291","country":"United States","geoPoint":{"lat":38.25424,"lon":-85.75941}},{"facility":"Allergy & Asthma Specialists, PSC","city":"Owensboro","state":"Kentucky","zip":"42301","country":"United States","geoPoint":{"lat":37.77422,"lon":-87.11333}},{"facility":"Schreiber Allergy","city":"Rockville","state":"Maryland","zip":"20850","country":"United States","geoPoint":{"lat":39.084,"lon":-77.15276}},{"facility":"Virgo-Carter Pediatrics","city":"Silver Spring","state":"Maryland","zip":"20910","country":"United States","geoPoint":{"lat":38.99067,"lon":-77.02609}},{"facility":"Chesapeake Clinical Research, Inc.","city":"White Marsh","state":"Maryland","zip":"21162","country":"United States","geoPoint":{"lat":39.38372,"lon":-76.43218}},{"facility":"University of Michigan Allergy Specialty Clinic and Food Allergy Clinic","city":"Ann Arbor","state":"Michigan","zip":"48106","country":"United States","geoPoint":{"lat":42.27756,"lon":-83.74088}},{"facility":"University of Michigan","city":"Ann Arbor","state":"Michigan","zip":"48109","country":"United States","geoPoint":{"lat":42.27756,"lon":-83.74088}},{"facility":"Allergy and Asthma Center of Minnesota","city":"Maplewood","state":"Minnesota","zip":"55109","country":"United States","geoPoint":{"lat":44.95302,"lon":-92.99522}},{"facility":"Mayo Clinic","city":"Rochester","state":"Minnesota","zip":"55905","country":"United States","geoPoint":{"lat":44.02163,"lon":-92.4699}},{"facility":"University of Mississippi Medical Center","city":"Jackson","state":"Mississippi","zip":"39216","country":"United States","geoPoint":{"lat":32.29876,"lon":-90.18481}},{"facility":"ENT & Allergy Center of Missouri","city":"Columbia","state":"Missouri","zip":"65201","country":"United States","geoPoint":{"lat":38.95171,"lon":-92.33407}},{"facility":"St. Louis Children's Hospital","city":"St Louis","state":"Missouri","zip":"63110","country":"United States","geoPoint":{"lat":38.62727,"lon":-90.19789}},{"facility":"The Clinical Research Center, LLC","city":"St Louis","state":"Missouri","zip":"63141","country":"United States","geoPoint":{"lat":38.62727,"lon":-90.19789}},{"facility":"Nebraska Medical Research Institute, Inc.","city":"Bellevue","state":"Nebraska","zip":"68123","country":"United States","geoPoint":{"lat":41.13667,"lon":-95.89084}},{"facility":"CHI Health Clinic Pulmonary","city":"Omaha","state":"Nebraska","zip":"68124","country":"United States","geoPoint":{"lat":41.25626,"lon":-95.94043}},{"facility":"Ocean Allergy & Respiratory Research Center","city":"Brick","state":"New Jersey","zip":"08724","country":"United States","geoPoint":{"lat":40.05928,"lon":-74.13708}},{"facility":"Atlantic Research Center, LLC","city":"Ocean City","state":"New Jersey","zip":"07712","country":"United States","geoPoint":{"lat":39.27762,"lon":-74.5746}},{"facility":"A Atat Progressive Pulmonary & Sleep Medicine","city":"Brooklyn","state":"New York","zip":"11209","country":"United States","geoPoint":{"lat":40.6501,"lon":-73.94958}},{"facility":"New York Allergy and Sinus Centers","city":"Glendale","state":"New York","zip":"11385","country":"United States","geoPoint":{"lat":40.70149,"lon":-73.8868}},{"facility":"Northwell Health Division of Allergy & Immunology","city":"Great Neck","state":"New York","zip":"11021","country":"United States","geoPoint":{"lat":40.80066,"lon":-73.72846}},{"facility":"Northwell Health Physician Partners Pulmonary Medicine and Cardiology at Manhasset","city":"Manhasset","state":"New York","zip":"11030","country":"United States","geoPoint":{"lat":40.79788,"lon":-73.69957}},{"facility":"NYU Langone Hospital - Long Island","city":"Mineola","state":"New York","zip":"11501","country":"United States","geoPoint":{"lat":40.74927,"lon":-73.64068}},{"facility":"Summit Health","city":"Oakland Gardens","state":"New York","zip":"11364","country":"United States","geoPoint":{"lat":40.75399,"lon":-73.76597}},{"facility":"RRH Allergy, Immunology & Rheumatology","city":"Rochester","state":"New York","zip":"14607","country":"United States","geoPoint":{"lat":43.15478,"lon":-77.61556}},{"facility":"Allergy & Asthma Care of LI","city":"Rockville Centre","state":"New York","zip":"11570","country":"United States","geoPoint":{"lat":40.65871,"lon":-73.64124}},{"facility":"Montefiore Medical Center","city":"The Bronx","state":"New York","zip":"10461","country":"United States","geoPoint":{"lat":40.84985,"lon":-73.86641}},{"facility":"Allergy Partners of Western North Carolina","city":"Asheville","state":"North Carolina","zip":"28801","country":"United States","geoPoint":{"lat":35.60095,"lon":-82.55402}},{"facility":"Allergy Partners of the Triangle","city":"Cary","state":"North Carolina","zip":"27518","country":"United States","geoPoint":{"lat":35.79154,"lon":-78.78112}},{"facility":"UNC Children's Hospital","city":"Chapel Hill","state":"North Carolina","zip":"27599","country":"United States","geoPoint":{"lat":35.9132,"lon":-79.05584}},{"facility":"Javara Inc. and Tryon Medical Partners, PLLC","city":"Charlotte","state":"North Carolina","zip":"28210","country":"United States","geoPoint":{"lat":35.22709,"lon":-80.84313}},{"facility":"Airways Clinical Research Center","city":"Winston-Salem","state":"North Carolina","zip":"27104","country":"United States","geoPoint":{"lat":36.09986,"lon":-80.24422}},{"facility":"Cincinnati Children's Hospital Medical Center","city":"Cincinnati","state":"Ohio","zip":"45220","country":"United States","geoPoint":{"lat":39.12711,"lon":-84.51439}},{"facility":"Allergy, Asthma and Clinical Research Center","city":"Oklahoma City","state":"Oklahoma","zip":"73120","country":"United States","geoPoint":{"lat":35.46756,"lon":-97.51643}},{"facility":"Oklahoma Institute of Allergy and Asthma Clinical Research, LLC","city":"Oklahoma City","state":"Oklahoma","zip":"73131","country":"United States","geoPoint":{"lat":35.46756,"lon":-97.51643}},{"facility":"Portland Research","city":"Happy Valley","state":"Oregon","zip":"97086","country":"United States","geoPoint":{"lat":45.44679,"lon":-122.53037}},{"facility":"Allergy and Asthma Specialists, P.C.","city":"Blue Bell","state":"Pennsylvania","zip":"19422","country":"United States","geoPoint":{"lat":40.15233,"lon":-75.26629}},{"facility":"Columbo Asthma, Allergy and Immunology, LLC","city":"Bryn Mawr","state":"Pennsylvania","zip":"19010","country":"United States","geoPoint":{"lat":40.30396,"lon":-80.08672}},{"facility":"Allegheny Health Network","city":"Pittsburgh","state":"Pennsylvania","zip":"15212","country":"United States","geoPoint":{"lat":40.44062,"lon":-79.99589}},{"facility":"Asthma, Nasal Disease & Allergy Research Center of New England","city":"East Providence","state":"Rhode Island","zip":"02914","country":"United States","geoPoint":{"lat":41.81371,"lon":-71.37005}},{"facility":"National Allergy and Asthma Research, LLC","city":"North Charleston","state":"South Carolina","zip":"29420","country":"United States","geoPoint":{"lat":32.85462,"lon":-79.97481}},{"facility":"Charleston ENT Associates, LLC","city":"Summerville","state":"South Carolina","zip":"29486","country":"United States","geoPoint":{"lat":33.0185,"lon":-80.17565}},{"facility":"Precision Research Institute, LLC","city":"Houston","state":"Texas","zip":"77029","country":"United States","geoPoint":{"lat":29.76328,"lon":-95.36327}},{"facility":"STAAMP Research, LLC","city":"San Antonio","state":"Texas","zip":"78229","country":"United States","geoPoint":{"lat":29.42412,"lon":-98.49363}},{"facility":"Element Research Group","city":"San Antonio","state":"Texas","zip":"78258","country":"United States","geoPoint":{"lat":29.42412,"lon":-98.49363}},{"facility":"Tanner Clinic","city":"Layton","state":"Utah","zip":"84041","country":"United States","geoPoint":{"lat":41.06022,"lon":-111.97105}},{"facility":"Allergy Associates of Utah","city":"Murray","state":"Utah","zip":"84107","country":"United States","geoPoint":{"lat":40.66689,"lon":-111.88799}},{"facility":"Seattle Allergy & Asthma Research Institute","city":"Seattle","state":"Washington","zip":"98115","country":"United States","geoPoint":{"lat":47.60621,"lon":-122.33207}},{"facility":"Gundersen Health System","city":"La Crosse","state":"Wisconsin","zip":"54601","country":"United States","geoPoint":{"lat":43.80136,"lon":-91.23958}},{"facility":"The University of British Columbia","city":"Vancouver","state":"British Columbia","zip":"V5Z 1M9","country":"Canada","geoPoint":{"lat":49.24966,"lon":-123.11934}},{"facility":"St. Paul's Hospital","city":"Vancouver","state":"British Columbia","zip":"V6Z 1Y6","country":"Canada","geoPoint":{"lat":49.24966,"lon":-123.11934}},{"facility":"BLC Clinical Research","city":"Burlington","state":"Ontario","zip":"L7N 3V2","country":"Canada","geoPoint":{"lat":43.38621,"lon":-79.83713}},{"facility":"Evidence Based Medical Educator Inc.","city":"Toronto","state":"Ontario","zip":"M5G 1E2","country":"Canada","geoPoint":{"lat":43.70643,"lon":-79.39864}},{"facility":"Inspiration Research Limited","city":"Toronto","state":"Ontario","zip":"M5T 3A9","country":"Canada","geoPoint":{"lat":43.70643,"lon":-79.39864}},{"facility":"Dr. Syeed Anees Medicine Professional Corporation","city":"Windsor","state":"Ontario","zip":"N8X 1T3","country":"Canada","geoPoint":{"lat":42.30008,"lon":-83.01654}},{"facility":"Institut Universitaire de Cardiologie et de Pneumologie de Quebec (IUCPQ) - Universite Laval","city":"Québec","zip":"G1V 4G5","country":"Canada","geoPoint":{"lat":46.81228,"lon":-71.21454}},{"facility":"Sygehus Lillebaelt - Vejle Sygehus - Lungemedicinsk afdeling","city":"Vejle","zip":"7100","country":"Denmark","geoPoint":{"lat":55.70927,"lon":9.5357}},{"facility":"Centre Hospitalier du Pays d'Aix - Maladies Respiratoires","city":"Aix-en-Provence","zip":"13100","country":"France","geoPoint":{"lat":43.5283,"lon":5.44973}},{"facility":"CHU de Bordeaux","city":"Bordeaux","zip":"33076","country":"France","geoPoint":{"lat":44.84124,"lon":-0.58046}},{"facility":"Centre Hospitalier Universitaire Dijon Bourgogne (CHU Dijon) - Hôpital Francois Mitterrand","city":"Dijon","zip":"21079","country":"France","geoPoint":{"lat":47.31344,"lon":5.01391}},{"facility":"Hôpital de la Croix-Rousse","city":"Lyon","zip":"69317","country":"France","geoPoint":{"lat":45.74906,"lon":4.84789}},{"facility":"Hôpital Nord","city":"Marseille","zip":"13015","country":"France","geoPoint":{"lat":43.29695,"lon":5.38107}},{"facility":"Hopital Jacques Monod","city":"Montivilliers","zip":"76290","country":"France","geoPoint":{"lat":49.54518,"lon":0.18769}},{"facility":"Fondazione Salvatore Maugeri","city":"Bari","state":"Apulia","zip":"70020","country":"Italy","geoPoint":{"lat":41.12066,"lon":16.86982}},{"facility":"Ospedale dei Bambini Vittore Buzzi ASST Fatebenefratelli Sacco","city":"Milan","state":"Lombardy","zip":"20154","country":"Italy","geoPoint":{"lat":45.46427,"lon":9.18951}},{"facility":"Ospedale Luigi Sacco, PU, ASST Fatebenefratelli Sacco","city":"Milan","state":"Lombardy","zip":"20157","country":"Italy","geoPoint":{"lat":45.46427,"lon":9.18951}},{"facility":"La Fondazione IRCCS Policlinico \"San Matteo\"","city":"Pavia","state":"Lombardy","zip":"27100","country":"Italy","geoPoint":{"lat":45.19205,"lon":9.15917}},{"facility":"Istituto Clinico Himanitas, Humanitas Mirasole S.p.a.","city":"Rozzano","state":"Lombardy","zip":"20089","country":"Italy","geoPoint":{"lat":45.38193,"lon":9.1559}},{"facility":"Azienda Sanitaria Locale Salerno","city":"Battipaglia","state":"Salerno","zip":"84091","country":"Italy","geoPoint":{"lat":40.60861,"lon":14.98209}},{"facility":"Istituto Nazionale di Riposo e Cura per Anziani","city":"Ancona","state":"The Marches","zip":"60127","country":"Italy","geoPoint":{"lat":43.60717,"lon":13.5103}},{"facility":"Hansaki Clinic","city":"Kiyosu-shi","state":"Aichi-ken","zip":"452-0001","country":"Japan"},{"facility":"Hokkaido University Hospital","city":"Kita-ku","state":"Hokkaido","zip":"060-8648","country":"Japan"},{"facility":"Kobe University Hospital","city":"Kobe","state":"Hyōgo","zip":"650-0017","country":"Japan","geoPoint":{"lat":34.6913,"lon":135.183}},{"facility":"Dokkyo Medical University Hospital","city":"Mibu","state":"Tochigi","zip":"321-0293","country":"Japan","geoPoint":{"lat":36.41667,"lon":139.8}},{"facility":"Juntendo University Hospital","city":"Bunkyo-ku","state":"Tokyo","zip":"113-0033","country":"Japan"},{"facility":"Incorporated Medical Corporation, Shishin Iryokai, Respiratory Care Clinic Tokyo","city":"Chuo-ku","state":"Tokyo","zip":"104-0031","country":"Japan"},{"facility":"Teikyo University Hospital","city":"Itabashi-ku","state":"Tokyo","zip":"173-8606","country":"Japan"},{"facility":"Nihon University Itabashi Hospital","city":"Itabashi-ku","state":"Tokyo","zip":"173-8610","country":"Japan"},{"facility":"Incorporated Medical Corporation, Jinyukai, Jinyu Clinic","city":"Nakano Ku","state":"Tokyo","zip":"164-0012","country":"Japan"},{"facility":"Showa University Hospital","city":"Shinagawa-ku","state":"Tokyo","zip":"142-8666","country":"Japan"},{"facility":"Tokyo Women's Medical University Hospital","city":"Shinjuku-ku","state":"Tokyo","zip":"162-8666","country":"Japan"},{"facility":"The Fraternity Memorial Hospital","city":"Sumida-ku","state":"Tokyo","zip":"130-8587","country":"Japan"},{"facility":"Agosto Allergy and Immunology","city":"Cayey","zip":"00736","country":"Puerto Rico","geoPoint":{"lat":18.11191,"lon":-66.166}},{"facility":"CardioPulmonary Research CSP","city":"Guaynabo","zip":"00968","country":"Puerto Rico","geoPoint":{"lat":18.35745,"lon":-66.111}},{"facility":"Instituto Pulmonary Diseases Torre Medica San Lucas","city":"Ponce","zip":"00731","country":"Puerto Rico","geoPoint":{"lat":18.01031,"lon":-66.62398}},{"facility":"Rafael H Zaragoza - Urdaz","city":"San Juan","zip":"00918","country":"Puerto Rico","geoPoint":{"lat":18.46633,"lon":-66.10572}},{"facility":"Fundacion de Investigacion de Diego","city":"San Juan","zip":"00927","country":"Puerto Rico","geoPoint":{"lat":18.46633,"lon":-66.10572}},{"facility":"University of Puerto Rico Medical Sciences Campus","city":"San Juan","zip":"00936","country":"Puerto Rico","geoPoint":{"lat":18.46633,"lon":-66.10572}},{"facility":"Hospital De La Santa Creu I Sant Pau","city":"Barcelona","state":"Catalonia","zip":"08025","country":"Spain","geoPoint":{"lat":41.38879,"lon":2.15899}},{"facility":"Hospital Universitari Vall d'Hebron","city":"Barcelona","state":"Catalonia","zip":"08035","country":"Spain","geoPoint":{"lat":41.38879,"lon":2.15899}},{"facility":"Hospital Germans Trias i Pujol","city":"Barcelona","state":"Catalonia","zip":"08916","country":"Spain","geoPoint":{"lat":41.38879,"lon":2.15899}},{"facility":"Complexo Hospialario Universitario A Coruña","city":"A Coruña","state":"Galicia","zip":"15006","country":"Spain","geoPoint":{"lat":43.37135,"lon":-8.396}},{"facility":"Fysikalisk Medicin","city":"Lidingö","state":"Stockholms Län [se-01]","zip":"SE-181 58","country":"Sweden","geoPoint":{"lat":59.36667,"lon":18.13333}},{"facility":"Pennine Acute Hospitals NHS Trust","city":"Manchester","state":"Greater Manchester","zip":"M8 5RB","country":"United Kingdom","geoPoint":{"lat":53.48095,"lon":-2.23743}},{"facility":"University Hospitals Birmingham NHS Foundation Trust","city":"Birmingham","zip":"B9 5SS","country":"United Kingdom","geoPoint":{"lat":52.48142,"lon":-1.89983}},{"facility":"Royal Devon University Healthcare NHS Foundation Trust","city":"Exeter","zip":"EX2 5DW","country":"United Kingdom","geoPoint":{"lat":50.7236,"lon":-3.52751}},{"facility":"Gartnavel General Hospital","city":"Glasgow","zip":"G12 0YN","country":"United Kingdom","geoPoint":{"lat":55.86515,"lon":-4.25763}},{"facility":"St. James Hospital Leeds","city":"Leeds","zip":"LS9 7TF","country":"United Kingdom","geoPoint":{"lat":53.79648,"lon":-1.54785}},{"facility":"Glenfield General Hospital","city":"Leicester","zip":"LE3 9QP","country":"United Kingdom","geoPoint":{"lat":52.6386,"lon":-1.13169}},{"facility":"St. Bartholomew's Hospital","city":"London","zip":"EC1A 7BE","country":"United Kingdom","geoPoint":{"lat":51.50853,"lon":-0.12574}},{"facility":"Guy's Hospital","city":"London","zip":"SE1 9RT","country":"United Kingdom","geoPoint":{"lat":51.50853,"lon":-0.12574}},{"facility":"Wythenshawe Hospital","city":"Manchester","zip":"M23 9QZ","country":"United Kingdom","geoPoint":{"lat":53.48095,"lon":-2.23743}},{"facility":"Freeman Hospital","city":"Newcastle upon Tyne","zip":"NE7 7DN","country":"United Kingdom","geoPoint":{"lat":54.97328,"lon":-1.61396}},{"facility":"Nottingham University Hospitals NHS Trust","city":"Nottingham","zip":"NG5 1PD","country":"United Kingdom","geoPoint":{"lat":52.9536,"lon":-1.15047}}]},"referencesModule":{"references":[{"pmid":"36626107","type":"DERIVED","citation":"Gall R, Jain N, Soong W, Settipane RA, Xia C, Zhang Y, Haselkorn T, Jacob-Nara JA, Siddiqui S. Dupilumab-Treated Patients with Asthma in the Real World: The RAPID Global Registry. Adv Ther. 2023 Mar;40(3):1292-1298. doi: 10.1007/s12325-022-02399-5. Epub 2023 Jan 10."}]}},"derivedSection":{"miscInfoModule":{"versionHolder":"2026-02-25"},"conditionBrowseModule":{"meshes":[{"id":"D001249","term":"Asthma"}],"ancestors":[{"id":"D001982","term":"Bronchial Diseases"},{"id":"D012140","term":"Respiratory Tract Diseases"},{"id":"D008173","term":"Lung Diseases, Obstructive"},{"id":"D008171","term":"Lung Diseases"},{"id":"D012130","term":"Respiratory Hypersensitivity"},{"id":"D006969","term":"Hypersensitivity, Immediate"},{"id":"D006967","term":"Hypersensitivity"},{"id":"D007154","term":"Immune System Diseases"}]},"interventionBrowseModule":{"meshes":[{"id":"C582203","term":"dupilumab"}]}},"hasResults":false}