{"protocolSection":{"identificationModule":{"nctId":"NCT05329766","orgStudyIdInfo":{"id":"ARC-21"},"secondaryIdInfos":[{"id":"2021-006291-16","type":"EUDRACT_NUMBER"},{"id":"2024-511917-40-00","type":"CTIS"}],"organization":{"fullName":"Arcus Biosciences, Inc.","class":"INDUSTRY"},"briefTitle":"A Safety and Efficacy Study of Treatment Combinations With and Without Chemotherapy in Adult Participants With Advanced Upper Gastrointestinal Tract Malignancies","officialTitle":"A Phase 2 Trial to Evaluate the Safety and Efficacy of Combination Therapies in Patients With Advanced Upper Gastrointestinal Tract Malignancies (EDGE-Gastric)","acronym":"EDGE-Gastric"},"statusModule":{"statusVerifiedDate":"2025-03","overallStatus":"ACTIVE_NOT_RECRUITING","expandedAccessInfo":{"hasExpandedAccess":false},"startDateStruct":{"date":"2022-06-10","type":"ACTUAL"},"primaryCompletionDateStruct":{"date":"2027-01","type":"ESTIMATED"},"completionDateStruct":{"date":"2027-06","type":"ESTIMATED"},"studyFirstSubmitDate":"2022-04-08","studyFirstSubmitQcDate":"2022-04-08","studyFirstPostDateStruct":{"date":"2022-04-15","type":"ACTUAL"},"lastUpdateSubmitDate":"2026-01-27","lastUpdatePostDateStruct":{"date":"2026-01-29","type":"ACTUAL"}},"sponsorCollaboratorsModule":{"responsibleParty":{"type":"SPONSOR"},"leadSponsor":{"name":"Arcus Biosciences, Inc.","class":"INDUSTRY"},"collaborators":[{"name":"Gilead Sciences","class":"INDUSTRY"}]},"oversightModule":{"oversightHasDmc":false,"isFdaRegulatedDrug":true,"isFdaRegulatedDevice":false},"descriptionModule":{"briefSummary":"The purpose of this study is to evaluate the safety and preliminary clinical activity of treatment combinations with and without chemotherapy in participants with locally advanced unresectable or metastatic gastric, GEJ, and esophageal adenocarcinoma. Chemotherapy will consist of FOLFOX (oxaliplatin, leucovorin, fluorouracil)."},"conditionsModule":{"conditions":["Gastrointestinal Tract Malignancies"],"keywords":["Domvanalimab","Quemliclustat","Zimberelimab","Esophageal adenocarcinoma","Gastric adenocarcinoma","Gastric cancer","Gastroesophageal junction cancer","Anti-PD-1 antibody","Anti-CD73","anti-TIGIT antibody"]},"designModule":{"studyType":"INTERVENTIONAL","phases":["PHASE2"],"designInfo":{"allocation":"RANDOMIZED","interventionModel":"PARALLEL","primaryPurpose":"TREATMENT","maskingInfo":{"masking":"NONE"}},"enrollmentInfo":{"count":332,"type":"ACTUAL"}},"armsInterventionsModule":{"armGroups":[{"label":"A1: First Line - Treatment Naïve Participants","type":"EXPERIMENTAL","description":"Domvanalimab and zimberelimab once every 4 weeks (Q4W) in addition to FOLFOX chemotherapy by intravenous (IV) infusion once every 2 weeks (Q2W)","interventionNames":["Drug: Domvanalimab","Drug: Zimberelimab","Drug: Fluorouracil","Drug: Leucovorin","Drug: Oxaliplatin"]},{"label":"A2: First Line - Treatment Naïve Participants","type":"EXPERIMENTAL","description":"Zimberelimab Q4W in addition to chemotherapy with FOLFOX administered by IV infusion Q2W","interventionNames":["Drug: Zimberelimab","Drug: Fluorouracil","Drug: Leucovorin","Drug: Oxaliplatin"]},{"label":"A3 First Line - Treatment Naïve Participants","type":"EXPERIMENTAL","description":"Non-randomized A3 safety run-in cohort: Domvanalimab and zimberelimab co-administered Q4W via IV infusion over 60 minutes in addition to FOLFOX chemotherapy via IV infusion Q2W.\n\nAfter completion of A3 safety run-in cohort, participants are randomized to the A3 arm. Domvanalimab and zimberelimab co-administered Q4W via IV infusion over 30 minutes, in addition to FOLFOX chemotherapy via IV infusion Q2W","interventionNames":["Drug: Domvanalimab","Drug: Zimberelimab","Drug: Fluorouracil","Drug: Leucovorin","Drug: Oxaliplatin"]},{"label":"A4 First Line - Treatment Naïve Participants","type":"EXPERIMENTAL","description":"Zimberelimab administered Q4W via IV infusion over 30 minutes, in addition to FOLFOX chemotherapy via IV infusion Q2W","interventionNames":["Drug: Zimberelimab","Drug: Fluorouracil","Drug: Leucovorin","Drug: Oxaliplatin"]},{"label":"B1: Second Line or greater Checkpoint Inhibitor Naïve Participants","type":"EXPERIMENTAL","description":"Domvanalimab and zimberelimab administered once every three weeks (Q3W) by IV infusion","interventionNames":["Drug: Domvanalimab","Drug: Zimberelimab"]},{"label":"B2: Second Line or greater Checkpoint Inhibitor Naïve Participants","type":"EXPERIMENTAL","description":"Quemliclustat Q2W and zimberelimab Q4W administered by IV infusion","interventionNames":["Drug: Quemliclustat","Drug: Zimberelimab"]},{"label":"Cohort C1: Second Line or greater - Checkpoint Inhibitor Experienced Participants","type":"EXPERIMENTAL","description":"Domvanalimab and zimberelimab Q3W administered by IV infusion","interventionNames":["Drug: Domvanalimab","Drug: Zimberelimab"]}],"interventions":[{"type":"DRUG","name":"Domvanalimab","description":"Administered as specified in the treatment arm","armGroupLabels":["A1: First Line - Treatment Naïve Participants","A3 First Line - Treatment Naïve Participants","B1: Second Line or greater Checkpoint Inhibitor Naïve Participants","Cohort C1: Second Line or greater - Checkpoint Inhibitor Experienced Participants"]},{"type":"DRUG","name":"Quemliclustat","description":"Administered as specified in the treatment arm","armGroupLabels":["B2: Second Line or greater Checkpoint Inhibitor Naïve Participants"]},{"type":"DRUG","name":"Zimberelimab","description":"Administered as specified in the treatment arm","armGroupLabels":["A1: First Line - Treatment Naïve Participants","A2: First Line - Treatment Naïve Participants","A3 First Line - Treatment Naïve Participants","A4 First Line - Treatment Naïve Participants","B1: Second Line or greater Checkpoint Inhibitor Naïve Participants","B2: Second Line or greater Checkpoint Inhibitor Naïve Participants","Cohort C1: Second Line or greater - Checkpoint Inhibitor Experienced Participants"]},{"type":"DRUG","name":"Fluorouracil","description":"Administered as specified in the treatment arm","armGroupLabels":["A1: First Line - Treatment Naïve Participants","A2: First Line - Treatment Naïve Participants","A3 First Line - Treatment Naïve Participants","A4 First Line - Treatment Naïve Participants"]},{"type":"DRUG","name":"Leucovorin","description":"Administered as specified in the treatment arm","armGroupLabels":["A1: First Line - Treatment Naïve Participants","A2: First Line - Treatment Naïve Participants","A3 First Line - Treatment Naïve Participants","A4 First Line - Treatment Naïve Participants"]},{"type":"DRUG","name":"Oxaliplatin","description":"Administered as specified in the treatment arm","armGroupLabels":["A1: First Line - Treatment Naïve Participants","A2: First Line - Treatment Naïve Participants","A3 First Line - Treatment Naïve Participants","A4 First Line - Treatment Naïve Participants"]}]},"outcomesModule":{"primaryOutcomes":[{"measure":"Number of Participants with Adverse Events (AEs)","timeFrame":"Up to 18 months"},{"measure":"Objective Response Rate (ORR) as measured by Response Evaluation Criteria in Solid Tumors (RECIST) v1.1","timeFrame":"Up to 18 months"}],"secondaryOutcomes":[{"measure":"Objective Response Rate (ORR) as measured by PD-L1 Expression Level","timeFrame":"Up to 18 months"},{"measure":"Overall survival (OS)","timeFrame":"From date of first dose until the date of death due to any cause (approximately 18 months)"},{"measure":"Progression-free survival (PFS) as determined by the Investigator according to RECIST v1.1","timeFrame":"Up to 18 months"},{"measure":"Disease Control (complete response, partial response, or stable disease) for greater than equal to 12 weeks","timeFrame":"Up to 18 months"},{"measure":"Duration of response (DOR) as determined by the Investigator according to RECIST v1.1","timeFrame":"Up to 18 months"},{"measure":"Plasma concentration of domvanalimab","timeFrame":"Up to 18 months"},{"measure":"Plasma concentration of zimberelimab","timeFrame":"Up to 18 months"},{"measure":"Plasma concentration of quemliclustat","timeFrame":"Up to 18 months"},{"measure":"Percentage of participants with anti-drug antibodies to domvanalimab","timeFrame":"Up to 18 months"},{"measure":"Percentage of participants with anti-drug antibodies to zimberelimab","timeFrame":"Up to 18 months"}]},"eligibilityModule":{"eligibilityCriteria":"Key Inclusion Criteria:\n\n* Participants with histologically confirmed diagnosis of locally advanced unresectable or metastatic gastric, GEJ, or esophageal adenocarcinoma with life expectancy ≥3 months as assessed by the Investigator\n* Eastern cooperative oncology group (ECOG) Performance Score of 0-1\n* At least one measurable target lesion per RECIST v1.1.\n* Adequate organ and marrow function\n* Able to provide an archival tumor sample that is representative of the cancer under investigation and suitable for central PD-L1 testing\n\nKey Exclusion Criteria:\n\n* Participants with underlying medical conditions that, in the Investigator's or Sponsor's opinion, will make the administration of investigational products hazardous\n* Only for Cohort A: Known Human Epidermal Growth Factor Receptor 2 (HER-2) positive tumor\n* Known untreated, symptomatic, or actively progressing central nervous system (brain) metastases. Participants with leptomeningeal metastases are excluded from enrollment.\n* Discontinued use of prior immune checkpoint therapy due to immune related adverse events; received prior treatment with an anti-TIGIT monoclonal antibody.\n* History of trauma or major surgery within 28 days prior to enrollment.\n\nNote: Other protocol defined Inclusion/Exclusion criteria may apply.","healthyVolunteers":false,"sex":"ALL","minimumAge":"18 Years","stdAges":["ADULT","OLDER_ADULT"]},"contactsLocationsModule":{"overallOfficials":[{"name":"Medical Director","affiliation":"Arcus Biosciences, Inc.","role":"STUDY_DIRECTOR"}],"locations":[{"facility":"Mayo Clinic - Arizona","city":"Phoenix","state":"Arizona","zip":"85054","country":"United States","geoPoint":{"lat":33.44838,"lon":-112.07404}},{"facility":"USC/Norris Comprehensive Cancer Center","city":"Los Angeles","state":"California","zip":"90033","country":"United States","geoPoint":{"lat":34.05223,"lon":-118.24368}},{"facility":"Ronald Reagan UCLA Medical Center","city":"Santa Monica","state":"California","zip":"90024","country":"United States","geoPoint":{"lat":34.01949,"lon":-118.49138}},{"facility":"Yale Cancer Center","city":"Derby","state":"Connecticut","zip":"06418","country":"United States","geoPoint":{"lat":41.32065,"lon":-73.089}},{"facility":"Florida Cancer Specialist - South","city":"Fort Myers","state":"Florida","zip":"33901","country":"United States","geoPoint":{"lat":26.62168,"lon":-81.84059}},{"facility":"Mayo Clinic - Jacksonville","city":"Jacksonville","state":"Florida","zip":"32224","country":"United States","geoPoint":{"lat":30.33218,"lon":-81.65565}},{"facility":"Florida Cancer Specialist - North","city":"St. Petersburg","state":"Florida","zip":"33705","country":"United States","geoPoint":{"lat":27.77086,"lon":-82.67927}},{"facility":"Massachusetts General Hospital","city":"Boston","state":"Massachusetts","zip":"02109","country":"United States","geoPoint":{"lat":42.35843,"lon":-71.05977}},{"facility":"Memorial Sloan Kettering Cancer Center","city":"New York","state":"New York","zip":"10021-0005","country":"United States","geoPoint":{"lat":40.71427,"lon":-74.00597}},{"facility":"Columbia University","city":"New York","state":"New York","zip":"10032","country":"United States","geoPoint":{"lat":40.71427,"lon":-74.00597}},{"facility":"Duke University","city":"Durham","state":"North Carolina","zip":"27710","country":"United States","geoPoint":{"lat":35.99403,"lon":-78.89862}},{"facility":"Zangmeister Cancer Center","city":"Columbus","state":"Ohio","zip":"43219","country":"United States","geoPoint":{"lat":39.96118,"lon":-82.99879}},{"facility":"OU - Stephenson Cancer Center","city":"Oklahoma City","state":"Oklahoma","zip":"73104","country":"United States","geoPoint":{"lat":35.46756,"lon":-97.51643}},{"facility":"SCRI Tennessee Oncology - Nashville","city":"Nashville","state":"Tennessee","zip":"37203","country":"United States","geoPoint":{"lat":36.16589,"lon":-86.78444}},{"facility":"Vanderbilt-Ingram Cancer Center","city":"Nashville","state":"Tennessee","zip":"37232","country":"United States","geoPoint":{"lat":36.16589,"lon":-86.78444}},{"facility":"Virginia Cancer Specialists","city":"Fairfax","state":"Virginia","zip":"22031","country":"United States","geoPoint":{"lat":38.84622,"lon":-77.30637}},{"facility":"UHN - Princess Margaret Cancer Centre","city":"Toronto","country":"Canada","geoPoint":{"lat":43.70643,"lon":-79.39864}},{"facility":"Clínica San Carlos de Apoquindo","city":"Las Condes","country":"Chile","geoPoint":{"lat":-33.41636,"lon":-70.56413}},{"facility":"Bradford Hill Centro de Investigaciones Clinicas","city":"Recoleta","country":"Chile","geoPoint":{"lat":-33.41667,"lon":-70.65}},{"facility":"Centro de Estudios Clínicos SAGA","city":"Santiago","country":"Chile","geoPoint":{"lat":-33.45694,"lon":-70.64827}},{"facility":"Clínica Universidad Católica del Maule","city":"Talca","country":"Chile","geoPoint":{"lat":-35.4232,"lon":-71.64974}},{"facility":"Institut Bergonié _ Bordeaux","city":"Bordeaux","country":"France","geoPoint":{"lat":44.84124,"lon":-0.58046}},{"facility":"CHU de Brest_Brest","city":"Brest","country":"France","geoPoint":{"lat":48.39029,"lon":-4.48628}},{"facility":"Centre Baclesse - CAEN","city":"Caen","country":"France","geoPoint":{"lat":49.18585,"lon":-0.35912}},{"facility":"Centre Oscar Lambret _ LILLE","city":"Lille","country":"France","geoPoint":{"lat":50.63391,"lon":3.05512}},{"facility":"Centre Léon Bérard _ Lyon","city":"Lyon","country":"France","geoPoint":{"lat":45.74906,"lon":4.84789}},{"facility":"Hôpital Timone - Marseille","city":"Marseille","country":"France","geoPoint":{"lat":43.29695,"lon":5.38107}},{"facility":"Institut de Recherche en Cancerologie de Montpellier","city":"Montpellier","country":"France","geoPoint":{"lat":43.61093,"lon":3.87635}},{"facility":"Centre Armoricain de Radiothérapie, d'Imagerie Médicale et d'Oncologie","city":"Plérin","country":"France","geoPoint":{"lat":48.53451,"lon":-2.76975}},{"facility":"Pôle Régional de Cancérologie - Service d'Oncologie Médicale - Poitiers","city":"Poitiers","country":"France","geoPoint":{"lat":46.58261,"lon":0.34348}},{"facility":"CHU de Toulouse_Oncopole","city":"Toulouse","country":"France","geoPoint":{"lat":43.60426,"lon":1.44367}},{"facility":"Gustave Roussy - Villejuif","city":"Villejuif","country":"France","geoPoint":{"lat":48.7939,"lon":2.35992}},{"facility":"MSB - Medicinski Sistem Beograd","city":"Belgrade","country":"Serbia","geoPoint":{"lat":44.80401,"lon":20.46513}},{"facility":"University Clinical Center of Serbia","city":"Belgrade","country":"Serbia","geoPoint":{"lat":44.80401,"lon":20.46513}},{"facility":"University Hospital Medical Center (KBC) Bezanijska Kosa","city":"Belgrade","country":"Serbia","geoPoint":{"lat":44.80401,"lon":20.46513}},{"facility":"Institute of Oncology of Vojvodina","city":"Kamenitz","country":"Serbia","geoPoint":{"lat":45.22334,"lon":19.84263}},{"facility":"Clinical Center Kragujevac","city":"Kragujevac","country":"Serbia","geoPoint":{"lat":44.01667,"lon":20.91667}},{"facility":"Dong-A University Hospital","city":"Busan","country":"South Korea","geoPoint":{"lat":35.10168,"lon":129.03004}},{"facility":"Kyungpook National University Chilgok Hospital","city":"Daegu","country":"South Korea","geoPoint":{"lat":35.87028,"lon":128.59111}},{"facility":"Chonnam National University Hwasun Hospital","city":"Hwasun","country":"South Korea","geoPoint":{"lat":35.06125,"lon":126.98746}},{"facility":"CHA Bundang Medical Center","city":"Seongnam-si","country":"South Korea","geoPoint":{"lat":37.43861,"lon":127.13778}},{"facility":"Asan Medical Center Hospital","city":"Seoul","country":"South Korea","geoPoint":{"lat":37.566,"lon":126.9784}},{"facility":"Korea University Anam Hospital","city":"Seoul","country":"South Korea","geoPoint":{"lat":37.566,"lon":126.9784}},{"facility":"Korea University Guro Hospital","city":"Seoul","country":"South Korea","geoPoint":{"lat":37.566,"lon":126.9784}},{"facility":"Samsung Medical Center","city":"Seoul","country":"South Korea","geoPoint":{"lat":37.566,"lon":126.9784}},{"facility":"Seoul National University Hospital","city":"Seoul","country":"South Korea","geoPoint":{"lat":37.566,"lon":126.9784}},{"facility":"Severance Hospital Cancer Center","city":"Seoul","country":"South Korea","geoPoint":{"lat":37.566,"lon":126.9784}},{"facility":"Ajou University Hospital","city":"Suwon","country":"South Korea","geoPoint":{"lat":37.29111,"lon":127.00889}},{"facility":"St. Vincent's Hospital, The Catholic University of Korea","city":"Suwon","country":"South Korea","geoPoint":{"lat":37.29111,"lon":127.00889}}]},"referencesModule":{"references":[{"pmid":"41109921","type":"DERIVED","citation":"Janjigian YY, Oh DY, Pelster M, Wainberg ZA, Prusty S, Nelson S, DuPage A, Thompson A, Koralek DO, Sison EAR, Rha SY. Domvanalimab and zimberelimab in advanced gastric, gastroesophageal junction or esophageal cancer: a phase 2 trial. Nat Med. 2025 Dec;31(12):4274-4280. doi: 10.1038/s41591-025-04022-w. Epub 2025 Oct 18."}],"seeAlsoLinks":[{"label":"ARC-21 - Public website","url":"https://trials.arcusbio.com/study/?id=ARC-21"}]},"ipdSharingStatementModule":{"ipdSharing":"YES","description":"Arcus will provide access to individual de-identified participant data and related study documents (e.g., protocol, Statistical Analysis Plan \\[SAP\\], Clinical Study Report \\[CSR\\]) upon request from qualified researchers, and subject to certain criteria, conditions, and exceptions.\n\nFor more information, please visit our website.","infoTypes":["STUDY_PROTOCOL","SAP","CSR"],"url":"https://trials.arcusbio.com/our-transparency-policy"}},"derivedSection":{"miscInfoModule":{"versionHolder":"2026-02-25","removedCountries":["Argentina"]},"conditionBrowseModule":{"meshes":[{"id":"C562730","term":"Adenocarcinoma Of Esophagus"},{"id":"D013274","term":"Stomach Neoplasms"}],"ancestors":[{"id":"D005770","term":"Gastrointestinal Neoplasms"},{"id":"D004067","term":"Digestive System Neoplasms"},{"id":"D009371","term":"Neoplasms by Site"},{"id":"D009369","term":"Neoplasms"},{"id":"D004066","term":"Digestive System Diseases"},{"id":"D005767","term":"Gastrointestinal Diseases"},{"id":"D013272","term":"Stomach Diseases"}]},"interventionBrowseModule":{"meshes":[{"id":"C000723779","term":"quemliclustat"},{"id":"C000719848","term":"zimberelimab"},{"id":"D005472","term":"Fluorouracil"},{"id":"D002955","term":"Leucovorin"},{"id":"D000077150","term":"Oxaliplatin"}],"ancestors":[{"id":"D014498","term":"Uracil"},{"id":"D011744","term":"Pyrimidinones"},{"id":"D011743","term":"Pyrimidines"},{"id":"D006573","term":"Heterocyclic Compounds, 1-Ring"},{"id":"D006571","term":"Heterocyclic Compounds"},{"id":"D005575","term":"Formyltetrahydrofolates"},{"id":"D013763","term":"Tetrahydrofolates"},{"id":"D005492","term":"Folic Acid"},{"id":"D011622","term":"Pterins"},{"id":"D011621","term":"Pteridines"},{"id":"D006574","term":"Heterocyclic Compounds, 2-Ring"},{"id":"D000072471","term":"Heterocyclic Compounds, Fused-Ring"},{"id":"D003067","term":"Coenzymes"},{"id":"D045762","term":"Enzymes and Coenzymes"},{"id":"D056831","term":"Coordination Complexes"},{"id":"D009930","term":"Organic Chemicals"}]}},"hasResults":false}