{"protocolSection":{"identificationModule":{"nctId":"NCT06834347","orgStudyIdInfo":{"id":"EFC18418"},"secondaryIdInfos":[{"id":"2024-516814-39","type":"REGISTRY","domain":"CTIS"},{"id":"U1111-1306-4858","type":"REGISTRY","domain":"ICTRP"}],"organization":{"fullName":"Sanofi","class":"INDUSTRY"},"briefTitle":"A Phase 3 Study to Assess the Efficacy, Safety, and Tolerability of Itepekimab (Anti-IL-33 mAb) in Participants With Inadequately-controlled Chronic Rhinosinusitis With Nasal Polyps","officialTitle":"A Randomized, Double-blind, Placebo-controlled, Parallel-group, 52-week Phase 3 Trial to Investigate the Efficacy, Safety, and Tolerability of Itepekimab in Adult Participants With Inadequately-controlled Chronic Rhinosinusitis With Nasal Polyps","acronym":"CEREN-1"},"statusModule":{"statusVerifiedDate":"2026-02","overallStatus":"RECRUITING","expandedAccessInfo":{"hasExpandedAccess":false},"startDateStruct":{"date":"2025-02-12","type":"ACTUAL"},"primaryCompletionDateStruct":{"date":"2027-01-08","type":"ESTIMATED"},"completionDateStruct":{"date":"2027-12-13","type":"ESTIMATED"},"studyFirstSubmitDate":"2025-02-14","studyFirstSubmitQcDate":"2025-02-14","studyFirstPostDateStruct":{"date":"2025-02-19","type":"ACTUAL"},"lastUpdateSubmitDate":"2026-02-18","lastUpdatePostDateStruct":{"date":"2026-02-20","type":"ACTUAL"}},"sponsorCollaboratorsModule":{"responsibleParty":{"type":"SPONSOR"},"leadSponsor":{"name":"Sanofi","class":"INDUSTRY"},"collaborators":[{"name":"Regeneron Pharmaceuticals","class":"INDUSTRY"}]},"oversightModule":{"oversightHasDmc":true,"isFdaRegulatedDrug":true,"isFdaRegulatedDevice":false},"descriptionModule":{"briefSummary":"EFC18418 is a multinational, randomized, double-blind, placebo-controlled, parallel-group, Phase 3 study with 3 treatment groups. The purpose of the study is to evaluate the efficacy, safety and tolerability of 2 dosing regimens of itepekimab compared to placebo as add-on therapy to intranasal corticosteroids (INCS) in male and female participants with chronic rhinosinusitis with nasal polyps (CRSwNP) aged 18 years of age and older.\n\nStudy details include:\n\n* The study duration per participant (4-week screening, 52-week treatment, 20-week safety follow-up) will be up to 76 weeks. For participants transitioning to the LTS18420 study, the study duration will be 56 weeks.\n* The treatment duration will be up to 52 weeks.\n* The number of visits will be 9 site visits and 20 phone/home visits."},"conditionsModule":{"conditions":["Chronic Rhinosinusitis With Nasal Polyps"]},"designModule":{"studyType":"INTERVENTIONAL","phases":["PHASE3"],"designInfo":{"allocation":"RANDOMIZED","interventionModel":"PARALLEL","primaryPurpose":"TREATMENT","maskingInfo":{"masking":"QUADRUPLE","whoMasked":["PARTICIPANT","CARE_PROVIDER","INVESTIGATOR","OUTCOMES_ASSESSOR"]}},"enrollmentInfo":{"count":210,"type":"ESTIMATED"}},"armsInterventionsModule":{"armGroups":[{"label":"Itepekimab high dose","type":"EXPERIMENTAL","description":"Subcutaneous (SC) administration of Itepekimab high dose for 52 weeks","interventionNames":["Drug: Itepekimab (SAR440340)","Drug: Mometasone furoate nasal spray (MFNS)"]},{"label":"Itepekimab low dose","type":"EXPERIMENTAL","description":"SC administration of Itepekimab low dose for 52 weeks","interventionNames":["Drug: Itepekimab (SAR440340)","Drug: Placebo","Drug: Mometasone furoate nasal spray (MFNS)"]},{"label":"Placebo","type":"PLACEBO_COMPARATOR","description":"SC administration of matching placebo for 52 weeks","interventionNames":["Drug: Placebo","Drug: Mometasone furoate nasal spray (MFNS)"]}],"interventions":[{"type":"DRUG","name":"Itepekimab (SAR440340)","description":"Pharmaceutical form: Solution for injection in prefilled syringe. Route of administration: Subcutaneous","armGroupLabels":["Itepekimab high dose","Itepekimab low dose"],"otherNames":["REGN3500"]},{"type":"DRUG","name":"Placebo","description":"Pharmaceutical form: Solution for injection in prefilled syringe. Route of administration: Subcutaneous","armGroupLabels":["Itepekimab low dose","Placebo"]},{"type":"DRUG","name":"Mometasone furoate nasal spray (MFNS)","description":"Pharmaceutical form: Solution for administration via spray pump. Route of administration: Intranasal spray","armGroupLabels":["Itepekimab high dose","Itepekimab low dose","Placebo"]}]},"outcomesModule":{"primaryOutcomes":[{"measure":"Change from baseline in the endoscopic NPS","description":"The Nasal Polyp Score (NPS) is the sum of the right and left nostril scores, as evaluated by means of nasal endoscopy. Nasal polyp is graded based on polyp size from 0 to 4 with higher scores indicating larger polyps. The sum of right and left nostril scores ranges from 0 (no polyps) to 8 (large polyps).","timeFrame":"Baseline to Week 24"},{"measure":"Change from baseline in the NCS","description":"The Nasal Congestion Score (NCS) is scored using a 0-3 categorical scale where 0 = no symptoms, 1 = mild symptoms, 2 = moderate symptoms and 3 = severe symptoms.\n\nOutcome value is defined as the preceding 28-day average of morning scores recorded in eDiary.","timeFrame":"Baseline to Week 24"}],"secondaryOutcomes":[{"measure":"Change from baseline in endoscopic NPS","description":"The NPS is the sum of the right and left nostril scores, as evaluated by means of nasal endoscopy. Nasal polyp is graded based on polyp size from 0 to 4 with higher scores indicating larger polyps. The sum of right and left nostril scores ranges from 0 (no polyps) to 8 (large polyps).","timeFrame":"Baseline to Week 52"},{"measure":"Change from baseline in NCS","description":"The NCS is scored using a 0-3 categorical scale where 0 = no symptoms, 1 = mild symptoms, 2 = moderate symptoms and 3 = severe symptoms.\n\nOutcome value is defined as the preceding 28-day average of morning scores recorded in eDiary.","timeFrame":"Baseline to Week 52"},{"measure":"Change from baseline in opacification of sinuses assessed by Computed Tomography (CT) scan using the LMK score","description":"The Lund-Mackay (LMK) system is based on localization with points given for degree of opacification: 0 = normal, 1 = partial opacification, 2 = total opacification. These points are then applied to the maxillary, anterior ethmoid, posterior ethmoid, sphenoid, frontal sinus on each side. The osteomeatal complex is graded as 0 = not occluded, or 2 = occluded, deriving a maximum score of 12 per side. The total score is the sum of scores from each side and ranges from 0 (normal) to 24 (total opacification).","timeFrame":"Baseline to Week 24"},{"measure":"Change from baseline in the TSS (nasal congestion/obstruction, anterior/posterior rhinorrhea, and loss of sense of smell)","description":"The CRSwNP Total Symptom Score (TSS) is a composite score derived from nasal congestion (NC)/obstruction, anterior/posterior rhinorrhea, and loss of smell. The total score ranges from 0 to 9 with higher scores on TSS indicating greater overall symptom severity.","timeFrame":"Baseline to Weeks 24 and 52"},{"measure":"Change from baseline in loss of smell severity score using the daily CRSwNP sinonasal symptom eDiary, and UPSIT score","description":"The CRSwNP sinonasal symptom diary is designed to assess the severity of chronic rhinosinusitis (CRS) sinonasal symptoms on daily basis. These symptoms include NC/obstruction, anterior rhinorrhea and posterior rhinorrhea, facial pain/pressure, loss of smell, and headache. Each of the individual items of the diary are scored from 0 (\"No symptoms\") to 3 (\"Severe symptoms - symptoms that are hard to tolerate, cause interference with activities or daily living\"). Higher scores on the items of the individual symptoms denote greater symptom severity.\n\nThe University of Pennsylvania Smell Identification Test (UPSIT) test is a rapid and easy-to-administer method to quantitatively assess human olfactory function. The total score ranges from 0 (anosmia) to 40 (normosmia).","timeFrame":"Baseline to Weeks 24 and 52"},{"measure":"Change from baseline in SNOT-22 total score","description":"The Sino-Nasal Outcome Test-22-Items (SNOT-22) is a patient-reported outcome questionnaire designed to assess the impact of CRS on patient's Health-Related Quality of Life (HRQoL). It has 22 items covering five domains: Nasal, Ear/Facial, Sleep, Function, and Emotion. A global score ranging from 0 to 110 with higher score indicating greater rhinosinusitis related health burden.","timeFrame":"Baseline to Weeks 24 and 52"},{"measure":"Change from baseline in PROMIS SD-SF-8b scores","description":"The Patient Reported Outcomes Measurement Information System (PROMIS) Sleep Disturbance - Short Form 8b (SD-SF-8b) is a generic 8-item sleep disturbance assessment that evaluates difficulties with falling asleep, staying asleep, and getting enough sleep; and perceptions on the quality and satisfaction of sleep. Scores are calculated with a conversion of the raw score (score range 8 to 40) into a standardized T-score with the mean of the 50 and SD of 10, where higher scores indicate more disturbed sleep.","timeFrame":"Baseline to Weeks 24 and 52"},{"measure":"Proportion of participants with CRSwNP requiring systemic corticosteroid(s) (SCS) or surgery for CRS","timeFrame":"Baseline up to Week 52"},{"measure":"Annualized rate of SCS course or surgery for CRS","timeFrame":"Baseline up to Week 52"},{"measure":"Time to first either SCS or surgery for CRS","timeFrame":"Baseline through Week 52"},{"measure":"Change from baseline in pre-BD FEV1 (in mL) in participants with co-morbid asthma","description":"Pre-BD FEV1: pre-bronchodilator forced expiratory volume in 1 second","timeFrame":"Baseline to Weeks 24 and 52"},{"measure":"Change from baseline in ACQ-5 score in participants with co-morbid asthma","description":"The Asthma Control Questionnaire (ACQ) is a questionnaire that measures the adequacy of asthma control and any changes in asthma control that may occur spontaneously or as a result of treatment. The ACQ-5 has 5 questions on the asthma symptoms. The global score is the mean of the item responses and ranges from 0 and 6 with higher score indicating lower asthma control.","timeFrame":"Baseline to Weeks 24 and 52"},{"measure":"Change from the baseline in NPS and NCS in the subgroup of patients with aspirin-exacerbated respiratory disease (AERD)","timeFrame":"Baseline to Weeks 24 and 52"},{"measure":"Proportion of participants with AERD requiring SCS or surgery for CRS","timeFrame":"Baseline up to Week 52"},{"measure":"Annualized rate of SCS course or surgery for CRS in participants with AERD","timeFrame":"Baseline up to Week 52"},{"measure":"Time to first either SCS or surgery for CRS in participants with AERD","timeFrame":"Baseline through Week 52"},{"measure":"Change from baseline in pre-BD FEV1 (in ml) in participants with AERD","description":"Pre-BD FEV1: pre-bronchodilator forced expiratory volume in 1 second","timeFrame":"Baseline to Weeks 24 and 52"},{"measure":"Proportion of NPS responders (defined as participants with improvement by at least 1 point in NPS)","timeFrame":"Weeks 24 and 52"},{"measure":"Proportion of NPS responders (defined as participants with improvement by at least 2 points in NPS)","timeFrame":"Weeks 24 and 52"},{"measure":"Incidence of treatment-emergent adverse events (TEAEs), treatment-emergent serious adverse events (TESAEs), treatment-emergent adverse events of special interest (TEAESIs) and TEAEs leading to treatment discontinuation","timeFrame":"Baseline to End of Study (EOS) (Week 72)"},{"measure":"Itepekimab concentration in serum","timeFrame":"Baseline to EOS (Week 72)"},{"measure":"Incidence of treatment-emergent anti-itepekimab antibody (ADA) responses","timeFrame":"Baseline to EOS (Week 72)"}]},"eligibilityModule":{"eligibilityCriteria":"Inclusion Criteria:\n\n* Participants must be 18 years of age or older.\n* Participants with a history of chronic rhinosinusitis with nasal polyps (CRSwNP) for at least 1 year prior to screening\n* Participants must have at least one of the following features:\n\n  * Prior sinonasal surgery for nasal polyps (NP).\n  * Worsening symptoms of chronic rhinosinusitis (CRS) requiring treatment with systemic corticosteroid(s) (SCS) within the prior 1 year before screening (Visit 1).\n* An endoscopic bilateral Nasal Polyp Score (NPS) of at least 5 out of maximum score of 8 (with a minimum score of 2 in each nasal cavity) at screening and randomization.\n* Ongoing symptoms (for at least 12 weeks before Visit 1) of:\n\n  * Nasal congestion/blockade/obstruction with moderate or severe (symptom severity score 2 or 3) at Visit 1 and a weekly average severity of greater than 1 in the week before randomization (Visit 2), AND\n  * At least one of the following two symptoms: loss of smell or rhinorrhea (anterior/posterior).\n* A female participant is eligible to participate if she is not pregnant or breastfeeding, and at least 1 of the following conditions applies:\n\n  * Is not a women of childbearing potential (WOCBP), OR\n  * Is a WOCBP and agrees to use a contraceptive method that is highly effective, with a failure rate of \\<1% during the study (at a minimum until 20 weeks after the last dose of study intervention).\n\nExclusion Criteria:\n\nParticipants are excluded from the study if any of the following criteria apply:\n\n* Participants with a history of clinically significant renal, hepatic, metabolic, neurologic, hematologic, ophthalmologic, respiratory (excluding those with asthma and aspirin-exacerbated respiratory disease (AERD) which may be included in the study), gastrointestinal, cardiovascular, cerebrovascular, or other significant medical illness or disorder, which, in the judgment of the Investigator, could interfere with the study or require treatment that might interfere with the study.\n* Participants who are currently smoking tobacco and/or vaping, or participants in whom smoking/vaping cessation has occurred \\<6 months prior to Screening (Visit 1). Nicotine replacement therapy and/or noninhaled tobacco product use are not considered current smoking of tobacco.\n* Participants meet any contraindications for mometasone furoate nasal spray (MFNS) such as hypersensitivity to MFNS or any of its components; or participants with uncontrolled opportunistic infections.\n* Participants with a history of a severe systemic hypersensitivity reaction to a mAb.\n* Participants with conditions/concomitant diseases making them non-evaluable at Visit 1 or for the primary efficacy endpoint.\n* Participants with nasal cavity malignant tumor and benign tumors (eg, papilloma, blood boil etc).\n* Participants with severe uncontrolled asthma with history of 2 and/or more exacerbations, requiring SCS or 1 hospitalization requiring SCS in the past year.\n* History of concomitant lung disease (other than asthma, eg, COPD, interstitial lung disease) which in the opinion of the Investigator could interfere with performance and interpretation of spirometry.\n* Participants treated with intranasal corticosteroid(s) (INCS) (MFNS is permitted), intranasal emitting devices/stents, nasal spray using exhalation delivery system such as XhanceTM during the screening period. In Japan and China INCS other than MFNS are permitted.\n* Participants who have undergone any sinus intranasal surgery (including polypectomy) within 6 months before Visit 1.\n* Participants who received SCS 1 month prior to Screening (Visit 1) or during the screening period (between Visit 1 and Visit 2).\n* Known allergy to itepekimab or its excipients, or any drug or other allergy that, in the opinion of the Investigator, contraindicates participation in this study.\n\nThe above information is not intended to contain all considerations relevant to a participant's potential participation in a clinical trial.","healthyVolunteers":false,"sex":"ALL","minimumAge":"18 Years","stdAges":["ADULT","OLDER_ADULT"]},"contactsLocationsModule":{"centralContacts":[{"name":"Trial Transparency email recommended (Toll free for US & Canada)","role":"CONTACT","phone":"800-633-1610","phoneExt":"option 6","email":"contact-us@sanofi.com"}],"overallOfficials":[{"name":"Clinical Sciences & Operations","affiliation":"Sanofi","role":"STUDY_DIRECTOR"}],"locations":[{"facility":"University of Southern California (USC) / Keck Medicine of USC- Site Number : 8400037","status":"RECRUITING","city":"Arcadia","state":"California","zip":"91006","country":"United States","geoPoint":{"lat":34.13973,"lon":-118.03534}},{"facility":"Sensa Health- Site Number : 8400038","status":"RECRUITING","city":"Los Angeles","state":"California","zip":"90006","country":"United States","geoPoint":{"lat":34.05223,"lon":-118.24368}},{"facility":"Newport Native MD- Site Number : 8400031","status":"RECRUITING","city":"Newport Beach","state":"California","zip":"92663","country":"United States","geoPoint":{"lat":33.61891,"lon":-117.92895}},{"facility":"Breathe Clear Institute of Sinus and Allergy Relief- Site Number : 8400040","status":"RECRUITING","city":"Torrance","state":"California","zip":"90503","country":"United States","geoPoint":{"lat":33.83585,"lon":-118.34063}},{"facility":"Orso Health - Torrance - Hawthorne Boulevard- Site Number : 8400035","status":"RECRUITING","city":"Torrance","state":"California","zip":"90505","country":"United States","geoPoint":{"lat":33.83585,"lon":-118.34063}},{"facility":"Advanced Research Associates (ARA) Professionals- Site Number : 8400011","status":"RECRUITING","city":"Miami","state":"Florida","zip":"33176","country":"United States","geoPoint":{"lat":25.77427,"lon":-80.19366}},{"facility":"Paradisus Med Research - Miami- Site Number : 8400009","status":"RECRUITING","city":"Miami","state":"Florida","zip":"33185","country":"United States","geoPoint":{"lat":25.77427,"lon":-80.19366}},{"facility":"Orlando ENT Associates - Orlando- Site Number : 8400008","status":"RECRUITING","city":"Orlando","state":"Florida","zip":"32807","country":"United States","geoPoint":{"lat":28.53834,"lon":-81.37924}},{"facility":"Emory University School of Medicine- Grady Campus- Site Number : 8400047","status":"RECRUITING","city":"Atlanta","state":"Georgia","zip":"30303","country":"United States","geoPoint":{"lat":33.749,"lon":-84.38798}},{"facility":"Treasure Valley Medical Research- Site Number : 8400063","status":"RECRUITING","city":"Boise","state":"Idaho","zip":"83706","country":"United States","geoPoint":{"lat":43.6135,"lon":-116.20345}},{"facility":"University of Chicago Medical Center- Site Number : 8400018","status":"RECRUITING","city":"Chicago","state":"Illinois","zip":"60637","country":"United States","geoPoint":{"lat":41.85003,"lon":-87.65005}},{"facility":"Deaconess Clinic Allergy East- Site Number : 8400056","status":"RECRUITING","city":"Evansville","state":"Indiana","zip":"47715","country":"United States","geoPoint":{"lat":37.97476,"lon":-87.55585}},{"facility":"SSM Health Saint Louis University Hospital- Site Number : 8400005","status":"RECRUITING","city":"St Louis","state":"Missouri","zip":"63104","country":"United States","geoPoint":{"lat":38.62727,"lon":-90.19789}},{"facility":"Northwell Health Physician Partners Rheumatology at Great Neck- Site Number : 8400028","status":"RECRUITING","city":"Great Neck","state":"New York","zip":"11021","country":"United States","geoPoint":{"lat":40.80066,"lon":-73.72846}},{"facility":"Essential Medical Research- Site Number : 8400066","status":"RECRUITING","city":"Tulsa","state":"Oklahoma","zip":"74137","country":"United States","geoPoint":{"lat":36.15398,"lon":-95.99277}},{"facility":"TEN20 Clinical Research - Dallas- Site Number : 8400015","status":"RECRUITING","city":"Dallas","state":"Texas","zip":"75244","country":"United States","geoPoint":{"lat":32.78306,"lon":-96.80667}},{"facility":"Houston Methodist Hospital- Site Number : 8400054","status":"RECRUITING","city":"Houston","state":"Texas","zip":"77030","country":"United States","geoPoint":{"lat":29.76328,"lon":-95.36327}},{"facility":"ENT Associates of Texas - McKinne- Site Number : 8400062","status":"RECRUITING","city":"McKinney","state":"Texas","zip":"75070","country":"United States","geoPoint":{"lat":33.19762,"lon":-96.61527}},{"facility":"Alamo ENT Associates- Site Number : 8400065","status":"RECRUITING","city":"San Antonio","state":"Texas","zip":"78258","country":"United States","geoPoint":{"lat":29.42412,"lon":-98.49363}},{"facility":"Eastern Virginia Medical School (EVMS) Medical Group- Site Number : 8400046","status":"RECRUITING","city":"Norfolk","state":"Virginia","zip":"23510","country":"United States","geoPoint":{"lat":36.84681,"lon":-76.28522}},{"facility":"Investigational Site Number : 0320002","status":"RECRUITING","city":"La Plata","state":"Buenos Aires","zip":"1900","country":"Argentina","geoPoint":{"lat":-34.92126,"lon":-57.95442}},{"facility":"Investigational Site Number : 0320004","status":"RECRUITING","city":"Rosario","state":"Santa Fe Province","zip":"2000","country":"Argentina","geoPoint":{"lat":-32.94682,"lon":-60.63932}},{"facility":"Investigational Site Number : 0320001","status":"RECRUITING","city":"Buenos Aires","zip":"1425","country":"Argentina","geoPoint":{"lat":-34.61315,"lon":-58.37723}},{"facility":"Investigational Site Number : 0320005","status":"RECRUITING","city":"Buenos Aires","zip":"1638","country":"Argentina","geoPoint":{"lat":-34.61315,"lon":-58.37723}},{"facility":"Investigational Site Number : 0320003","status":"RECRUITING","city":"Mendoza","zip":"5500","country":"Argentina","geoPoint":{"lat":-32.88946,"lon":-68.84582}},{"facility":"Investigational Site Number : 0400005","status":"RECRUITING","city":"Graz","zip":"8036","country":"Austria","geoPoint":{"lat":47.06733,"lon":15.44197}},{"facility":"Investigational Site Number : 0400002","status":"RECRUITING","city":"Linz","zip":"4010","country":"Austria","geoPoint":{"lat":48.30639,"lon":14.28611}},{"facility":"Investigational Site Number : 0400001","status":"RECRUITING","city":"Vienna","zip":"1090","country":"Austria","geoPoint":{"lat":48.20849,"lon":16.37208}},{"facility":"Hospital das Clinicas da Faculdade de Medicina de Ribeirao Preto- Site Number : 0760002","status":"RECRUITING","city":"Ribeirão Preto","state":"São Paulo","zip":"14049-900","country":"Brazil","geoPoint":{"lat":-21.1775,"lon":-47.81028}},{"facility":"Centro Internacional de Pesquisa Clínica (CIPES)- Site Number : 0760005","status":"RECRUITING","city":"São José dos Campos","state":"São Paulo","zip":"12230-001","country":"Brazil","geoPoint":{"lat":-23.17944,"lon":-45.88694}},{"facility":"Hospital Israelita Albert Einstein- Site Number : 0760001","status":"RECRUITING","city":"São Paulo","zip":"05651-901","country":"Brazil","geoPoint":{"lat":-23.5475,"lon":-46.63611}},{"facility":"Investigational Site Number : 1240005","status":"RECRUITING","city":"London","state":"Ontario","zip":"N6A 4V2","country":"Canada","geoPoint":{"lat":42.98339,"lon":-81.23304}},{"facility":"Investigational Site Number : 1240002","status":"RECRUITING","city":"Montreal","state":"Quebec","zip":"H4A 3J1","country":"Canada","geoPoint":{"lat":45.50884,"lon":-73.58781}},{"facility":"Investigational Site Number : 1240001","status":"RECRUITING","city":"Québec","state":"Quebec","zip":"G1V 4G5","country":"Canada","geoPoint":{"lat":46.81228,"lon":-71.21454}},{"facility":"Investigational Site Number : 1520006","status":"RECRUITING","city":"Valdivia","state":"Los Ríos Region","zip":"5110683","country":"Chile","geoPoint":{"lat":-39.81422,"lon":-73.24589}},{"facility":"Investigational Site Number : 1520003","status":"RECRUITING","city":"Talca","state":"Maule Region","zip":"3465584","country":"Chile","geoPoint":{"lat":-35.4232,"lon":-71.64974}},{"facility":"Investigational Site Number : 1520004","status":"RECRUITING","city":"Lo Barnechea","state":"Reg Metropolitana de Santiago","zip":"7691236","country":"Chile","geoPoint":{"lat":-33.36071,"lon":-70.51244}},{"facility":"Investigational Site Number : 1520002","status":"RECRUITING","city":"Santiago","state":"Reg Metropolitana de Santiago","zip":"7500692","country":"Chile","geoPoint":{"lat":-33.45694,"lon":-70.64827}},{"facility":"Investigational Site Number : 1520001","status":"RECRUITING","city":"Santiago","state":"Reg Metropolitana de Santiago","zip":"8207257","country":"Chile","geoPoint":{"lat":-33.45694,"lon":-70.64827}},{"facility":"Investigational Site Number : 1520005","status":"RECRUITING","city":"Viña del Mar","state":"Región de Valparaíso","zip":"2540364","country":"Chile","geoPoint":{"lat":-33.02457,"lon":-71.55183}},{"facility":"Investigational Site Number : 2460003","status":"RECRUITING","city":"Helsinki","zip":"00130","country":"Finland","geoPoint":{"lat":60.16952,"lon":24.93545}},{"facility":"Investigational Site Number : 2460004","status":"RECRUITING","city":"Helsinki","zip":"00290","country":"Finland","geoPoint":{"lat":60.16952,"lon":24.93545}},{"facility":"Investigational Site Number : 2460002","status":"RECRUITING","city":"Kuopio","zip":"70210","country":"Finland","geoPoint":{"lat":62.89238,"lon":27.67703}},{"facility":"Investigational Site Number : 2760004","status":"RECRUITING","city":"Berlin","zip":"10117","country":"Germany","geoPoint":{"lat":52.52437,"lon":13.41053}},{"facility":"Investigational Site Number : 2760002","status":"RECRUITING","city":"Münster","zip":"48149","country":"Germany","geoPoint":{"lat":51.96236,"lon":7.62571}},{"facility":"Investigational Site Number : 2760001","status":"RECRUITING","city":"Tübingen","zip":"72076","country":"Germany","geoPoint":{"lat":48.52266,"lon":9.05222}},{"facility":"Investigational Site Number : 2760005","status":"RECRUITING","city":"Wiesbaden","zip":"65205","country":"Germany","geoPoint":{"lat":50.08601,"lon":8.24435}},{"facility":"Investigational Site Number : 2760003","status":"RECRUITING","city":"Würzburg","zip":"97080","country":"Germany","geoPoint":{"lat":49.79391,"lon":9.95121}},{"facility":"Investigational Site Number : 3480002","status":"RECRUITING","city":"Budapest","zip":"1046","country":"Hungary","geoPoint":{"lat":47.49835,"lon":19.04045}},{"facility":"Investigational Site Number : 3480004","status":"RECRUITING","city":"Debrecen","zip":"4032","country":"Hungary","geoPoint":{"lat":47.53167,"lon":21.62444}},{"facility":"Investigational Site Number : 3480003","status":"RECRUITING","city":"Nyíregyháza","zip":"4400","country":"Hungary","geoPoint":{"lat":47.95539,"lon":21.71671}},{"facility":"Investigational Site Number : 3480001","status":"RECRUITING","city":"Pécs","zip":"7621","country":"Hungary","geoPoint":{"lat":46.07617,"lon":18.22814}},{"facility":"Investigational Site Number : 3760007","status":"RECRUITING","city":"Haifa","zip":"3436212","country":"Israel","geoPoint":{"lat":32.81303,"lon":34.99928}},{"facility":"Investigational Site Number : 3760004","status":"RECRUITING","city":"Kefar Sava","zip":"4428164","country":"Israel","geoPoint":{"lat":32.175,"lon":34.90694}},{"facility":"Investigational Site Number : 3760005","status":"RECRUITING","city":"Petah Tikva","zip":"4941492","country":"Israel","geoPoint":{"lat":32.08707,"lon":34.88747}},{"facility":"Investigational Site Number : 3760009","status":"RECRUITING","city":"Tel Aviv","zip":"6423906","country":"Israel","geoPoint":{"lat":32.08088,"lon":34.78057}},{"facility":"Azienda Ospedaliero-Universitaria di Ferrara-Site Number: 3800004","status":"RECRUITING","city":"Cona","state":"Ferrara","zip":"44124","country":"Italy","contacts":[{"name":"Andrea Migliorelli","role":"CONTACT","email":"mglndr1@unife.it"},{"name":"Stefano Pelucchi","role":"PRINCIPAL_INVESTIGATOR"}],"geoPoint":{"lat":44.80583,"lon":11.7069}},{"facility":"Azienda Ospedaliera Universitaria Careggi-Site Number : 3800011","status":"RECRUITING","city":"Florence","state":"Firenze","zip":"50134","country":"Italy","contacts":[{"name":"Alessandra Vultaggio","role":"CONTACT","phone":"0039 3497555110","email":"alessandra.vultaggio@unifi.it"},{"name":"Alessandra Vultaggio","role":"PRINCIPAL_INVESTIGATOR"}],"geoPoint":{"lat":43.77925,"lon":11.24626}},{"facility":"IRCCS Ospedale Policlinico San Martino-Site Number : 3800013","status":"RECRUITING","city":"Genoa","state":"Genova","zip":"16132","country":"Italy","contacts":[{"name":"Luca Guastini","role":"CONTACT","phone":"0039 3355322660","email":"luca.guastini@unige.it"},{"name":"Frank Canevari","role":"CONTACT","phone":"0039 3331491318","email":"frank.canevari@unige.it"},{"name":"Frank Canevari","role":"PRINCIPAL_INVESTIGATOR"}],"geoPoint":{"lat":44.40478,"lon":8.94439}},{"facility":"ASST Santi Paolo e Carlo-Presidio Ospedale San Paolo-Site Number : 3800006","status":"RECRUITING","city":"Milan","state":"Milano","zip":"20142","country":"Italy","contacts":[{"name":"Carlotta Pipolo","role":"CONTACT","email":"carlotta.pipolo@unimi.it"},{"name":"Carlotta Pipolo","role":"PRINCIPAL_INVESTIGATOR"}],"geoPoint":{"lat":45.46427,"lon":9.18951}},{"facility":"Azienda Ospedale - Università Padova-Site Number : 3800008","status":"RECRUITING","city":"Padua","state":"Padova","zip":"35128","country":"Italy","contacts":[{"name":"Barbara Baraldo","role":"CONTACT","phone":"0039 3397569387","email":"Barbara.baraldo75@yahoo.it"},{"name":"Giancarlo Ottaviano","role":"PRINCIPAL_INVESTIGATOR"}],"geoPoint":{"lat":45.40797,"lon":11.88586}},{"facility":"Fondazione Policlinico Universitario Agostino Gemelli IRCCS-Site Number: 3800002","status":"RECRUITING","city":"Rome","state":"Roma","zip":"00168","country":"Italy","contacts":[{"name":"Eugenio De Corso","role":"CONTACT","email":"eugenio.decorso@policlinicogemelli.it"},{"name":"Eugenio De Corso","role":"PRINCIPAL_INVESTIGATOR"}],"geoPoint":{"lat":41.89193,"lon":12.51133}},{"facility":"Ospedale Bellaria-Site Number: 3800009","status":"RECRUITING","city":"Bologna","zip":"40139","country":"Italy","contacts":[{"name":"Mariella Scarano","role":"CONTACT","phone":"0039 347 344 5476","email":"mariella.scarano@ausl.bo.it"},{"name":"Alessia Giorli","role":"CONTACT","phone":"0039 333 909 1936","email":"alessia.giorli@ausl.bo.it"},{"name":"Ernesto Pasquini","role":"PRINCIPAL_INVESTIGATOR"}],"geoPoint":{"lat":44.49381,"lon":11.33875}},{"facility":"Investigational Site Number : 3920010","status":"RECRUITING","city":"Ichikawa","state":"Chiba","zip":"272-0143","country":"Japan","geoPoint":{"lat":35.73413,"lon":139.9065}},{"facility":"Investigational Site Number : 3920004","status":"RECRUITING","city":"Narita","state":"Chiba","zip":"286-8520","country":"Japan","geoPoint":{"lat":35.78333,"lon":140.31667}},{"facility":"Investigational Site Number : 3920009","status":"RECRUITING","city":"Isehara","state":"Kanagawa","zip":"259-1193","country":"Japan","geoPoint":{"lat":35.39932,"lon":139.31019}},{"facility":"Investigational Site Number : 3920002","status":"RECRUITING","city":"Odawara","state":"Kanagawa","zip":"250-8558","country":"Japan","geoPoint":{"lat":35.25556,"lon":139.15972}},{"facility":"Investigational Site Number : 3920014","status":"RECRUITING","city":"Yokohama","state":"Kanagawa","zip":"236-0037","country":"Japan","geoPoint":{"lat":35.43333,"lon":139.65}},{"facility":"Investigational Site Number : 3920005","status":"RECRUITING","city":"Suwa","state":"Nagano","zip":"392-0027","country":"Japan","geoPoint":{"lat":36.03799,"lon":138.11308}},{"facility":"Investigational Site Number : 3920012","status":"RECRUITING","city":"Kusatsu","state":"Shiga","zip":"525-0066","country":"Japan","geoPoint":{"lat":35.01667,"lon":135.96667}},{"facility":"Investigational Site Number : 3920006","status":"RECRUITING","city":"Fukui","zip":"910-1104","country":"Japan","geoPoint":{"lat":34.84214,"lon":135.54836}},{"facility":"Investigational Site Number : 3920001","status":"RECRUITING","city":"Fukuoka","zip":"812-0053","country":"Japan","geoPoint":{"lat":33.6,"lon":130.41667}},{"facility":"Investigational Site Number : 3920011","status":"RECRUITING","city":"Hiroshima","zip":"734-0004","country":"Japan","geoPoint":{"lat":34.4,"lon":132.45}},{"facility":"Investigational Site Number : 3920003","status":"RECRUITING","city":"Kumamoto","zip":"860-0814","country":"Japan","geoPoint":{"lat":32.80589,"lon":130.69181}},{"facility":"Investigational Site Number : 3920013","status":"RECRUITING","city":"Niigata","zip":"951-8520","country":"Japan","geoPoint":{"lat":37.92259,"lon":139.04125}},{"facility":"Investigational Site Number : 3920008","status":"RECRUITING","city":"Tokyo","zip":"153-8515","country":"Japan","geoPoint":{"lat":35.6895,"lon":139.69171}},{"facility":"Investigational Site Number : 4840004","status":"RECRUITING","city":"Chihuahua City","zip":"31000","country":"Mexico","geoPoint":{"lat":28.63528,"lon":-106.08889}},{"facility":"Investigational Site Number : 5280004","status":"RECRUITING","city":"Alkmaar","zip":"1815 JD","country":"Netherlands","geoPoint":{"lat":52.63167,"lon":4.74861}},{"facility":"Investigational Site Number : 5280002","status":"RECRUITING","city":"Leiderdorp","zip":"2353 GA","country":"Netherlands","geoPoint":{"lat":52.15833,"lon":4.52917}},{"facility":"Investigational Site Number : 6160006","status":"RECRUITING","city":"Krakow","state":"Lesser Poland Voivodeship","zip":"31-513","country":"Poland","geoPoint":{"lat":50.06143,"lon":19.93658}},{"facility":"Investigational Site Number : 6160001","status":"RECRUITING","city":"Wroclaw","state":"Lower Silesian Voivodeship","zip":"53-149","country":"Poland","geoPoint":{"lat":51.10286,"lon":17.03006}},{"facility":"Investigational Site Number : 6160004","status":"RECRUITING","city":"Wroclaw","state":"Lower Silesian Voivodeship","zip":"53-301","country":"Poland","geoPoint":{"lat":51.10286,"lon":17.03006}},{"facility":"Investigational Site Number : 6160005","status":"RECRUITING","city":"Lublin","state":"Lublin Voivodeship","zip":"20-363","country":"Poland","geoPoint":{"lat":51.25058,"lon":22.57009}},{"facility":"Investigational Site Number : 6160002","status":"RECRUITING","city":"Warsaw","state":"Masovian Voivodeship","zip":"00-909","country":"Poland","geoPoint":{"lat":52.22977,"lon":21.01178}},{"facility":"Investigational Site Number : 6160003","status":"RECRUITING","city":"Bialystok","state":"Podlaskie Voivodeship","zip":"15-756","country":"Poland","geoPoint":{"lat":53.13333,"lon":23.16433}},{"facility":"Investigational Site Number : 6200003","status":"RECRUITING","city":"Guimarães","zip":"4800-055","country":"Portugal","geoPoint":{"lat":41.44443,"lon":-8.29619}},{"facility":"Investigational Site Number : 6200004","status":"RECRUITING","city":"Matosinhos Municipality","zip":"4464-513","country":"Portugal","geoPoint":{"lat":41.18207,"lon":-8.68908}},{"facility":"Investigational Site Number : 6200002","status":"RECRUITING","city":"Porto","zip":"3814-501","country":"Portugal","geoPoint":{"lat":41.1485,"lon":-8.61097}},{"facility":"Investigational Site Number : 6200001","status":"RECRUITING","city":"Santa Maria da Feira","zip":"4520-211","country":"Portugal","geoPoint":{"lat":40.92726,"lon":-8.54839}},{"facility":"Investigational Site Number : 4100005","status":"RECRUITING","city":"Cheonan-Si","state":"Chungcheongnam-do","zip":"31116","country":"South Korea"},{"facility":"Investigational Site Number : 4100008","status":"RECRUITING","city":"Incheon","state":"Incheon-gwangyeoksi","zip":"21565","country":"South Korea","geoPoint":{"lat":37.45646,"lon":126.70515}},{"facility":"Investigational Site Number : 4100003","status":"RECRUITING","city":"Seoul","state":"Seoul-teukbyeolsi","zip":"03080","country":"South Korea","geoPoint":{"lat":37.566,"lon":126.9784}},{"facility":"Investigational Site Number : 4100004","status":"RECRUITING","city":"Seoul","state":"Seoul-teukbyeolsi","zip":"03722","country":"South Korea","geoPoint":{"lat":37.566,"lon":126.9784}},{"facility":"Investigational Site Number : 4100002","status":"RECRUITING","city":"Seoul","state":"Seoul-teukbyeolsi","zip":"06351","country":"South Korea","geoPoint":{"lat":37.566,"lon":126.9784}},{"facility":"Investigational Site Number : 4100001","status":"RECRUITING","city":"Seoul","state":"Seoul-teukbyeolsi","zip":"07061","country":"South Korea","geoPoint":{"lat":37.566,"lon":126.9784}},{"facility":"Investigational Site Number : 4100006","status":"RECRUITING","city":"Seoul","zip":"02841","country":"South Korea","geoPoint":{"lat":37.566,"lon":126.9784}},{"facility":"Investigational Site Number : 7240007","status":"RECRUITING","city":"Santiago de Compostela","state":"A Coruña [La Coruña]","zip":"15702","country":"Spain","geoPoint":{"lat":42.88052,"lon":-8.54569}},{"facility":"Investigational Site Number : 7240003","status":"RECRUITING","city":"Santiago de Compostela","state":"A Coruña [La Coruña]","zip":"15706","country":"Spain","geoPoint":{"lat":42.88052,"lon":-8.54569}},{"facility":"Investigational Site Number : 7240008","status":"RECRUITING","city":"Barcelona","state":"Barcelona [Barcelona]","zip":"08022","country":"Spain","geoPoint":{"lat":41.38879,"lon":2.15899}},{"facility":"Investigational Site Number : 7240002","status":"RECRUITING","city":"Barcelona","state":"Catalunya [Cataluña]","zip":"08036","country":"Spain","geoPoint":{"lat":41.38879,"lon":2.15899}},{"facility":"Investigational Site Number : 7240004","status":"RECRUITING","city":"Jerez de la Frontera","state":"Cádiz","zip":"11407","country":"Spain","geoPoint":{"lat":36.68645,"lon":-6.13606}},{"facility":"Investigational Site Number : 7240001","status":"RECRUITING","city":"Majadahonda","state":"Madrid","zip":"28222","country":"Spain","geoPoint":{"lat":40.47353,"lon":-3.87182}},{"facility":"Investigational Site Number : 7240006","status":"RECRUITING","city":"Seville","state":"Sevilla","zip":"41009","country":"Spain","geoPoint":{"lat":37.38283,"lon":-5.97317}},{"facility":"Investigational Site Number : 7240009","status":"RECRUITING","city":"Sabadell","zip":"08208","country":"Spain","geoPoint":{"lat":41.54329,"lon":2.10942}},{"facility":"Investigational Site Number : 7240005","status":"RECRUITING","city":"Zaragoza","zip":"50009","country":"Spain","geoPoint":{"lat":41.65606,"lon":-0.87734}},{"facility":"Investigational Site Number : 7520002","status":"RECRUITING","city":"Lund","zip":"221 85","country":"Sweden","geoPoint":{"lat":55.70584,"lon":13.19321}},{"facility":"Investigational Site Number : 7520001","status":"RECRUITING","city":"Solna","zip":"171 64","country":"Sweden","geoPoint":{"lat":59.36004,"lon":18.00086}},{"facility":"Investigational Site Number : 7520004","status":"RECRUITING","city":"Stockholm","zip":"114 86","country":"Sweden","geoPoint":{"lat":59.32938,"lon":18.06871}},{"facility":"Investigational Site Number : 7920003","status":"RECRUITING","city":"Ankara","zip":"06230","country":"Turkey (Türkiye)","geoPoint":{"lat":39.91987,"lon":32.85427}},{"facility":"Investigational Site Number : 7920001","status":"RECRUITING","city":"Istanbul","zip":"34093","country":"Turkey (Türkiye)","geoPoint":{"lat":41.01384,"lon":28.94966}},{"facility":"Investigational Site Number : 7920002","status":"RECRUITING","city":"Istanbul","zip":"34865","country":"Turkey (Türkiye)","geoPoint":{"lat":41.01384,"lon":28.94966}},{"facility":"Investigational Site Number : 8260002","status":"RECRUITING","city":"London","state":"London, City of","zip":"NW1 2BU","country":"United Kingdom","geoPoint":{"lat":51.50853,"lon":-0.12574}},{"facility":"Investigational Site Number : 8260006","status":"RECRUITING","city":"Oxford","state":"Oxfordshire","zip":"OX3 9DU","country":"United Kingdom","geoPoint":{"lat":51.75222,"lon":-1.25596}},{"facility":"Investigational Site Number : 8260004","status":"RECRUITING","city":"Bradford","zip":"BD9 6RJ","country":"United Kingdom","geoPoint":{"lat":53.79391,"lon":-1.75206}},{"facility":"Investigational Site Number : 8260001","status":"RECRUITING","city":"Newcastle upon Tyne","zip":"NE7 7DN","country":"United Kingdom","geoPoint":{"lat":54.97328,"lon":-1.61396}}]},"referencesModule":{"seeAlsoLinks":[{"label":"EFC18418 Plain Language Results Summary","url":"https://sanofi.trialsummaries.com/Study/StudyDetails?id=26440&tenant=MT_SNY_9011"}]},"ipdSharingStatementModule":{"ipdSharing":"YES","description":"Qualified researchers may request access to patient level data and related study documents including the clinical study report, study protocol with any amendments, blank case report form, statistical analysis plan, and dataset specifications. Patient level data will be anonymized and study documents will be redacted to protect the privacy of trial participants. Further details on Sanofi's data sharing criteria, eligible studies, and process for requesting access can be found at: https://vivli.org"}},"derivedSection":{"miscInfoModule":{"versionHolder":"2026-02-25"},"interventionBrowseModule":{"meshes":[{"id":"C000720033","term":"itepekimab"}]}},"hasResults":false}