{"protocolSection":{"identificationModule":{"nctId":"NCT06274801","orgStudyIdInfo":{"id":"GB002-3102"},"secondaryIdInfos":[{"id":"2023-506334-75","type":"EUDRACT_NUMBER"}],"organization":{"fullName":"Gossamer Bio Inc.","class":"INDUSTRY"},"briefTitle":"Open-label Extension Study of Seralutinib in Adult Subjects With PAH (PROSERA-EXT)","officialTitle":"An Open-label Extension Study Evaluating the Long-term Safety and Efficacy of Seralutinib Orally Inhaled for the Treatment of Pulmonary Arterial Hypertension (PAH)"},"statusModule":{"statusVerifiedDate":"2026-02","overallStatus":"ACTIVE_NOT_RECRUITING","expandedAccessInfo":{"hasExpandedAccess":false},"startDateStruct":{"date":"2024-09-03","type":"ACTUAL"},"primaryCompletionDateStruct":{"date":"2026-12","type":"ESTIMATED"},"completionDateStruct":{"date":"2026-12","type":"ESTIMATED"},"studyFirstSubmitDate":"2024-01-19","studyFirstSubmitQcDate":"2024-02-15","studyFirstPostDateStruct":{"date":"2024-02-23","type":"ACTUAL"},"lastUpdateSubmitDate":"2026-02-05","lastUpdatePostDateStruct":{"date":"2026-02-09","type":"ACTUAL"}},"sponsorCollaboratorsModule":{"responsibleParty":{"type":"SPONSOR"},"leadSponsor":{"name":"GB002, Inc.","class":"INDUSTRY"}},"oversightModule":{"oversightHasDmc":true,"isFdaRegulatedDrug":true,"isFdaRegulatedDevice":true},"descriptionModule":{"briefSummary":"This open-label extension study will evaluate the long-term safety, tolerability and efficacy of orally inhaled seralutinib in subjects who have completed a previous seralutinib study","detailedDescription":"The treatment period is planned to run until the market approval of seralutinib or until the study is terminated."},"conditionsModule":{"conditions":["Pulmonary Arterial Hypertension"],"keywords":["seralutinib","GB002","PROSERA","PROSERA-EXT"]},"designModule":{"studyType":"INTERVENTIONAL","phases":["PHASE3"],"designInfo":{"allocation":"NA","interventionModel":"SINGLE_GROUP","primaryPurpose":"TREATMENT","maskingInfo":{"masking":"NONE"}},"enrollmentInfo":{"count":316,"type":"ACTUAL"}},"armsInterventionsModule":{"armGroups":[{"label":"Seralutinib 90 mg","type":"EXPERIMENTAL","description":"Seralutinib inhaled orally twice per day (BID)","interventionNames":["Drug: Seralutinib","Device: Gereic Dry Powder Inhaler"]}],"interventions":[{"type":"DRUG","name":"Seralutinib","description":"Capsule containing seralutinib","armGroupLabels":["Seralutinib 90 mg"]},{"type":"DEVICE","name":"Gereic Dry Powder Inhaler","description":"Generic dry powder inhaler for seralutinib delivery","armGroupLabels":["Seralutinib 90 mg"]}]},"outcomesModule":{"primaryOutcomes":[{"measure":"Incidence of treatment-emergent adverse events (TEAEs)","timeFrame":"From baseline to end of study (up to 48 months or availability of commercial product)"}],"secondaryOutcomes":[{"measure":"Changes in distance achieved on the Six-Minute Walk Test (6MWT)","description":"Δ6MWT from Baseline to End of Study","timeFrame":"Baseline to Week 12, 24, 36, 48, and 60, and then every 16 weeks thereafter + 4 weeks post dose up to end of study (up to 48 months or availability of commercial product)"},{"measure":"Changes in NT-proBNP","description":"Change in NT-proBNP from Baseline to End of Study","timeFrame":"Baseline to Week 12, 24, 36, 48, and 60, and then every 16 weeks thereafter + 4 weeks post dose up to end of study (up to 48 months or availability of commercial product)"}]},"eligibilityModule":{"eligibilityCriteria":"Inclusion Criteria:\n\n1. Subjects must have completed a qualifying last visit in a prior seralutinib PAH study on investigational product (IP) and in accordance with the protocol.\n2. Evidence of an informed consent document, signed and dated by the subject, indicating that the subject has been informed of all pertinent aspects of the study prior to initiation of any subject-mandated procedures.\n3. Willingness and ability to comply with scheduled visits, treatment plan, laboratory tests, and other study procedures\n4. Women of childbearing potential (WOCBP) must have a negative urine or serum pregnancy test at enrollment visit before first administration of Investigational Product (IP) in this study.\n5. WOCBP who are not abstinent and intend to be sexually active with a non-sterilized male partner must be willing to use a highly effective method of contraception from consent through 30 days following the last administration of IP.\n6. Male subjects: Non-sterilized male subjects who are not abstinent and intend to be sexually active with a female partner of childbearing potential must use a male condom from consent through 90 days after the last dose of IP.\n\nExclusion Criteria:\n\n1. Severe acute or chronic medical or laboratory abnormality that may increase the risk associated with study participation or seralutinib administration, unless associated with an ongoing AE and discussed with the Sponsor's medical monitor (MM) (or designee).\n2. Have any other condition or reason that, in the opinion of the Investigator, would prohibit the subject from participating in the study.","healthyVolunteers":false,"sex":"ALL","minimumAge":"18 Years","maximumAge":"75 Years","stdAges":["ADULT","OLDER_ADULT"]},"contactsLocationsModule":{"overallOfficials":[{"name":"Richard Aranda, MD","affiliation":"Gossamer Bio Inc.","role":"STUDY_DIRECTOR"}],"locations":[{"facility":"Valley Advanced Lung Diseases Institute","city":"Fresno","state":"California","zip":"93720","country":"United States","geoPoint":{"lat":36.74773,"lon":-119.77237}},{"facility":"Department of Veterans Affairs Greater Los Angeles Healthcare System","city":"Los Angeles","state":"California","zip":"90073","country":"United States","geoPoint":{"lat":34.05223,"lon":-118.24368}},{"facility":"UC Davis Health Medical Center","city":"Sacramento","state":"California","zip":"95817","country":"United States","geoPoint":{"lat":38.58157,"lon":-121.4944}},{"facility":"Stanford Healthcare","city":"Stanford","state":"California","zip":"94305","country":"United States","geoPoint":{"lat":37.42411,"lon":-122.16608}},{"facility":"University of Florida Health","city":"Gainesville","state":"Florida","zip":"32610","country":"United States","geoPoint":{"lat":29.65163,"lon":-82.32483}},{"facility":"Mayo Clinic Jacksonville","city":"Jacksonville","state":"Florida","zip":"32224","country":"United States","geoPoint":{"lat":30.33218,"lon":-81.65565}},{"facility":"Piedmont Physicians Pulmonary & Sleep Medicine of Buckhead","city":"Atlanta","state":"Georgia","zip":"30309","country":"United States","geoPoint":{"lat":33.749,"lon":-84.38798}},{"facility":"The Emory Clinic","city":"Atlanta","state":"Georgia","zip":"30322","country":"United States","geoPoint":{"lat":33.749,"lon":-84.38798}},{"facility":"Northside Hospital - Atlanta","city":"Atlanta","state":"Georgia","zip":"30342","country":"United States","geoPoint":{"lat":33.749,"lon":-84.38798}},{"facility":"UI Health Hospital","city":"Chicago","state":"Illinois","zip":"60612","country":"United States","geoPoint":{"lat":41.85003,"lon":-87.65005}},{"facility":"University of Kansas Medical Center","city":"Kansas City","state":"Kansas","zip":"66160","country":"United States","geoPoint":{"lat":39.11417,"lon":-94.62746}},{"facility":"Norton Pulmonary Specialists","city":"Louisville","state":"Kentucky","zip":"40202","country":"United States","geoPoint":{"lat":38.25424,"lon":-85.75941}},{"facility":"University of Michigan","city":"Ann Arbor","state":"Michigan","zip":"48109","country":"United States","geoPoint":{"lat":42.27756,"lon":-83.74088}},{"facility":"Washington University School of Medicine","city":"St Louis","state":"Missouri","zip":"63110","country":"United States","geoPoint":{"lat":38.62727,"lon":-90.19789}},{"facility":"University of Nebraska Medical Center","city":"Omaha","state":"Nebraska","zip":"68198","country":"United States","geoPoint":{"lat":41.25626,"lon":-95.94043}},{"facility":"University of New Mexico Health Sciences Center","city":"Albuquerque","state":"New Mexico","zip":"87131","country":"United States","geoPoint":{"lat":35.08449,"lon":-106.65114}},{"facility":"NYU Langone Health","city":"New York","state":"New York","zip":"10016","country":"United States","geoPoint":{"lat":40.71427,"lon":-74.00597}},{"facility":"University of Rochester Medical Center","city":"Rochester","state":"New York","zip":"14642","country":"United States","geoPoint":{"lat":43.15478,"lon":-77.61556}},{"facility":"UNC Hospitals","city":"Chapel Hill","state":"North Carolina","zip":"27514","country":"United States","geoPoint":{"lat":35.9132,"lon":-79.05584}},{"facility":"University of Cincinnati Medical Center","city":"Cincinnati","state":"Ohio","zip":"45219","country":"United States","geoPoint":{"lat":39.12711,"lon":-84.51439}},{"facility":"INTEGRIS Cardiovascular Physicians","city":"Oklahoma City","state":"Oklahoma","zip":"73112","country":"United States","geoPoint":{"lat":35.46756,"lon":-97.51643}},{"facility":"The Hospital of the University of Pennsylvania","city":"Philadelphia","state":"Pennsylvania","zip":"19104","country":"United States","geoPoint":{"lat":39.95238,"lon":-75.16362}},{"facility":"Temple Heart and Vascular Institute (Outpatient Clinic)","city":"Philadelphia","state":"Pennsylvania","zip":"19140","country":"United States","geoPoint":{"lat":39.95238,"lon":-75.16362}},{"facility":"UPMC Presbyterian Hospital","city":"Pittsburgh","state":"Pennsylvania","zip":"15213","country":"United States","geoPoint":{"lat":40.44062,"lon":-79.99589}},{"facility":"Medical University of South Carolina - Nexus Research Center","city":"Charleston","state":"South Carolina","zip":"29425","country":"United States","geoPoint":{"lat":32.77632,"lon":-79.93275}},{"facility":"UT Southwestern Medical Center","city":"Dallas","state":"Texas","zip":"75390","country":"United States","geoPoint":{"lat":32.78306,"lon":-96.80667}},{"facility":"CHI St. Luke's Health Baylor College of Medicine Medical Center","city":"Houston","state":"Texas","zip":"77030","country":"United States","geoPoint":{"lat":29.76328,"lon":-95.36327}},{"facility":"Houston Methodist Outpatient Center","city":"Houston","state":"Texas","zip":"77030","country":"United States","geoPoint":{"lat":29.76328,"lon":-95.36327}},{"facility":"University of Texas Health Science Center at San Antonio","city":"San Antonio","state":"Texas","zip":"78229","country":"United States","geoPoint":{"lat":29.42412,"lon":-98.49363}},{"facility":"Intermountain Medical Center","city":"Murray","state":"Utah","zip":"84107","country":"United States","geoPoint":{"lat":40.66689,"lon":-111.88799}},{"facility":"University of Utah Hospital","city":"Salt Lake City","state":"Utah","zip":"84132","country":"United States","geoPoint":{"lat":40.76078,"lon":-111.89105}},{"facility":"Inova Fairfax Medical Campus","city":"Falls Church","state":"Virginia","zip":"22042","country":"United States","geoPoint":{"lat":38.88233,"lon":-77.17109}},{"facility":"Pulmonary Associates of Richmond, Inc.","city":"Richmond","state":"Virginia","zip":"23230","country":"United States","geoPoint":{"lat":37.55376,"lon":-77.46026}},{"facility":"Cardiologia Palermo","city":"Buenos Aires","country":"Argentina","geoPoint":{"lat":-34.61315,"lon":-58.37723}},{"facility":"Instituto de Cardiologia de Corrientes Juana Francisca Cabral","city":"Corrientes","country":"Argentina","geoPoint":{"lat":-27.46784,"lon":-58.8344}},{"facility":"Instuto de Investigacion Clinicas Quilmes","city":"Quilmes","country":"Argentina","geoPoint":{"lat":-34.72065,"lon":-58.25454}},{"facility":"Instituto Medico Rio Cuarto","city":"Río Cuarto","country":"Argentina","geoPoint":{"lat":-33.13044,"lon":-64.35272}},{"facility":"Hospital Provincial Dr. Jose Maria Cullen","city":"Santa Fe","country":"Argentina","geoPoint":{"lat":-31.64881,"lon":-60.70868}},{"facility":"Wesley Research Institute","city":"Auchenflower","country":"Australia","geoPoint":{"lat":-27.47443,"lon":152.99213}},{"facility":"St Vincent's Hospital (Melbourne)","city":"Fitzroy","country":"Australia","geoPoint":{"lat":-37.79839,"lon":144.97833}},{"facility":"Royal Hobart Hospital","city":"Hobart","country":"Australia","geoPoint":{"lat":-42.87936,"lon":147.32941}},{"facility":"University Hospitals of Leuven (Campus Gasthuisberg)","city":"Leuven","country":"Belgium","geoPoint":{"lat":50.87959,"lon":4.70093}},{"facility":"Instituto das Pequenas Missionarias de Maria Imaculada - Hospital Madre Teresa","city":"Belo Horizonte","country":"Brazil","geoPoint":{"lat":-19.92083,"lon":-43.93778}},{"facility":"Complexo de Prevencao, Diagnostico, Terapia e Reabilitacao Respiratoria - Hospital Dia di Pulmao","city":"Blumenau","country":"Brazil","geoPoint":{"lat":-26.91944,"lon":-49.06611}},{"facility":"Irmandade da Santa Casa de Misericórdia de Porto Alegre","city":"Porto Alegre","country":"Brazil","geoPoint":{"lat":-30.03283,"lon":-51.23019}},{"facility":"Uniao Brasileira de Educacao e Assistencia Hospital Sao Lucas da PUCRS","city":"Porto Alegre","country":"Brazil","geoPoint":{"lat":-30.03283,"lon":-51.23019}},{"facility":"Instituto do Coracao do Hospital das Clinicas da Faculdade de medicina da Universidade de Sao Paulo","city":"São Paulo","country":"Brazil","geoPoint":{"lat":-23.5475,"lon":-46.63611}},{"facility":"Nucleo de Gestao de Pesquisa/Hospital Sao Paulo - SPDM/UNIFESP","city":"São Paulo","country":"Brazil","geoPoint":{"lat":-23.5475,"lon":-46.63611}},{"facility":"Peter Lougheed Center","city":"Calgary","country":"Canada","geoPoint":{"lat":51.05011,"lon":-114.08529}},{"facility":"London Health Sciences Centre - Victoria Hospital","city":"London","country":"Canada","geoPoint":{"lat":42.98339,"lon":-81.23304}},{"facility":"University of Ottawa Heart Institute","city":"Ottawa","country":"Canada","geoPoint":{"lat":45.41117,"lon":-75.69812}},{"facility":"University Health Network, Toronto General Hospital","city":"Toronto","country":"Canada","geoPoint":{"lat":43.70643,"lon":-79.39864}},{"facility":"Centro de Investigacion Clinica UC-CICUC","city":"Santiago","country":"Chile","geoPoint":{"lat":-33.45694,"lon":-70.64827}},{"facility":"Enroll SpA","city":"Santiago","country":"Chile","geoPoint":{"lat":-33.45694,"lon":-70.64827}},{"facility":"Fundacion Abood Shaio","city":"Bogotá","country":"Colombia","geoPoint":{"lat":4.60971,"lon":-74.08175}},{"facility":"Fundacion Neumologica Colombiana","city":"Bogotá","country":"Colombia","geoPoint":{"lat":4.60971,"lon":-74.08175}},{"facility":"Institut klinicke a experimentalni mediciny Klinika kardiologie Ambulance plicni hypertenze","city":"Prague","country":"Czechia","geoPoint":{"lat":50.08804,"lon":14.42076}},{"facility":"Všeobecná fakultní nemocnice v Praze ll. interní klinika kardiologie a angiologie VFN a 1.LF UK Centrum pro plicní hvpertenzi","city":"Prague","country":"Czechia","geoPoint":{"lat":50.08804,"lon":14.42076}},{"facility":"Aarhus Universiteshospital","city":"Aarhus","country":"Denmark","geoPoint":{"lat":56.15674,"lon":10.21076}},{"facility":"CHU Bicetre, Service de Pneumologie et Reanimation Respiratorie","city":"Le Kremlin-Bicêtre","country":"France","geoPoint":{"lat":48.81471,"lon":2.36073}},{"facility":"Centre Hospitalier REgional Universitaire de Lille Hopital Cardiologique - Institut Coeur Poumon Service de Cardiologie","city":"Lille","country":"France","geoPoint":{"lat":50.63391,"lon":3.05512}},{"facility":"CHU de Nice - Hopital Pasteur","city":"Nice","country":"France","geoPoint":{"lat":43.70313,"lon":7.26608}},{"facility":"CHU de Poitiers","city":"Poitiers","country":"France","geoPoint":{"lat":46.58261,"lon":0.34348}},{"facility":"Zentrum fur Pulmonale Hypertonie, Klinik Ill fur lnnere Medizin (Kardiologie, Pneumologie, lnternistische lntensivmedizin), Herzzentrum der Universitat zu Koln","city":"Cologne","country":"Germany","geoPoint":{"lat":50.93333,"lon":6.95}},{"facility":"Universitatsklinikum Giessen und Marburg GmbH Zentrum fur lnnere Medizin, Med. Klinik und Poliklinik II Studienambulanz fur Pulmonale Hypertonie","city":"Giessen","country":"Germany","geoPoint":{"lat":50.58727,"lon":8.67554}},{"facility":"Thoraxklinik Heidelberg gGmbH am Universitätsklinikum Heidelberg Zentrum für pulmonale Hypertonie","city":"Heidelberg","country":"Germany","geoPoint":{"lat":49.40768,"lon":8.69079}},{"facility":"Klinikum der LMU Medizinische Klinik und Poliklinik V","city":"Munich","country":"Germany","geoPoint":{"lat":48.13743,"lon":11.57549}},{"facility":"Krankenhaus Neuwittelsbach","city":"München","country":"Germany","geoPoint":{"lat":51.60698,"lon":13.31243}},{"facility":"Klinikum Würzburg Mitte gGmbH Medizinische Klinik mit Schwerpunkt Pneumologie und Beatmungsmedizin","city":"Würzburg","country":"Germany","geoPoint":{"lat":49.79391,"lon":9.95121}},{"facility":"\"Evangelismos\" General Hospital of Athens, 1st Department of Clinical Care and Pulmonary Hypertension Clinic","city":"Athens","country":"Greece","geoPoint":{"lat":37.98376,"lon":23.72784}},{"facility":"ATTIKON University Hospital, 2nd Critical Care Department","city":"Athens","country":"Greece","geoPoint":{"lat":37.98376,"lon":23.72784}},{"facility":"Onassis Cardiac Surgery Center, Non-Invasive Cardiology Department","city":"Kallithea","country":"Greece","geoPoint":{"lat":37.95,"lon":23.7}},{"facility":"AHEPA University General Hospital of Thessaloniki, 1st Cardiology Clinic","city":"Thessaloniki","country":"Greece","geoPoint":{"lat":40.64072,"lon":22.93493}},{"facility":"Mater Misericordiae University Hospital","city":"Dublin","country":"Ireland","geoPoint":{"lat":53.33306,"lon":-6.24889}},{"facility":"Lady Davis Carmel Medical Center","city":"Haifa","country":"Israel","geoPoint":{"lat":32.81303,"lon":34.99928}},{"facility":"IRCCS Azienda Ospedaliero Universitaria Di Bologna - Policlinico S. Orsola-Malpighi - UOC Cardiologia","city":"Bologna","country":"Italy","geoPoint":{"lat":44.49381,"lon":11.33875}},{"facility":"Azienda Ospedaliera Dei Colli - Ospedale Monaldi","city":"Napoli","country":"Italy","geoPoint":{"lat":40.87618,"lon":14.5195}},{"facility":"Fondazione IRCCS Policlinico San Matteo","city":"Pavia","country":"Italy","geoPoint":{"lat":45.19205,"lon":9.15917}},{"facility":"A.O.U. Policlinico Umberto I","city":"Roma","country":"Italy","geoPoint":{"lat":44.99364,"lon":11.10642}},{"facility":"University of Tokyo Hospital","city":"Bunkyō City","country":"Japan","geoPoint":{"lat":35.5331,"lon":139.4217}},{"facility":"Kyushu University Hospital","city":"Fukuoka","country":"Japan","geoPoint":{"lat":33.6,"lon":130.41667}},{"facility":"Kyorin University Hospital","city":"Mitaka","country":"Japan","geoPoint":{"lat":35.68361,"lon":139.56002}},{"facility":"Nagoya University Hospital","city":"Nagoya","country":"Japan","geoPoint":{"lat":35.18147,"lon":136.90641}},{"facility":"NHO Okayama Medical Center","city":"Okayama","country":"Japan","geoPoint":{"lat":34.65,"lon":133.93333}},{"facility":"Keio University Hospital","city":"Shinjuku-Ku","country":"Japan"},{"facility":"National Cerebral and Cardiovascular Center","city":"Suita","country":"Japan","geoPoint":{"lat":34.76143,"lon":135.51567}},{"facility":"Pauls Stradins Clinical University Hospital","city":"Riga","country":"Latvia","geoPoint":{"lat":56.946,"lon":24.10589}},{"facility":"Hospital of Lithuanian University of Health Sciences Kauno klinikos","city":"Kaunas","country":"Lithuania","geoPoint":{"lat":54.90156,"lon":23.90909}},{"facility":"Instituto Nacional de Cardiologia Ignacio Chavez","city":"Mexico City","country":"Mexico","geoPoint":{"lat":19.42847,"lon":-99.12766}},{"facility":"Unidad de Investigacion Clinica en Medicina, S.C.","city":"Monterrey","country":"Mexico","geoPoint":{"lat":25.68435,"lon":-100.31721}},{"facility":"Amsterdam UMC, location VU mc","city":"Amsterdam","country":"Netherlands","geoPoint":{"lat":52.37403,"lon":4.88969}},{"facility":"Krakowski Szpital Specjalistyczny Im. Sw. Jana Pawla II, Oddzial Kliniczny Chorob Serca i Naczyn z Pododdzialem Intensywnego Nadzoru Kardiologicznego","city":"Krakow","country":"Poland","geoPoint":{"lat":50.06143,"lon":19.93658}},{"facility":"Europejskie Centrum Zdrowia Otwock Sp.zo.o. Szpital im. Fryderyka Chopina Oddzial Kardiologiczny","city":"Otwock","country":"Poland","geoPoint":{"lat":52.10577,"lon":21.26129}},{"facility":"Unidade Local de Saude de Santa Maria, E.P.E. Hospital Pulido Valente","city":"Lisbon","country":"Portugal","geoPoint":{"lat":38.72509,"lon":-9.1498}},{"facility":"Unidade Local de Saude de Santo Antonio, E.P.E. Hospital de Santo Antonio","city":"Porto","country":"Portugal","geoPoint":{"lat":41.1485,"lon":-8.61097}},{"facility":"Institutul De Urgenta Pentru Boli Cardiovasculare Prof. Dr. C. C. Iliescu Cardiology 2","city":"Bucharest","country":"Romania","geoPoint":{"lat":44.43225,"lon":26.10626}},{"facility":"\"Niculae Stancioiu\" Emergency Heart Institute for Cardiovascular Diseases, Cardiology 1 Department","city":"Cluj-Napoca","country":"Romania","geoPoint":{"lat":46.76667,"lon":23.6}},{"facility":"King Fahad Medical City","city":"Riyadh","country":"Saudi Arabia","geoPoint":{"lat":24.68773,"lon":46.72185}},{"facility":"King Faisal Specialist Hospital and Research Center","city":"Riyadh","country":"Saudi Arabia","geoPoint":{"lat":24.68773,"lon":46.72185}},{"facility":"University Clinical Centre of Serbia, Cardiology Clinic","city":"Belgrade","country":"Serbia","geoPoint":{"lat":44.80401,"lon":20.46513}},{"facility":"National Heart Centre Singapore","city":"Singapore","country":"Singapore","geoPoint":{"lat":1.28967,"lon":103.85007}},{"facility":"Asan Medical Center","city":"Seoul","country":"South Korea","geoPoint":{"lat":37.566,"lon":126.9784}},{"facility":"Samsung Medical Center","city":"Seoul","country":"South Korea","geoPoint":{"lat":37.566,"lon":126.9784}},{"facility":"Seoul National University Hospital","city":"Seoul","country":"South Korea","geoPoint":{"lat":37.566,"lon":126.9784}},{"facility":"Hospital Clinic I Provincial","city":"Barcelona","country":"Spain","geoPoint":{"lat":41.38879,"lon":2.15899}},{"facility":"Hospital Universitario 12 De Octubre","city":"Madrid","country":"Spain","geoPoint":{"lat":40.4165,"lon":-3.70256}},{"facility":"Hospital Universitario Marques de Valdecilla","city":"Santander","country":"Spain","geoPoint":{"lat":43.46589,"lon":-3.80493}},{"facility":"Hospital Universitario Virgen del Rocio","city":"Seville","country":"Spain","geoPoint":{"lat":37.38283,"lon":-5.97317}},{"facility":"Hospital Universitario de Toledo","city":"Toledo","country":"Spain","geoPoint":{"lat":39.8581,"lon":-4.02263}},{"facility":"Royal Papworth Hospital NHS Foundation Trust","city":"Cambridge","country":"United Kingdom","geoPoint":{"lat":52.2,"lon":0.11667}},{"facility":"Golden Jubilee National Hospital","city":"Clydebank","country":"United Kingdom","geoPoint":{"lat":55.90137,"lon":-4.4057}},{"facility":"Hammersmith Hospital","city":"London","country":"United Kingdom","geoPoint":{"lat":51.50853,"lon":-0.12574}},{"facility":"Royal Free Hospital, Clinical Research Facility","city":"London","country":"United Kingdom","geoPoint":{"lat":51.50853,"lon":-0.12574}},{"facility":"Freeman Hospital","city":"Newcastle","country":"United Kingdom","geoPoint":{"lat":54.21804,"lon":-5.88979}},{"facility":"Royal Hallamshire Hospital","city":"Sheffield","country":"United Kingdom","geoPoint":{"lat":53.38297,"lon":-1.4659}}]},"ipdSharingStatementModule":{"ipdSharing":"NO"}},"derivedSection":{"miscInfoModule":{"versionHolder":"2026-02-25"},"conditionBrowseModule":{"meshes":[{"id":"D000081029","term":"Pulmonary Arterial Hypertension"}],"ancestors":[{"id":"D006976","term":"Hypertension, Pulmonary"},{"id":"D008171","term":"Lung Diseases"},{"id":"D012140","term":"Respiratory Tract Diseases"}]}},"hasResults":false}