{"protocolSection":{"identificationModule":{"nctId":"NCT06309966","orgStudyIdInfo":{"id":"BHV7000-303"},"secondaryIdInfos":[{"id":"2023-508811-21","type":"REGISTRY","domain":"EU CTR"}],"organization":{"fullName":"Biohaven Pharmaceuticals, Inc.","class":"INDUSTRY"},"briefTitle":"Study to Determine if BHV-7000 is Effective and Safe in Adults With Refractory Focal Onset Epilepsy","officialTitle":"A Phase 2/3 Multicenter, Randomization, Double-Blind, Placebo-Controlled, Study to Evaluate the Efficacy, Safety and Tolerability of BHV-7000 in Subjects With Refractory Focal Onset Epilepsy","acronym":"RISE 3"},"statusModule":{"statusVerifiedDate":"2026-02","overallStatus":"RECRUITING","expandedAccessInfo":{"hasExpandedAccess":false},"startDateStruct":{"date":"2024-05-13","type":"ACTUAL"},"primaryCompletionDateStruct":{"date":"2026-05","type":"ESTIMATED"},"completionDateStruct":{"date":"2026-05","type":"ESTIMATED"},"studyFirstSubmitDate":"2024-03-08","studyFirstSubmitQcDate":"2024-03-08","studyFirstPostDateStruct":{"date":"2024-03-13","type":"ACTUAL"},"lastUpdateSubmitDate":"2026-02-23","lastUpdatePostDateStruct":{"date":"2026-02-25","type":"ACTUAL"}},"sponsorCollaboratorsModule":{"responsibleParty":{"type":"SPONSOR"},"leadSponsor":{"name":"Biohaven Therapeutics Ltd.","class":"INDUSTRY"}},"oversightModule":{"oversightHasDmc":true,"isFdaRegulatedDrug":true,"isFdaRegulatedDevice":false},"descriptionModule":{"briefSummary":"The purpose of this study is to determine whether BHV-7000 is effective in the treatment of refractory focal epilepsy."},"conditionsModule":{"conditions":["Focal Epilepsy"],"keywords":["Focal Epilepsy","Epilepsy","Seizure","Refractory Epilepsy","Partial Epilepsy"]},"designModule":{"studyType":"INTERVENTIONAL","phases":["PHASE2","PHASE3"],"designInfo":{"allocation":"RANDOMIZED","interventionModel":"PARALLEL","primaryPurpose":"TREATMENT","maskingInfo":{"masking":"QUADRUPLE","whoMasked":["PARTICIPANT","CARE_PROVIDER","INVESTIGATOR","OUTCOMES_ASSESSOR"]}},"enrollmentInfo":{"count":390,"type":"ESTIMATED"}},"armsInterventionsModule":{"armGroups":[{"label":"BHV-7000 50 mg","type":"EXPERIMENTAL","interventionNames":["Drug: BHV-7000"]},{"label":"BHV-7000 75 mg","type":"EXPERIMENTAL","interventionNames":["Drug: BHV-7000"]},{"label":"Placebo","type":"PLACEBO_COMPARATOR","interventionNames":["Drug: Placebo"]}],"interventions":[{"type":"DRUG","name":"BHV-7000","description":"BHV-7000 50 mg. Participants will take blinded investigational product (IP) once daily","armGroupLabels":["BHV-7000 50 mg"]},{"type":"DRUG","name":"BHV-7000","description":"BHV-7000 75 mg. Participants will take blinded investigational product (IP) once daily","armGroupLabels":["BHV-7000 75 mg"]},{"type":"DRUG","name":"Placebo","description":"Matching placebo taken once daily","armGroupLabels":["Placebo"]}]},"outcomesModule":{"primaryOutcomes":[{"measure":"Change from Baseline in 28-day average seizure frequency","description":"To compare the efficacy of each of 2 doses of BHV-7000 to placebo as an adjunctive therapy for refractory focal onset epilepsy as measured by the change from OP (observational phase) in 28-day average seizure frequency. The primary objective will be measured by comparing the observation phase (8 weeks) to the 8-week double-blind treatment phase.","timeFrame":"Baseline, Week 8 to Week 16"}],"secondaryOutcomes":[{"measure":"Percentage of Participants with at at least 50% reduction in seizure frequency per month","description":"To compare the efficacy of 2 dose strengths of BHV-7000 to placebo as adjunctive therapy for refractory focal onset epilepsy as measured by the proportion of subjects that have at least a 50% reduction in seizures per month (28 days). This objective will be measured by comparing the proportion of subjects with at least a 50% reduction in 28-day average seizure frequency over the course of the 8 week double-blind phase to the observation phase.","timeFrame":"Baseline, Week 8 to Week 16"},{"measure":"Change from Baseline in 28-day average seizure frequency during first month of treatment","description":"To compare the efficacy of BHV-7000 to placebo during the first month of treatment. This objective will be measured by the change in log-transformed 28-day adjusted seizure frequency from observation phase over the first month of the double blind phase.","timeFrame":"Baseline, Week 8 to Week 12"},{"measure":"Percentage of Participants with at at least 75% reduction in seizure frequency per month","description":"To compare the efficacy of BHV-7000 to placebo as measured by the proportion of subjects that have at least a 75% reduction in seizures per month (28 days). This objective will be measured by comparing the proportion of subjects with at least a 75% reduction in 28-day average seizure frequency over the course of the double-blind phase compared to the observation phase.","timeFrame":"Baseline, Week 8 to Week 16"},{"measure":"Percentage of Participants with seizure freedom during DB Phase","description":"To compare the efficacy of BHV-7000 to placebo on seizure freedom (100% seizure reduction during the DBP phase). This objective will be measured by proportion of subjects that are seizure free during the double-blind phase.","timeFrame":"Week 8 to Week 16"},{"measure":"Change from baseline in 7-day adjusted seizure frequency during first week of treatment","description":"To compare the efficacy of BHV-7000 to placebo during the first week of treatment. This objective will be measured by the change in log-transformed 7-day adjusted seziure frequency from observation phase over the first week of the double-blind phase.","timeFrame":"Baseline, Week 8 to Week 9"},{"measure":"Change from baseline in Patient Global Impression of Change (PGI-C)","description":"To compare the efficacy of BHV-7000 to placebo on the patient global impression of change (PGI-C). This objective will be measured by proportion of subjects at week 8 of double-blind treatment phase with a PGI-C response of \"minimally improved\", \"much improved\" or \"very much improved\". This scale is a 7-point Likert scale with response options of:\n\n(1) \"very much improved\" , (2) \"much improved\", (3) \"minimally improved\", (4) \"no change\", (5) \"minimally worse\", (6) \"much worse\", (7) and \"very much worse\"","timeFrame":"Baseline, Week 16"},{"measure":"Number of Participants With Deaths, Serious AEs (SAEs), AEs Leading to Study Drug Discontinuation, and moderate or severe AEs","description":"To assess the safety and tolerability of BHV-7000. This objective will be measured by assessing the number of unique subjects with deaths, SAEs, AEs leading to discontinuation, and moderate and severe AEs.","timeFrame":"Week 8 to Week 16"},{"measure":"Number of Participants With Clinically Significant Laboratory Abnormalities","description":"To assess the safety and tolerability of BHV-7000. This objective will be measured by assessing the number of unique subjects with grade 3 or 4 laboratory abnormalities.","timeFrame":"Week 8 to Week 16"}]},"eligibilityModule":{"eligibilityCriteria":"Key Inclusion Criteria:\n\n1. Male and Female participants 18 to 75 years of age at time of consent.\n2. Diagnosis of Focal Onset Epilepsy at least 1 year prior to screening visit defined by 2017 International League Against Epilepsy (ILAE) Classification and based on requirements of Epilepsy Adjudication criteria.\n\n   a. Focal seizures i. Focal aware seizures with clinically observable signs and/or symptoms ii. Focal impaired awareness seizures with clinically observable signs and/or symptoms iii. Focal to bilateral tonic-clonic seizures\n3. Subject meets the 2009 ILAE definition of drug resistant epilepsy, failure of adequate trials of two tolerated and appropriately chosen and used anti-seizure medication (ASM) schedules (whether as monotherapies or in combination) to achieve sustained seizure freedom.\n4. Ability to keep accurate seizure diaries\n5. Current treatment with at least 1 and up to 3 ASMs and 4 epilepsy treatments in total\n\nKey Exclusion Criteria:\n\n1. History of status epilepticus (convulsive status epilepticus for \\> 5 minutes or focal status epilepticus with impaired consciousness for \\> 10 minutes) within the last 6 months prior to screening visit that is not consistent with the subject's habitual seizure.\n2. History of repetitive/cluster seizures (where individual seizures cannot be counted) within the last 6 months prior to screening visit and during observation phase.\n3. Resection neurosurgery for seizures \\<4 months prior to the screening visit.\n4. Radiosurgery performed \\<2 years prior to the screening visit.\n5. Subjects with only focal aware nonmotor seizures which involve subjective sensory or psychic phenomena only, without impairment of consciousness or awareness (formally called simple partial seizures), with or without ictal EEG correlation with clinical symptoms.\n6. Any condition that would interfere with the subject's ability to comply with study instructions, place the subject at unacceptable risk, and/or confound the interpretation of safety or efficacy data from the study, as judged by the Investigator","healthyVolunteers":false,"sex":"ALL","minimumAge":"18 Years","maximumAge":"75 Years","stdAges":["ADULT","OLDER_ADULT"]},"contactsLocationsModule":{"centralContacts":[{"name":"Chief Medical Officer","role":"CONTACT","phone":"203-404-0410","email":"clinicaltrials@biohavenpharma.com"}],"locations":[{"facility":"Accel Research","status":"WITHDRAWN","city":"Birmingham","state":"Alabama","zip":"35244","country":"United States","geoPoint":{"lat":33.52066,"lon":-86.80249}},{"facility":"Onyx Clinical Trials","status":"NOT_YET_RECRUITING","city":"Peoria","state":"Arizona","zip":"85381","country":"United States","geoPoint":{"lat":33.5806,"lon":-112.23738}},{"facility":"Xenoscience, Inc.","status":"RECRUITING","city":"Phoenix","state":"Arizona","zip":"85004","country":"United States","contacts":[{"name":"Derek Soto","role":"CONTACT","phone":"602-274-9500","email":"dsoto@xenoscience.com"}],"geoPoint":{"lat":33.44838,"lon":-112.07404}},{"facility":"University of Arizona / Banner University Medical Center Phoenix","status":"RECRUITING","city":"Phoenix","state":"Arizona","zip":"85006","country":"United States","geoPoint":{"lat":33.44838,"lon":-112.07404}},{"facility":"ARENSIA Exploratory Medicine","status":"RECRUITING","city":"Phoenix","state":"Arizona","zip":"85015","country":"United States","contacts":[{"name":"Corina Lugo","role":"CONTACT","phone":"602-693-1183","email":"contact-PHX@arensia-em.com"}],"geoPoint":{"lat":33.44838,"lon":-112.07404}},{"facility":"Clinical Trials, Inc.","status":"RECRUITING","city":"Little Rock","state":"Arkansas","zip":"72205","country":"United States","geoPoint":{"lat":34.74648,"lon":-92.28959}},{"facility":"Amicis Research Center","status":"WITHDRAWN","city":"Lancaster","state":"California","zip":"93534","country":"United States","geoPoint":{"lat":34.69804,"lon":-118.13674}},{"facility":"Memorialcare Miller Children's & Women's Hospital Long Beach","status":"RECRUITING","city":"Long Beach","state":"California","zip":"90806","country":"United States","contacts":[{"name":"Francine Metcalf-Nodwell","role":"CONTACT","phone":"562-933-9068","email":"fmetcalfnodwell@memorialcare.org"}],"geoPoint":{"lat":33.76696,"lon":-118.18923}},{"facility":"Tri Valley Neurology Medical Associates, Inc.","status":"RECRUITING","city":"Mission Hills","state":"California","zip":"91345","country":"United States","geoPoint":{"lat":34.68609,"lon":-120.43683}},{"facility":"Stanford University","status":"NOT_YET_RECRUITING","city":"Palo Alto","state":"California","zip":"94304","country":"United States","geoPoint":{"lat":37.44188,"lon":-122.14302}},{"facility":"Profound Research LLC","status":"RECRUITING","city":"Poway","state":"California","zip":"92065","country":"United States","contacts":[{"name":"April Tenorio","role":"CONTACT","phone":"760-732-0557","phoneExt":"x 2135","email":"april@profoundresearch.io"}],"geoPoint":{"lat":32.96282,"lon":-117.03586}},{"facility":"Kaiser Permanente","status":"WITHDRAWN","city":"Aurora","state":"Colorado","zip":"80011","country":"United States","geoPoint":{"lat":39.72943,"lon":-104.83192}},{"facility":"UConn Health","status":"RECRUITING","city":"Farmington","state":"Connecticut","zip":"06030","country":"United States","contacts":[{"name":"Ellen Ciesielski","role":"CONTACT","phone":"860-769-6004","email":"eciesielski@uchc.edu"}],"geoPoint":{"lat":41.71982,"lon":-72.83204}},{"facility":"Children's National Medical Center","status":"WITHDRAWN","city":"Washington D.C.","state":"District of Columbia","zip":"20010","country":"United States","geoPoint":{"lat":38.89511,"lon":-77.03637}},{"facility":"EZR Research, LLC","status":"RECRUITING","city":"Boca Raton","state":"Florida","zip":"33486","country":"United States","geoPoint":{"lat":26.35869,"lon":-80.0831}},{"facility":"Nova Clinical Research, LLC","status":"RECRUITING","city":"Bradenton","state":"Florida","zip":"34209","country":"United States","geoPoint":{"lat":27.49893,"lon":-82.57482}},{"facility":"Las Mercedes Medical Research","status":"RECRUITING","city":"Hialeah","state":"Florida","zip":"33012","country":"United States","geoPoint":{"lat":25.8576,"lon":-80.27811}},{"facility":"Coral Clinic Research","status":"RECRUITING","city":"Homestead","state":"Florida","zip":"33032","country":"United States","geoPoint":{"lat":25.46872,"lon":-80.47756}},{"facility":"Dm Healthworks","status":"WITHDRAWN","city":"Kissimmee","state":"Florida","zip":"34741","country":"United States","geoPoint":{"lat":28.30468,"lon":-81.41667}},{"facility":"Y&L Advance Health Care, Inc d/b/a Elite Clinical Research","status":"RECRUITING","city":"Miami","state":"Florida","zip":"33144","country":"United States","contacts":[{"name":"Yalexis Lorenzo","role":"CONTACT","phone":"305-262-3396","email":"ylorenzo@eliteclinicalresearch.com"}],"geoPoint":{"lat":25.77427,"lon":-80.19366}},{"facility":"Serenity Research Center","status":"RECRUITING","city":"Miami","state":"Florida","zip":"33176","country":"United States","contacts":[{"name":"Fernando Roa","role":"CONTACT","phone":"786-558-4823","email":"froa.serenityresearch@gmail.com"}],"geoPoint":{"lat":25.77427,"lon":-80.19366}},{"facility":"Research Institute of Orlando","status":"RECRUITING","city":"Orlando","state":"Florida","zip":"32806","country":"United States","contacts":[{"name":"Michelle Clevenger","role":"CONTACT","phone":"407-652-6011","email":"Michelle@researchinstituteoforlando.com"}],"geoPoint":{"lat":28.53834,"lon":-81.37924}},{"facility":"Comprehensive Neurology Clinic","status":"RECRUITING","city":"Orlando","state":"Florida","zip":"32825","country":"United States","contacts":[{"name":"Elliuz Leal","role":"CONTACT","phone":"407-208-0708","email":"elealcrc@gmail.com"}],"geoPoint":{"lat":28.53834,"lon":-81.37924}},{"facility":"Panhandle Research & Medical Clinic","status":"RECRUITING","city":"Pensacola","state":"Florida","zip":"32502","country":"United States","geoPoint":{"lat":30.42131,"lon":-87.21691}},{"facility":"Knight Neurology","status":"RECRUITING","city":"Rockledge","state":"Florida","zip":"32955","country":"United States","contacts":[{"name":"Joseph Hilde","role":"CONTACT","phone":"855-564-4484","email":"jhilde01@knightneurology.com"}],"geoPoint":{"lat":28.35084,"lon":-80.72533}},{"facility":"PENS","status":"RECRUITING","city":"Tampa","state":"Florida","zip":"33609","country":"United States","contacts":[{"name":"Susan Ngo","role":"CONTACT","phone":"813-873-7367","email":"sngo@pensresearch.org"}],"geoPoint":{"lat":27.94752,"lon":-82.45843}},{"facility":"Encore Medical Research of Weston LLC.","status":"RECRUITING","city":"Weston","state":"Florida","zip":"33331","country":"United States","geoPoint":{"lat":26.10037,"lon":-80.39977}},{"facility":"Accelerated Clinical Trials, LLC","status":"RECRUITING","city":"Peachtree Corners","state":"Georgia","zip":"30071","country":"United States","geoPoint":{"lat":33.9701,"lon":-84.22159}},{"facility":"Bluegrass Epilepsy Research","status":"RECRUITING","city":"Lexington","state":"Kentucky","zip":"40504","country":"United States","geoPoint":{"lat":37.98869,"lon":-84.47772}},{"facility":"OLORMC","status":"RECRUITING","city":"Baton Rouge","state":"Louisiana","zip":"70808","country":"United States","geoPoint":{"lat":30.44332,"lon":-91.18747}},{"facility":"DelRicht Research","status":"RECRUITING","city":"Baton Rouge","state":"Louisiana","zip":"70810","country":"United States","contacts":[{"name":"Danielle Bryant","role":"CONTACT","phone":"225-412-0316","email":"dbryant@delricht.com"}],"geoPoint":{"lat":30.44332,"lon":-91.18747}},{"facility":"Neurocare Of Louisiana","status":"RECRUITING","city":"Covington","state":"Louisiana","zip":"70433","country":"United States","geoPoint":{"lat":30.47549,"lon":-90.10042}},{"facility":"University Medical Center New Orleans","status":"RECRUITING","city":"New Orleans","state":"Louisiana","zip":"70112","country":"United States","contacts":[{"name":"Heather Scuderi","role":"CONTACT","phone":"504-702-4624","email":"heather.scuderi@lcmchealth.org"}],"geoPoint":{"lat":29.95465,"lon":-90.07507}},{"facility":"DelRicht Research","status":"RECRUITING","city":"New Orleans","state":"Louisiana","zip":"70119","country":"United States","contacts":[{"name":"Reggie Mister","role":"CONTACT","phone":"504-336-2667","email":"rmister@delricht.com"}],"geoPoint":{"lat":29.95465,"lon":-90.07507}},{"facility":"LSU Health Shreveport","status":"RECRUITING","city":"Shreveport","state":"Louisiana","zip":"71103","country":"United States","contacts":[{"name":"Erin Yates","role":"CONTACT","phone":"318-675-7596","email":"erin.yates@leuhs.edu"}],"geoPoint":{"lat":32.52515,"lon":-93.75018}},{"facility":"Johns Hopkins University","status":"RECRUITING","city":"Baltimore","state":"Maryland","zip":"21287","country":"United States","contacts":[{"name":"Pamela Coe","role":"CONTACT","phone":"410-502-5570","email":"pcoe@jhmi.edu"}],"geoPoint":{"lat":39.29038,"lon":-76.61219}},{"facility":"Boston Clinical Trials","status":"RECRUITING","city":"Boston","state":"Massachusetts","zip":"02131","country":"United States","contacts":[{"name":"Joanne Monaghan","role":"CONTACT","phone":"617-477-4868","email":"joanne.monaghan@bostontrials.com"}],"geoPoint":{"lat":42.35843,"lon":-71.05977}},{"facility":"Boston Neuro Research","status":"RECRUITING","city":"South Dartmouth","state":"Massachusetts","zip":"02747","country":"United States","geoPoint":{"lat":41.59177,"lon":-70.94115}},{"facility":"SRI International","status":"RECRUITING","city":"Plymouth","state":"Michigan","zip":"48170","country":"United States","geoPoint":{"lat":42.37143,"lon":-83.47021}},{"facility":"University of Missouri Health Care","status":"RECRUITING","city":"Columbia","state":"Missouri","zip":"65212","country":"United States","geoPoint":{"lat":38.95171,"lon":-92.33407}},{"facility":"Somnos Clinical Research","status":"RECRUITING","city":"Lincoln","state":"Nebraska","zip":"68510","country":"United States","contacts":[{"name":"Wendy Bradford","role":"CONTACT","phone":"281-973-2030","email":"owais@clinicalresearchmate.com"}],"geoPoint":{"lat":40.8,"lon":-96.66696}},{"facility":"NEREG","status":"RECRUITING","city":"Hackensack","state":"New Jersey","zip":"07601","country":"United States","geoPoint":{"lat":40.88593,"lon":-74.04347}},{"facility":"Tekton Research","status":"RECRUITING","city":"Marlboro","state":"New Jersey","zip":"07746","country":"United States","geoPoint":{"lat":40.31539,"lon":-74.24626}},{"facility":"Jersey Shore Medical Center","status":"NOT_YET_RECRUITING","city":"Neptune City","state":"New Jersey","zip":"07753","country":"United States","geoPoint":{"lat":40.20011,"lon":-74.02792}},{"facility":"Dent Neurosciences Research Center","status":"RECRUITING","city":"Amherst","state":"New York","zip":"14226","country":"United States","geoPoint":{"lat":42.97839,"lon":-78.79976}},{"facility":"Northwell Health","status":"RECRUITING","city":"Great Neck","state":"New York","zip":"11021","country":"United States","contacts":[{"name":"Ayesha Rehman","role":"CONTACT","phone":"516-428-6136","email":"arehman10@northwell.edu"}],"geoPoint":{"lat":40.80066,"lon":-73.72846}},{"facility":"Northwell Health Ped. Neurology","status":"RECRUITING","city":"New Hyde Park","state":"New York","zip":"11042","country":"United States","geoPoint":{"lat":40.7351,"lon":-73.68791}},{"facility":"NYU Langone Health","status":"RECRUITING","city":"New York","state":"New York","zip":"10016","country":"United States","contacts":[{"name":"Mariana Figuera Losada","role":"CONTACT","phone":"646-558-0844","email":"mariana.figueralosada@nyulangone.org"}],"geoPoint":{"lat":40.71427,"lon":-74.00597}},{"facility":"Montefiore Medical Center","status":"RECRUITING","city":"The Bronx","state":"New York","zip":"10467","country":"United States","geoPoint":{"lat":40.84985,"lon":-73.86641}},{"facility":"UNC-Chapel Hill","status":"RECRUITING","city":"Chapel Hill","state":"North Carolina","zip":"27514","country":"United States","contacts":[{"name":"Monica Coudurier","role":"CONTACT","phone":"919-966-6727","email":"m_coudurier@unc.edu"}],"geoPoint":{"lat":35.9132,"lon":-79.05584}},{"facility":"Cincinatti Children's Hospital","status":"WITHDRAWN","city":"Cincinnati","state":"Ohio","zip":"45229","country":"United States","geoPoint":{"lat":39.12711,"lon":-84.51439}},{"facility":"Wright State University","status":"NOT_YET_RECRUITING","city":"Dayton","state":"Ohio","zip":"45409","country":"United States","geoPoint":{"lat":39.75895,"lon":-84.19161}},{"facility":"Oregon Neurology Associates","status":"RECRUITING","city":"Springfield","state":"Oregon","zip":"97477","country":"United States","geoPoint":{"lat":44.04624,"lon":-123.02203}},{"facility":"AHN","status":"RECRUITING","city":"Pittsburgh","state":"Pennsylvania","zip":"15212","country":"United States","contacts":[{"name":"Megan Hendricks","role":"CONTACT","phone":"412-359-6010","email":"megan.hendricks@ahn.org"}],"geoPoint":{"lat":40.44062,"lon":-79.99589}},{"facility":"MUSC","status":"RECRUITING","city":"Charleston","state":"South Carolina","zip":"29425","country":"United States","contacts":[{"name":"Robin Bulgarino","role":"CONTACT","phone":"843-792-1115","email":"bulgarino@musc.edu"}],"geoPoint":{"lat":32.77632,"lon":-79.93275}},{"facility":"WR-ClinSearch","status":"RECRUITING","city":"Chattanooga","state":"Tennessee","zip":"37421","country":"United States","contacts":[{"name":"Jessica Benvenuto","role":"CONTACT","phone":"423-698-4584","email":"jbenvenuto@wakeresearch.com"}],"geoPoint":{"lat":35.04563,"lon":-85.30968}},{"facility":"Le Bonheur Children's Hospital","status":"RECRUITING","city":"Memphis","state":"Tennessee","zip":"38103","country":"United States","contacts":[{"name":"Kerry Moore","role":"CONTACT","phone":"901-287-5760","email":"research@lebonheur.org"}],"geoPoint":{"lat":35.14953,"lon":-90.04898}},{"facility":"Horizon Clinical Research Group","status":"RECRUITING","city":"Cypress","state":"Texas","zip":"77429","country":"United States","geoPoint":{"lat":29.96911,"lon":-95.69717}},{"facility":"M3 Wake Research-Dallas","status":"RECRUITING","city":"Dallas","state":"Texas","zip":"75246","country":"United States","geoPoint":{"lat":32.78306,"lon":-96.80667}},{"facility":"ANESC Research","status":"RECRUITING","city":"El Paso","state":"Texas","zip":"79912","country":"United States","contacts":[{"name":"Shruti Konda","role":"CONTACT","phone":"915-974-2200","phoneExt":"3","email":"shrutik@anesc.net"}],"geoPoint":{"lat":31.75872,"lon":-106.48693}},{"facility":"Tarrant Neurology Associates","status":"RECRUITING","city":"Fort Worth","state":"Texas","zip":"76104","country":"United States","geoPoint":{"lat":32.72541,"lon":-97.32085}},{"facility":"UTHealth Houston","status":"RECRUITING","city":"Houston","state":"Texas","zip":"77030","country":"United States","contacts":[{"name":"Maria Poblete","role":"CONTACT","phone":"713-500-7201","email":"Maria.Poblete@uth.tmc.edu"}],"geoPoint":{"lat":29.76328,"lon":-95.36327}},{"facility":"UTHSC","status":"NOT_YET_RECRUITING","city":"Houston","state":"Texas","zip":"77030","country":"United States","geoPoint":{"lat":29.76328,"lon":-95.36327}},{"facility":"Stryde Research","status":"RECRUITING","city":"Plano","state":"Texas","zip":"75093","country":"United States","geoPoint":{"lat":33.01984,"lon":-96.69889}},{"facility":"Intermountain Health","status":"RECRUITING","city":"Murray","state":"Utah","zip":"84107","country":"United States","contacts":[{"name":"Lindsay Bosh","role":"CONTACT","phone":"801-507-4759","email":"lindsay.bosh@imail.org"}],"geoPoint":{"lat":40.66689,"lon":-111.88799}},{"facility":"Medstar Health Research Institute","status":"RECRUITING","city":"McLean","state":"Virginia","zip":"22101","country":"United States","contacts":[{"name":"Emma Merrill","role":"CONTACT","phone":"202-877-3296","email":"emma.merrill@medstar.net"}],"geoPoint":{"lat":38.93428,"lon":-77.17748}},{"facility":"Royal Prince Alfred Hospital","status":"RECRUITING","city":"Camperdown","state":"New South Wales","zip":"2050","country":"Australia","geoPoint":{"lat":-33.88965,"lon":151.17642}},{"facility":"Prince of Wales Hospital","status":"RECRUITING","city":"Randwick","state":"New South Wales","zip":"2031","country":"Australia","geoPoint":{"lat":-33.91439,"lon":151.24895}},{"facility":"Royal Brisbane & Women's Hospital","status":"RECRUITING","city":"Herston","state":"Queensland","zip":"4029","country":"Australia","geoPoint":{"lat":-27.44453,"lon":153.01852}},{"facility":"St Vincents Hospital Melbourne - PPDS","status":"RECRUITING","city":"Fitzroy","state":"Victoria","zip":"3065","country":"Australia","geoPoint":{"lat":-37.79839,"lon":144.97833}},{"facility":"Austin Health","status":"RECRUITING","city":"Heidelberg","state":"Victoria","zip":"3084","country":"Australia","geoPoint":{"lat":-37.75,"lon":145.06667}},{"facility":"The Alfred Hospital","status":"RECRUITING","city":"Melbourne","state":"Victoria","zip":"3004","country":"Australia","geoPoint":{"lat":-37.814,"lon":144.96332}},{"facility":"Royal Melbourne Hospital","status":"RECRUITING","city":"Parkville","state":"Victoria","zip":"3050","country":"Australia","geoPoint":{"lat":-37.78333,"lon":144.95}},{"facility":"Flinders Medical Centre","status":"RECRUITING","city":"Bedford Park","zip":"5042","country":"Australia","geoPoint":{"lat":-35.02204,"lon":138.56815}},{"facility":"Odense Universitetshospital","status":"RECRUITING","city":"Odense","state":"Fyn","zip":"5000","country":"Denmark","geoPoint":{"lat":55.39594,"lon":10.38831}},{"facility":"Aarhus University Hospital","status":"NOT_YET_RECRUITING","city":"Aarhus","zip":"8200","country":"Denmark","geoPoint":{"lat":56.15674,"lon":10.21076}},{"facility":"Epilepsihospitalet Filadelfia","status":"RECRUITING","city":"Dianalund","zip":"4293","country":"Denmark","geoPoint":{"lat":55.53133,"lon":11.4925}},{"facility":"Kuopion yliopistollinen sairaala","status":"RECRUITING","city":"Kuopio","state":"Northern Savonia","zip":"70200","country":"Finland","geoPoint":{"lat":62.89238,"lon":27.67703}},{"facility":"Tampereen yliopistollinen sairaala","status":"RECRUITING","city":"Tampere","state":"Pirkanmaa","zip":"33520","country":"Finland","geoPoint":{"lat":61.49911,"lon":23.78712}},{"facility":"Helsinki University Hospital","status":"RECRUITING","city":"Helsinki","state":"Uusimaa","zip":"00290","country":"Finland","geoPoint":{"lat":60.16952,"lon":24.93545}},{"facility":"Universitätsklinikum Freiburg","status":"RECRUITING","city":"Freiburg im Breisgau","state":"Baden-Wurttemberg","zip":"79106","country":"Germany","geoPoint":{"lat":47.9959,"lon":7.85222}},{"facility":"Epilepsiezentrum Kork","status":"RECRUITING","city":"Kehl","state":"Baden-Wurttemberg","zip":"77694","country":"Germany","geoPoint":{"lat":48.57297,"lon":7.81523}},{"facility":"Universitätsklinikum Ulm","status":"RECRUITING","city":"Ulm","state":"Baden-Wurttemberg","zip":"89081","country":"Germany","geoPoint":{"lat":48.39841,"lon":9.99155}},{"facility":"Universitätsklinikum Erlangen","status":"RECRUITING","city":"Erlangen","state":"Bavaria","zip":"91054","country":"Germany","geoPoint":{"lat":49.59099,"lon":11.00783}},{"facility":"LMU Klinikum der Universität München - Campus Großhadern","status":"RECRUITING","city":"München","state":"Bavaria","zip":"81377","country":"Germany","geoPoint":{"lat":48.69668,"lon":13.46314}},{"facility":"Epilepsieklinik Tabor","status":"NOT_YET_RECRUITING","city":"Bernau bei Berlin","state":"Brandenburg","zip":"16321","country":"Germany","geoPoint":{"lat":52.67982,"lon":13.58708}},{"facility":"Universitätsklinikum Gießen und Marburg GmbH - Standort Marburg","status":"RECRUITING","city":"Marburg","state":"Hesse","zip":"35043","country":"Germany","geoPoint":{"lat":50.80904,"lon":8.77069}},{"facility":"Klinikum Osnabrück GmbH","status":"RECRUITING","city":"Osnabrück","state":"Lower Saxony","zip":"49076","country":"Germany","geoPoint":{"lat":52.27264,"lon":8.0498}},{"facility":"Krankenhaus Mara gGmbH","status":"RECRUITING","city":"Bielefeld","state":"North Rhine-Westphalia","zip":"33617","country":"Germany","geoPoint":{"lat":52.03333,"lon":8.53333}},{"facility":"Universitätsklinikum Bonn","status":"RECRUITING","city":"Bonn","state":"North Rhine-Westphalia","zip":"53127","country":"Germany","geoPoint":{"lat":50.73438,"lon":7.09549}},{"facility":"Universitätsklinikum Münster","status":"NOT_YET_RECRUITING","city":"Münster","state":"North Rhine-Westphalia","zip":"48149","country":"Germany","geoPoint":{"lat":51.96236,"lon":7.62571}},{"facility":"Universitätsklinikum Leipzig","status":"RECRUITING","city":"Leipzig","state":"Saxony","zip":"04103","country":"Germany","geoPoint":{"lat":51.33962,"lon":12.37129}},{"facility":"Kleinwachau Sächsisches Epilepsiezentrum Radeberg Gemeinnützige Gmbh","status":"RECRUITING","city":"Radeberg","state":"Saxony","zip":"01454","country":"Germany","geoPoint":{"lat":51.11112,"lon":13.91199}},{"facility":"Vivantes - Humboldt Klinikum","status":"RECRUITING","city":"Berlin","zip":"13509","country":"Germany","geoPoint":{"lat":52.52437,"lon":13.41053}},{"facility":"Universitätsklinikum Frankfurt","status":"RECRUITING","city":"Frankfurt","zip":"60590","country":"Germany","geoPoint":{"lat":49.68333,"lon":10.53333}},{"facility":"Epilepsie-Zentrum Bodensee","status":"RECRUITING","city":"Ravensburg","zip":"88214","country":"Germany","geoPoint":{"lat":47.78198,"lon":9.61062}},{"facility":"University General Hospital of Alexandroupolis","status":"RECRUITING","city":"Alexandroupoli","zip":"681 00","country":"Greece","geoPoint":{"lat":40.84995,"lon":25.87644}},{"facility":"University General Hospital ''ATTIKON''","status":"RECRUITING","city":"Chaïdári","zip":"124 62","country":"Greece","geoPoint":{"lat":38.01135,"lon":23.66597}},{"facility":"University General Hospital of Ioannina","status":"RECRUITING","city":"Ioannina","zip":"455 00","country":"Greece","geoPoint":{"lat":39.66341,"lon":20.85187}},{"facility":"AHEPA University General Hospital of Thessaloniki","status":"RECRUITING","city":"Thessaloniki","zip":"546 36","country":"Greece","geoPoint":{"lat":40.64072,"lon":22.93493}},{"facility":"Georgios Papanikolaou General Hospital of Thessaloniki","status":"RECRUITING","city":"Thessaloniki","zip":"546 36","country":"Greece","geoPoint":{"lat":40.64072,"lon":22.93493}},{"facility":"Semmel Egyet Idegsebésze Neuro Klin","status":"RECRUITING","city":"Budapest","zip":"1145","country":"Hungary","geoPoint":{"lat":47.49835,"lon":19.04045}},{"facility":"Nizam's Insti. of Medical Sciences","status":"RECRUITING","city":"Hyderabad","zip":"500082","country":"India","geoPoint":{"lat":17.38405,"lon":78.45636}},{"facility":"Mallikatta Neuro Centre","status":"RECRUITING","city":"Mangalore","zip":"575002","country":"India","geoPoint":{"lat":12.91723,"lon":74.85603}},{"facility":"Jaslok Hospital and Research","status":"RECRUITING","city":"Mumbai","zip":"400026","country":"India","geoPoint":{"lat":19.07283,"lon":72.88261}},{"facility":"Dr G M Taori Memorial CIIMS","status":"RECRUITING","city":"Nagpur","zip":"440010","country":"India","geoPoint":{"lat":21.14631,"lon":79.08491}},{"facility":"All India Institute of Medical Sciences (AIIMS)","status":"RECRUITING","city":"New Delhi","zip":"110029","country":"India","geoPoint":{"lat":28.62137,"lon":77.2148}},{"facility":"Università degli Studi G. D'Annunzio Chieti-Pescara","status":"RECRUITING","city":"Chieti","state":"Abruzzo","zip":"66013","country":"Italy","geoPoint":{"lat":42.34827,"lon":14.16494}},{"facility":"Azienda Ospedaliera Universitaria Renato Dulbecco - AO Mater Domini","status":"RECRUITING","city":"Catanzaro","state":"Calabria","zip":"88100","country":"Italy","geoPoint":{"lat":38.88247,"lon":16.60086}},{"facility":"AORN Antonio Cardarelli","status":"RECRUITING","city":"Napoli","state":"Campania","zip":"80131","country":"Italy","geoPoint":{"lat":40.87618,"lon":14.5195}},{"facility":"AUSL di Bologna - Ospedale Bellaria","status":"RECRUITING","city":"Bologna","state":"Emilia-Romagna","zip":"40123","country":"Italy","geoPoint":{"lat":44.49381,"lon":11.33875}},{"facility":"Fondazione PTV Policlinico Tor Vergata","status":"RECRUITING","city":"Rome","state":"Lazio","zip":"00133","country":"Italy","geoPoint":{"lat":41.89193,"lon":12.51133}},{"facility":"Istituto G Gaslini Ospedale Pediatrico IRCCS - INCIPIT - PIN","status":"RECRUITING","city":"Genoa","state":"Liguria","zip":"16147","country":"Italy","geoPoint":{"lat":44.40478,"lon":8.94439}},{"facility":"Ospedale San Raffaele S.r.l. - PPDS","status":"RECRUITING","city":"Milan","state":"Lombardy","zip":"20132","country":"Italy","geoPoint":{"lat":45.46427,"lon":9.18951}},{"facility":"Fondazione IRCCS Istituto Neurologico Carlo Besta","status":"RECRUITING","city":"Milan","state":"Lombardy","zip":"20133","country":"Italy","geoPoint":{"lat":45.46427,"lon":9.18951}},{"facility":"ASST Santi Paolo e Carlo - Azienda Universitaria-Polo Universitario San Paolo","status":"RECRUITING","city":"Milan","state":"Lombardy","zip":"20142","country":"Italy","geoPoint":{"lat":45.46427,"lon":9.18951}},{"facility":"Fondazione Istituto Neurologico Nazionale Casimiro Mondino IRCCS","status":"RECRUITING","city":"Pavia","state":"Lombardy","zip":"27100","country":"Italy","geoPoint":{"lat":45.19205,"lon":9.15917}},{"facility":"Azienda Ospedaliero-Universitaria di Modena - Ospedale Civile di Baggiovara","status":"RECRUITING","city":"Baggiovara","state":"Modena","zip":"41126","country":"Italy","geoPoint":{"lat":44.60416,"lon":10.86256}},{"facility":"IRCCS Istituto Neurologico Mediterraneo Neuromed","status":"RECRUITING","city":"Pozzilli","state":"Molise","zip":"86077","country":"Italy","geoPoint":{"lat":41.51142,"lon":14.06252}},{"facility":"Università Politecnica delle Marche Azienda Ospedaliero Universitaria Ospedali Riuniti di Ancona","status":"RECRUITING","city":"Ancona","state":"The Marches","zip":"60121","country":"Italy","geoPoint":{"lat":43.60717,"lon":13.5103}},{"facility":"Azienda Ospedaliero Universitaria A Meyer - INCIPIT - PIN","status":"RECRUITING","city":"Calambrone","state":"Tuscany","zip":"56018","country":"Italy","geoPoint":{"lat":43.58333,"lon":10.3}},{"facility":"Fondazione Policlinico Universitario A Gemelli-Rome","status":"RECRUITING","city":"Roma","zip":"00168","country":"Italy","geoPoint":{"lat":44.99364,"lon":11.10642}},{"facility":"IRCCS Ospedale Pediatrico Bambino Gesù - INCIPIT - PIN","status":"RECRUITING","city":"Rome","zip":"00165","country":"Italy","geoPoint":{"lat":41.89193,"lon":12.51133}},{"facility":"Azienda Ospedaliera Universitaria Integrata Di Verona","status":"RECRUITING","city":"Verona","zip":"37126","country":"Italy","geoPoint":{"lat":45.43854,"lon":10.9938}},{"facility":"Unidad de Investigación en Salud de Chihuahua S.C.-Mexico city","status":"NOT_YET_RECRUITING","city":"Mexico City","zip":"14050","country":"Mexico","geoPoint":{"lat":19.42847,"lon":-99.12766}},{"facility":"Clinstile, S.A. de C.V.","status":"NOT_YET_RECRUITING","city":"Mexico City","zip":"6700","country":"Mexico","geoPoint":{"lat":19.42847,"lon":-99.12766}},{"facility":"Accelerium, S. de R.L. de C.V. - PPDS","status":"NOT_YET_RECRUITING","city":"Monterrey","zip":"64000","country":"Mexico","geoPoint":{"lat":25.68435,"lon":-100.31721}},{"facility":"Axis Heilsa S. de R.L. de C.V.","status":"RECRUITING","city":"Obispado","zip":"64060","country":"Mexico","geoPoint":{"lat":22.13968,"lon":-100.93171}},{"facility":"Neurociencias Estudios Clinicos S.C.","status":"NOT_YET_RECRUITING","city":"Sinaloa","zip":"80020","country":"Mexico","geoPoint":{"lat":15.89261,"lon":-92.12896}},{"facility":"Clinical Research Institute SC-Mexico","status":"RECRUITING","city":"Tlalnepantla","zip":"54055","country":"Mexico","geoPoint":{"lat":19.54005,"lon":-99.19538}},{"facility":"FAICIC S De RL De CV","status":"RECRUITING","city":"Veracruz","zip":"91900","country":"Mexico","geoPoint":{"lat":19.18095,"lon":-96.1429}},{"facility":"MTZ Clinical Research","status":"RECRUITING","city":"Krakow","zip":"02-172","country":"Poland","geoPoint":{"lat":50.06143,"lon":19.93658}},{"facility":"Pratia MCM Krakow","status":"RECRUITING","city":"Krakow","zip":"30-727","country":"Poland","geoPoint":{"lat":50.06143,"lon":19.93658}},{"facility":"LANDA Specjalistyczne","status":"RECRUITING","city":"Krakow","zip":"31-156","country":"Poland","geoPoint":{"lat":50.06143,"lon":19.93658}},{"facility":"Neurosphera SP. Z O.O","status":"RECRUITING","city":"Warsaw","zip":"02-829","country":"Poland","geoPoint":{"lat":52.22977,"lon":21.01178}},{"facility":"Premium Clinic Wrocław","status":"RECRUITING","city":"Wroclaw","zip":"50-414","country":"Poland","geoPoint":{"lat":51.10286,"lon":17.03006}},{"facility":"ULS de Entre Douro e Vouga, EPE - Hospital de São Sebastião","status":"RECRUITING","city":"Santa Maria da Feira","state":"Aveiro District","zip":"4520-211","country":"Portugal","geoPoint":{"lat":40.92726,"lon":-8.54839}},{"facility":"ULS de Matosinhos, EPE - Hospital Pedro Hispano","status":"RECRUITING","city":"Senhora da Hora","state":"Porto District","zip":"4454-509","country":"Portugal","geoPoint":{"lat":41.18641,"lon":-8.65172}},{"facility":"Centro Clínico Académico, Braga - Hospital de Braga","status":"RECRUITING","city":"Braga","zip":"4710-243","country":"Portugal","geoPoint":{"lat":41.5514,"lon":-8.42311}},{"facility":"ULS de Coimbra, EPE - Hospitais da Universidade de Coimbra","status":"RECRUITING","city":"Coimbra","zip":"3000-459","country":"Portugal","geoPoint":{"lat":40.20686,"lon":-8.41996}},{"facility":"ULS de Lisboa Ocidental, EPE - Hospital Egas Moniz","status":"RECRUITING","city":"Lisbon","zip":"1449-005","country":"Portugal","geoPoint":{"lat":38.72509,"lon":-9.1498}},{"facility":"Hospital da Luz Torres de Lisboa","status":"RECRUITING","city":"Lisbon","zip":"1600-209","country":"Portugal","geoPoint":{"lat":38.72509,"lon":-9.1498}},{"facility":"Targu-Mures Emergency Clinical County Hospital - Str. Gh. Marinescu nr.50","status":"RECRUITING","city":"Târgu Mureş","state":"Mureș County","zip":"540136","country":"Romania","geoPoint":{"lat":46.54245,"lon":24.55747}},{"facility":"Emergency University Hospital","status":"RECRUITING","city":"Bucharest","zip":"11635","country":"Romania","geoPoint":{"lat":44.43225,"lon":26.10626}},{"facility":"IN MEDIC, s.r.o.","status":"RECRUITING","city":"Bardejov","zip":"085 01","country":"Slovakia","geoPoint":{"lat":49.29175,"lon":21.27271}},{"facility":"Kraskova 2636, Neurologické oddelenie","status":"RECRUITING","city":"Rimavská Sobota","zip":"979 01","country":"Slovakia","geoPoint":{"lat":48.38284,"lon":20.02239}},{"facility":"Hospital Universitario Germans Trias i Pujol","status":"RECRUITING","city":"Badalona","state":"Barcelona","zip":"08916","country":"Spain","geoPoint":{"lat":41.45004,"lon":2.24741}},{"facility":"Hospital Universitario de Bellvitge","status":"RECRUITING","city":"L'Hospitalet de Llobregat","state":"Barcelona","zip":"08907","country":"Spain","geoPoint":{"lat":41.35967,"lon":2.10028}},{"facility":"Hospital Universitario de Navarra","status":"RECRUITING","city":"Pamplona","state":"Navarre","zip":"31008","country":"Spain","geoPoint":{"lat":42.81687,"lon":-1.64323}},{"facility":"CHUVI - H.U. Alvaro Cunqueiro","status":"RECRUITING","city":"Vigo","state":"Pontevedra","zip":"36312","country":"Spain","geoPoint":{"lat":42.23282,"lon":-8.72264}},{"facility":"Hospital del Mar","status":"RECRUITING","city":"Barcelona","zip":"08003","country":"Spain","geoPoint":{"lat":41.38879,"lon":2.15899}},{"facility":"Hospital Universitario Vall d'Hebron - PPDS","status":"RECRUITING","city":"Barcelona","zip":"08035","country":"Spain","geoPoint":{"lat":41.38879,"lon":2.15899}},{"facility":"Fundacio Assistencial Mutua de Terrassa","status":"RECRUITING","city":"Barcelona","zip":"08221","country":"Spain","geoPoint":{"lat":41.38879,"lon":2.15899}},{"facility":"Hospital Universitario Clínico San Cecilio","status":"RECRUITING","city":"Granada","zip":"18007","country":"Spain","geoPoint":{"lat":37.18817,"lon":-3.60667}},{"facility":"Hospital Vithas Granada","status":"RECRUITING","city":"Granada","zip":"18008","country":"Spain","geoPoint":{"lat":37.18817,"lon":-3.60667}},{"facility":"Hospital Universitario Virgen de Las Nieves","status":"RECRUITING","city":"Granada","zip":"18013","country":"Spain","geoPoint":{"lat":37.18817,"lon":-3.60667}},{"facility":"Hospital Ruber Internacional (Grupo Quironsalud)","status":"RECRUITING","city":"Madrid","zip":"28034","country":"Spain","geoPoint":{"lat":40.4165,"lon":-3.70256}},{"facility":"Hospital Universitario Fundacion Jimenez Diaz","status":"RECRUITING","city":"Madrid","zip":"28040","country":"Spain","geoPoint":{"lat":40.4165,"lon":-3.70256}},{"facility":"Blua Sanitas Valdebebas Hospital","status":"NOT_YET_RECRUITING","city":"Madrid","zip":"28055","country":"Spain","geoPoint":{"lat":40.4165,"lon":-3.70256}},{"facility":"Hospital blua sanitas valdebebas","status":"RECRUITING","city":"Madrid","zip":"28055","country":"Spain","geoPoint":{"lat":40.4165,"lon":-3.70256}},{"facility":"Hospital Regional Universitario de Malaga - Hospital General","status":"RECRUITING","city":"Málaga","zip":"29010","country":"Spain","geoPoint":{"lat":36.72016,"lon":-4.42034}},{"facility":"Centro de Neurologia Avanzada","status":"RECRUITING","city":"Seville","zip":"41013","country":"Spain","geoPoint":{"lat":37.38283,"lon":-5.97317}},{"facility":"Hospital Universitari i Politecnic La Fe de Valencia","status":"RECRUITING","city":"Valencia","zip":"46026","country":"Spain","geoPoint":{"lat":39.47391,"lon":-0.37966}},{"facility":"Hospital Clinico Universitario de Valladolid","status":"RECRUITING","city":"Valladolid","zip":"47003","country":"Spain","geoPoint":{"lat":41.65541,"lon":-4.72353}},{"facility":"Morriston Hospital","status":"RECRUITING","city":"Swansea","state":"Glamorgan","zip":"SA6 6NL","country":"United Kingdom","geoPoint":{"lat":51.62079,"lon":-3.94323}},{"facility":"Queen Elizabeth University Hospital-PPDS","status":"RECRUITING","city":"Glasgow","state":"Glasgow City","zip":"G51 4TF","country":"United Kingdom","geoPoint":{"lat":55.86515,"lon":-4.25763}},{"facility":"Salford Royal Hospital - PPDS","status":"RECRUITING","city":"Salford","state":"Manchester","zip":"M6 8HD","country":"United Kingdom","geoPoint":{"lat":53.48771,"lon":-2.29042}},{"facility":"The Walton Centre - PPDS","status":"RECRUITING","city":"Liverpool","state":"Merseyside","zip":"L9 7LJ","country":"United Kingdom","geoPoint":{"lat":53.41058,"lon":-2.97794}},{"facility":"University College London Hospitals (UCLH)","status":"RECRUITING","city":"London","state":"Middlesex","zip":"NW1 2PG","country":"United Kingdom","geoPoint":{"lat":51.50853,"lon":-0.12574}},{"facility":"John Radcliffe Hospital","status":"RECRUITING","city":"Oxford","state":"Oxfordshire","zip":"OX3 9DU","country":"United Kingdom","geoPoint":{"lat":51.75222,"lon":-1.25596}},{"facility":"University Hospital of Wales","status":"RECRUITING","city":"Cardiff","state":"South Glamorgan","zip":"CF14 4XW","country":"United Kingdom","geoPoint":{"lat":51.48,"lon":-3.18}},{"facility":"Royal Victoria Infirmary","status":"RECRUITING","city":"Newcastle upon Tyne","zip":"NE1 4LP","country":"United Kingdom","geoPoint":{"lat":54.97328,"lon":-1.61396}}]}},"derivedSection":{"miscInfoModule":{"versionHolder":"2026-02-25"},"conditionBrowseModule":{"meshes":[{"id":"D004828","term":"Epilepsies, Partial"},{"id":"D004827","term":"Epilepsy"},{"id":"D012640","term":"Seizures"},{"id":"D000069279","term":"Drug Resistant Epilepsy"}],"ancestors":[{"id":"D001927","term":"Brain Diseases"},{"id":"D002493","term":"Central Nervous System Diseases"},{"id":"D009422","term":"Nervous System Diseases"},{"id":"D009461","term":"Neurologic Manifestations"},{"id":"D012816","term":"Signs and Symptoms"},{"id":"D013568","term":"Pathological Conditions, Signs and Symptoms"}]}},"hasResults":false}