{"protocolSection":{"identificationModule":{"nctId":"NCT05568095","orgStudyIdInfo":{"id":"STAR-221"},"secondaryIdInfos":[{"id":"jRCT2051220179","type":"REGISTRY","domain":"Japan Registry of Clinical Trials"},{"id":"MOH_2023-04-30_012590","type":"REGISTRY","domain":"Israel Clinical Research Site - MyTrials"},{"id":"CTR20233469","type":"REGISTRY","domain":"China: Drug Clinical Trial Registration and Information Disclosure Platform"},{"id":"CTR20233470","type":"REGISTRY","domain":"China: Drug Clinical Trial Registration and Information Disclosure Platform"},{"id":"2023-507522-16-00","type":"OTHER","domain":"EMA: Clinical Trials Information System (CTIS)"}],"organization":{"fullName":"Arcus Biosciences, Inc.","class":"INDUSTRY"},"briefTitle":"A Clinical Trial of a New Combination Treatment, Domvanalimab and Zimberelimab, Plus Chemotherapy, for People With an Upper Gastrointestinal Tract Cancer That Cannot be Removed With Surgery That Has Spread to Other Parts of the Body","officialTitle":"A Randomized, Open-Label, Multicenter Phase 3 Trial of Domvanalimab, Zimberelimab, and Chemotherapy Versus Nivolumab and Chemotherapy in Participants With Previously Untreated Locally Advanced Unresectable or Metastatic Gastric, Gastroesophageal Junction, and Esophageal Adenocarcinoma","acronym":"STAR-221"},"statusModule":{"statusVerifiedDate":"2025-04","overallStatus":"ACTIVE_NOT_RECRUITING","expandedAccessInfo":{"hasExpandedAccess":false},"startDateStruct":{"date":"2022-11-21","type":"ACTUAL"},"primaryCompletionDateStruct":{"date":"2026-06","type":"ESTIMATED"},"completionDateStruct":{"date":"2026-06","type":"ESTIMATED"},"studyFirstSubmitDate":"2022-10-03","studyFirstSubmitQcDate":"2022-10-03","studyFirstPostDateStruct":{"date":"2022-10-05","type":"ACTUAL"},"lastUpdateSubmitDate":"2026-01-30","lastUpdatePostDateStruct":{"date":"2026-02-02","type":"ACTUAL"}},"sponsorCollaboratorsModule":{"responsibleParty":{"type":"SPONSOR"},"leadSponsor":{"name":"Arcus Biosciences, Inc.","class":"INDUSTRY"},"collaborators":[{"name":"Gilead Sciences","class":"INDUSTRY"},{"name":"Taiho Pharmaceutical Co., Ltd.","class":"INDUSTRY"}]},"oversightModule":{"oversightHasDmc":true,"isFdaRegulatedDrug":true,"isFdaRegulatedDevice":false},"descriptionModule":{"briefSummary":"This randomized Phase 3 open-label study will compare the efficacy of the T-cell immunoglobulin and immunoreceptor tyrosine-based inhibitory motif (ITIM) domain (TIGIT) monoclonal antibody domvanalimab, the anti programmed cell death protein 1 (PD-1) monoclonal antibody zimberelimab, and multiagent chemotherapy versus the anti PD-1 monoclonal antibody nivolumab and multiagent chemotherapy in the first-line treatment of participants with locally advanced unresectable or metastatic gastric, gastroesophageal junction (GEJ), and esophageal adenocarcinoma."},"conditionsModule":{"conditions":["Advanced Upper Gastrointestinal Tract Adenocarcinoma"],"keywords":["Domvanalimab","Zimberelimab","Nivolumab","Advanced upper gastrointestinal tract adenocarcinoma","Gastroesophageal junction cancer","Esophageal adenocarcinoma","Gastric cancer","Gastric adenocarcinoma"]},"designModule":{"studyType":"INTERVENTIONAL","phases":["PHASE3"],"designInfo":{"allocation":"RANDOMIZED","interventionModel":"PARALLEL","primaryPurpose":"TREATMENT","maskingInfo":{"masking":"NONE"}},"enrollmentInfo":{"count":1040,"type":"ACTUAL"}},"armsInterventionsModule":{"armGroups":[{"label":"Domvanalimab + Zimberelimab + FOLFOX/CAPOX (PI Choice)","type":"EXPERIMENTAL","description":"Participants in this arm will receive Domvanalimab and zimberelimab doses once every 4 weeks (Q4W) in addition to chemotherapy with FOLFOX (oxaliplatin, leucovorin, fluorouracil) once every 2 weeks (Q2W) or Domvanalimab and zimberelimab once every 3 weeks (Q3W) in addition to chemotherapy with CAPOX (capecitabine and oxaliplatin) Q3W.","interventionNames":["Drug: Domvanalimab","Drug: Zimberelimab","Drug: Capecitabine","Drug: Fluorouracil","Drug: Leucovorin","Drug: Oxaliplatin"]},{"label":"Nivolumab + FOLFOX/CAPOX (PI Choice)","type":"ACTIVE_COMPARATOR","description":"Participants in this arm will receive Nivolumab Q2W and FOLFOX Q2W or Nivolumab Q3W + CAPOX Q3W.","interventionNames":["Drug: Capecitabine","Drug: Fluorouracil","Drug: Leucovorin","Drug: Oxaliplatin","Drug: Nivolumab"]}],"interventions":[{"type":"DRUG","name":"Domvanalimab","description":"Intravenous (IV) Aqueous Solution","armGroupLabels":["Domvanalimab + Zimberelimab + FOLFOX/CAPOX (PI Choice)"],"otherNames":["AB154"]},{"type":"DRUG","name":"Zimberelimab","description":"IV Aqueous Solution","armGroupLabels":["Domvanalimab + Zimberelimab + FOLFOX/CAPOX (PI Choice)"],"otherNames":["AB122"]},{"type":"DRUG","name":"Capecitabine","description":"Oral Tablets","armGroupLabels":["Domvanalimab + Zimberelimab + FOLFOX/CAPOX (PI Choice)","Nivolumab + FOLFOX/CAPOX (PI Choice)"]},{"type":"DRUG","name":"Fluorouracil","description":"IV Aqueous Solution","armGroupLabels":["Domvanalimab + Zimberelimab + FOLFOX/CAPOX (PI Choice)","Nivolumab + FOLFOX/CAPOX (PI Choice)"]},{"type":"DRUG","name":"Leucovorin","description":"IV Aqueous Solution","armGroupLabels":["Domvanalimab + Zimberelimab + FOLFOX/CAPOX (PI Choice)","Nivolumab + FOLFOX/CAPOX (PI Choice)"]},{"type":"DRUG","name":"Oxaliplatin","description":"IV Aqueous Solution","armGroupLabels":["Domvanalimab + Zimberelimab + FOLFOX/CAPOX (PI Choice)","Nivolumab + FOLFOX/CAPOX (PI Choice)"]},{"type":"DRUG","name":"Nivolumab","description":"IV Aqueous Solution","armGroupLabels":["Nivolumab + FOLFOX/CAPOX (PI Choice)"]}]},"outcomesModule":{"primaryOutcomes":[{"measure":"Overall survival","timeFrame":"From date of randomization until date of death from any cause (Approximately 15 months)]"}],"secondaryOutcomes":[{"measure":"Progression-free survival (PFS)","timeFrame":"From date of randomization to date of the first documentation of disease progression or date of death from any cause, whichever comes first (Approximately 15 months)"},{"measure":"Objective response rate (ORR)","timeFrame":"Proportion of randomized participants who achieved a confirmed best overall response of complete response (CR) or partial response (PR) (Approximately 15 months)"},{"measure":"Duration of response (DOR)","timeFrame":"From the date of first confirmed response (CR or PR), until the date of first documented disease progression or date of death from any cause, whichever comes first (Approximately 15 months)"},{"measure":"Incidence and severity of adverse events (AEs) and serious adverse events (SAEs)","timeFrame":"From on or after the date of first dose of any study treatment to the date of last study treatment specific safety follow-up or date of initiation of subsequent systemic anti-cancer therapy, whichever occurs first (Approximately 15 months)"},{"measure":"Time to first symptom deterioration in the FACT-Ga gastric cancer subscale.","timeFrame":"From the date of randomization to change from baseline in subscale greater than or equal to the deterioration threshold, or death from any cause, whichever comes first (Approximately 15 months)"}]},"eligibilityModule":{"eligibilityCriteria":"Key Inclusion Criteria:\n\n* Capable of giving signed informed consent which is in compliance with the requirements and restrictions listed in the informed consent form (ICF) and in protocol.\n* Histologically confirmed diagnosis of locally advanced unresectable or metastatic gastric, GEJ, or esophageal adenocarcinoma.\n* Eastern Cooperative Oncology Group (ECOG) performance status of 0-1.\n* At least one measurable target lesion per Response Evaluation Criteria in Solid Tumors (RECIST) v1.1.\n\nKey Exclusion Criteria:\n\n* Underlying medical or psychiatric conditions that, in the investigator's or sponsor's opinion, will make the administration of study-specified therapy hazardous, including but not limited to:\n* Interstitial lung disease, including history of interstitial lung disease or non-infectious pneumonitis. Active viral, bacterial, or fungal infections requiring parenteral treatment within 14 days of randomization.\n* Clinically significant cardiovascular disease, such as New York Heart Association Class II or greater cardiac disease or cerebrovascular accident within 3 months prior to randomization, unstable angina, or new onset angina within 3 months prior to randomization, myocardial infarction within 6 months prior to randomization, or unstable arrhythmia within 3 months prior to randomization.\n* History of prior solid-organ transplantation, including allogenic bone marrow transplantation.\n* Dementia, psychiatric, or substance abuse disorders that would interfere with satisfying the requirements of the trial.\n* Known human epidermal growth factor receptor 2 (HER-2) positive tumor.\n* Known untreated, symptomatic, or actively progressing central nervous system (CNS) (brain) metastases. Participants with leptomeningeal metastases are excluded from enrollment.\n* Received prior systemic treatment for locally advanced unresectable or metastatic gastric, GEJ, or esophageal adenocarcinoma.\n* Disease progression within 6 months of completion of neoadjuvant or adjuvant therapy.\n\nNote: Other protocol defined Inclusion/Exclusion criteria may apply.","healthyVolunteers":false,"sex":"ALL","minimumAge":"18 Years","stdAges":["ADULT","OLDER_ADULT"]},"contactsLocationsModule":{"overallOfficials":[{"name":"Medical Director","affiliation":"Arcus Biosciences","role":"STUDY_DIRECTOR"}],"locations":[{"facility":"Genesis Cancer Center and Blood Institute - Hot Springs","city":"Hot Springs","state":"Arkansas","zip":"71913","country":"United States","geoPoint":{"lat":34.5037,"lon":-93.05518}},{"facility":"Kaiser Permanente - Los Angeles Medical Center","city":"Los Angeles","state":"California","zip":"90027","country":"United States","geoPoint":{"lat":34.05223,"lon":-118.24368}},{"facility":"Norris Comprehensive Cancer Center","city":"Los Angeles","state":"California","zip":"90033","country":"United States","geoPoint":{"lat":34.05223,"lon":-118.24368}},{"facility":"University of California Irvine Health Chao Family Comprehensive Cancer Center","city":"Orange","state":"California","zip":"92868","country":"United States","geoPoint":{"lat":33.78779,"lon":-117.85311}},{"facility":"UCLA Health - Santa Monica Cancer Care","city":"Santa Monica","state":"California","zip":"90404","country":"United States","geoPoint":{"lat":34.01949,"lon":-118.49138}},{"facility":"Yale Cancer Center","city":"New Haven","state":"Connecticut","zip":"06520","country":"United States","geoPoint":{"lat":41.30815,"lon":-72.92816}},{"facility":"Georgetown Lombardi Comprehensive Cancer Center","city":"Washington D.C.","state":"District of Columbia","zip":"22057","country":"United States","geoPoint":{"lat":38.89511,"lon":-77.03637}},{"facility":"SCRI - Florida Cancer Specialists - South Region Research Office","city":"Fort Myers","state":"Florida","zip":"33901","country":"United States","geoPoint":{"lat":26.62168,"lon":-81.84059}},{"facility":"SCRI - Florida Cancer Specialists - North Region Research Office","city":"St. Petersburg","state":"Florida","zip":"33705","country":"United States","geoPoint":{"lat":27.77086,"lon":-82.67927}},{"facility":"SCRI - Florida Cancer Specialists - Panhandle Research Office","city":"Tallahassee","state":"Florida","zip":"32308","country":"United States","geoPoint":{"lat":30.43826,"lon":-84.28073}},{"facility":"SCRI - Florida Cancer Specialists - East Region Research Office","city":"West Palm Beach","state":"Florida","zip":"33401","country":"United States","geoPoint":{"lat":26.71534,"lon":-80.05337}},{"facility":"University of Louisville James Graham Brown Cancer Center","city":"Louisville","state":"Kentucky","zip":"40202","country":"United States","geoPoint":{"lat":38.25424,"lon":-85.75941}},{"facility":"Norton Cancer Institute - Poplar Level Road","city":"Louisville","state":"Kentucky","zip":"40217","country":"United States","geoPoint":{"lat":38.25424,"lon":-85.75941}},{"facility":"Ochsner Cancer Institute","city":"New Orleans","state":"Louisiana","zip":"70121","country":"United States","geoPoint":{"lat":29.95465,"lon":-90.07507}},{"facility":"Massachusetts General Hospital","city":"Boston","state":"Massachusetts","zip":"02114","country":"United States","geoPoint":{"lat":42.35843,"lon":-71.05977}},{"facility":"University of Michigan Rogel Cancer Center","city":"Ann Arbor","state":"Michigan","zip":"48109","country":"United States","geoPoint":{"lat":42.27756,"lon":-83.74088}},{"facility":"HealthPartners Cancer Center at Regions Hospital","city":"Saint Louis Park","state":"Minnesota","zip":"55426","country":"United States","geoPoint":{"lat":44.9483,"lon":-93.34801}},{"facility":"Regions Hospital","city":"Saint Louis Park","state":"Minnesota","zip":"55426","country":"United States","geoPoint":{"lat":44.9483,"lon":-93.34801}},{"facility":"Perlmutter Cancer Ctr NYU","city":"Mineola","state":"New York","zip":"11501","country":"United States","geoPoint":{"lat":40.74927,"lon":-73.64068}},{"facility":"Perlmutter Cancer Center - 38th Street","city":"New York","state":"New York","zip":"10016","country":"United States","geoPoint":{"lat":40.71427,"lon":-74.00597}},{"facility":"Memorial Sloan Kettering Cancer Center - New York","city":"New York","state":"New York","zip":"10065","country":"United States","geoPoint":{"lat":40.71427,"lon":-74.00597}},{"facility":"Duke University Medical Center","city":"Durham","state":"North Carolina","zip":"27710","country":"United States","geoPoint":{"lat":35.99403,"lon":-78.89862}},{"facility":"Cleveland Clinic - Taussig Cancer Center","city":"Cleveland","state":"Ohio","zip":"44106","country":"United States","geoPoint":{"lat":41.4995,"lon":-81.69541}},{"facility":"University Hospitals Cleveland Medical Center","city":"Cleveland","state":"Ohio","zip":"44106","country":"United States","geoPoint":{"lat":41.4995,"lon":-81.69541}},{"facility":"Cleveland Clin - Fairview Hosp","city":"Cleveland","state":"Ohio","zip":"44111","country":"United States","geoPoint":{"lat":41.4995,"lon":-81.69541}},{"facility":"Mark H. Zangmeister Cancer Center","city":"Columbus","state":"Ohio","zip":"43219","country":"United States","geoPoint":{"lat":39.96118,"lon":-82.99879}},{"facility":"Cleveland Clin-Hillcrest Hosp","city":"Mayfield Heights","state":"Ohio","zip":"44124","country":"United States","geoPoint":{"lat":41.51922,"lon":-81.4579}},{"facility":"Prov Care Clinic - Westside","city":"Portland","state":"Oregon","zip":"97225","country":"United States","geoPoint":{"lat":45.52345,"lon":-122.67621}},{"facility":"Providence Cancer Center Oncology and Hematology Care Westside Portland","city":"Portland","state":"Oregon","zip":"97225","country":"United States","geoPoint":{"lat":45.52345,"lon":-122.67621}},{"facility":"Prisma Health Cancer Institute","city":"Greenville","state":"South Carolina","zip":"29605","country":"United States","geoPoint":{"lat":34.85262,"lon":-82.39401}},{"facility":"Tennessee Oncology - Chattanooga - Memorial Plaza","city":"Nashville","state":"Tennessee","zip":"37203","country":"United States","geoPoint":{"lat":36.16589,"lon":-86.78444}},{"facility":"Tennessee Oncology - Nashville - Centennial","city":"Nashville","state":"Tennessee","zip":"37203","country":"United States","geoPoint":{"lat":36.16589,"lon":-86.78444}},{"facility":"Vanderbilt - Ingram Cancer Center","city":"Nashville","state":"Tennessee","zip":"37232","country":"United States","geoPoint":{"lat":36.16589,"lon":-86.78444}},{"facility":"University of Texas Southwestern Medical Center","city":"Dallas","state":"Texas","zip":"75390","country":"United States","geoPoint":{"lat":32.78306,"lon":-96.80667}},{"facility":"The Center for Cancer & Blood Disorders - Fort Worth","city":"Fort Worth","state":"Texas","zip":"76104","country":"United States","geoPoint":{"lat":32.72541,"lon":-97.32085}},{"facility":"Harris Health System","city":"Houston","state":"Texas","zip":"77054","country":"United States","geoPoint":{"lat":29.76328,"lon":-95.36327}},{"facility":"USOR - Virginia Cancer Specialists - Fairfax Office","city":"Fairfax","state":"Virginia","zip":"22031","country":"United States","geoPoint":{"lat":38.84622,"lon":-77.30637}},{"facility":"Fred Hutchinson Cancer Center - Seattle Cancer Care Alliance (SCCA) Location","city":"Seattle","state":"Washington","zip":"98109","country":"United States","geoPoint":{"lat":47.60621,"lon":-122.33207}},{"facility":"Froedtert Clinical Cancer Center","city":"Milwaukee","state":"Wisconsin","zip":"53226","country":"United States","geoPoint":{"lat":43.0389,"lon":-87.90647}},{"facility":"Hospital Británico de Buenos Aires","city":"Buenos Aires","country":"Argentina","geoPoint":{"lat":-34.61315,"lon":-58.37723}},{"facility":"CORI","city":"La Rioja","country":"Argentina","geoPoint":{"lat":-29.41328,"lon":-66.85637}},{"facility":"Instituto de Investigaciones Clínicas Mar del Plata","city":"Mar del Plata","country":"Argentina","geoPoint":{"lat":-38.00042,"lon":-57.5562}},{"facility":"Monash University","city":"Clayton","country":"Australia","geoPoint":{"lat":-37.91667,"lon":145.11667}},{"facility":"Gosford Hospital","city":"Gosford","country":"Australia","geoPoint":{"lat":-33.4244,"lon":151.34399}},{"facility":"Liverpool Hospital","city":"Liverpool","country":"Australia","geoPoint":{"lat":-33.91938,"lon":150.92588}},{"facility":"Oncology West - Murdoch","city":"Murdoch","country":"Australia","geoPoint":{"lat":-32.06987,"lon":115.83757}},{"facility":"Fundação Pio XII - Hospital de Câncer de Barretos - Hospital de Amor","city":"Barretos","country":"Brazil","geoPoint":{"lat":-20.55722,"lon":-48.56778}},{"facility":"ONCOSITE - Centro de Pesquisa Clinica Em Oncologia Ltda.","city":"Ijuí","country":"Brazil","geoPoint":{"lat":-28.38778,"lon":-53.91472}},{"facility":"Liga Contra o Câncer - Centro Avançado de Oncologia","city":"Natal","country":"Brazil","geoPoint":{"lat":-5.795,"lon":-35.20944}},{"facility":"Hospital Ernesto Dornelles","city":"Porto Alegre","country":"Brazil","geoPoint":{"lat":-30.03283,"lon":-51.23019}},{"facility":"Instituto Nacional de Câncer - Brazil","city":"Rio de Janeiro","country":"Brazil","geoPoint":{"lat":-22.90642,"lon":-43.18223}},{"facility":"Queen Elizabeth II Health Sciences Centre-Victoria General","city":"Halifax","country":"Canada","geoPoint":{"lat":44.64269,"lon":-63.57688}},{"facility":"Hôpital Notre-Dame","city":"Montreal","country":"Canada","geoPoint":{"lat":45.50884,"lon":-73.58781}},{"facility":"Ottawa Hospital - General Campus","city":"Ottawa","country":"Canada","geoPoint":{"lat":45.41117,"lon":-75.69812}},{"facility":"Princess Margaret Cancer Centre","city":"Toronto","country":"Canada","geoPoint":{"lat":43.70643,"lon":-79.39864}},{"facility":"Sunnybrook Health Sciences Centre - Bayview Campus","city":"Toronto","country":"Canada","geoPoint":{"lat":43.70643,"lon":-79.39864}},{"facility":"Icegclinic","city":"La Florida","country":"Chile","geoPoint":{"lat":-35.2782,"lon":-72.22631}},{"facility":"Hospital Puerto Montt","city":"Port Montt","country":"Chile","geoPoint":{"lat":-41.4693,"lon":-72.94237}},{"facility":"Oncovida - Santiago","city":"Providencia","country":"Chile","geoPoint":{"lat":-33.43107,"lon":-70.60454}},{"facility":"Bradford Hill Centro de Investigaciones Clinicas","city":"Recoleta","country":"Chile","geoPoint":{"lat":-33.41667,"lon":-70.65}},{"facility":"Centro de Estudios Clínicos SAGA","city":"Santiago","country":"Chile","geoPoint":{"lat":-33.45694,"lon":-70.64827}},{"facility":"Pontificia Universidad Catolica de Chile - Escuela De Medicina - Clinica UC San Carlos de Apoq","city":"Santiago","country":"Chile","geoPoint":{"lat":-33.45694,"lon":-70.64827}},{"facility":"Clínica Universidad Católica del Maule - Talca","city":"Talca","country":"Chile","geoPoint":{"lat":-35.4232,"lon":-71.64974}},{"facility":"Guangdong PR People's Hospital","city":"Guangzhou","country":"China","geoPoint":{"lat":23.11667,"lon":113.25}},{"facility":"Sun Yat-Sen Cancer Center","city":"Guangzhou","country":"China","geoPoint":{"lat":23.11667,"lon":113.25}},{"facility":"Hainan General Hospital","city":"Haikou","country":"China","geoPoint":{"lat":20.03421,"lon":110.34651}},{"facility":"Sir Run Run Shaw Hospital","city":"Hangzhou","country":"China","geoPoint":{"lat":30.29365,"lon":120.16142}},{"facility":"Zhejiang Cancer Hospital","city":"Hangzhou","country":"China","geoPoint":{"lat":30.29365,"lon":120.16142}},{"facility":"Anhui Provincial Hospital","city":"Hefei","country":"China","geoPoint":{"lat":31.86389,"lon":117.28083}},{"facility":"Shanghai East Hospital","city":"Shanghai","country":"China","geoPoint":{"lat":31.22222,"lon":121.45806}},{"facility":"Tianjin Cancer Hospital","city":"Tianjin","country":"China","geoPoint":{"lat":39.14222,"lon":117.17667}},{"facility":"Qinghai UNV Afl Hospital","city":"Xining","country":"China","geoPoint":{"lat":36.62554,"lon":101.75739}},{"facility":"Henan Cancer Hospital","city":"Zhengzhou","country":"China","geoPoint":{"lat":34.75778,"lon":113.64861}},{"facility":"Institut Bergonié","city":"Bordeaux","country":"France","geoPoint":{"lat":44.84124,"lon":-0.58046}},{"facility":"Hôpital Morvan","city":"Brest","country":"France","geoPoint":{"lat":48.39029,"lon":-4.48628}},{"facility":"Centre de Lutte contre le Cancer - François Baclesse","city":"Caen","country":"France","geoPoint":{"lat":49.18585,"lon":-0.35912}},{"facility":"Hôpital Claude Huriez","city":"Lille","country":"France","geoPoint":{"lat":50.63391,"lon":3.05512}},{"facility":"Centre Léon Bérard","city":"Lyon","country":"France","geoPoint":{"lat":45.74906,"lon":4.84789}},{"facility":"Hôpital de la Timone","city":"Marseille","country":"France","geoPoint":{"lat":43.29695,"lon":5.38107}},{"facility":"Institut Régional du Cancer de Montpellier","city":"Montpellier","country":"France","geoPoint":{"lat":43.61093,"lon":3.87635}},{"facility":"Centre Armoricain de Radiothérapie, d'Imagerie Médicale et d'Oncologie","city":"Plérin","country":"France","geoPoint":{"lat":48.53451,"lon":-2.76975}},{"facility":"Centre Hospitalier Universitaire de Poitiers","city":"Poitiers","country":"France","geoPoint":{"lat":46.58261,"lon":0.34348}},{"facility":"CHU de Toulouse - Hopital Rangueil","city":"Toulouse","country":"France","geoPoint":{"lat":43.60426,"lon":1.44367}},{"facility":"Institut Gustave Roussy","city":"Villejuif","country":"France","geoPoint":{"lat":48.7939,"lon":2.35992}},{"facility":"Evex Hospitals - Kutaisi Referral Hospital","city":"Kutaisi","zip":"4600","country":"Georgia","geoPoint":{"lat":42.26791,"lon":42.69459}},{"facility":"LLC Todua Clinic","city":"Tbilisi","zip":"112","country":"Georgia","geoPoint":{"lat":41.69143,"lon":44.83412}},{"facility":"Ltd Tbilisi State Medical University and Ingorokva High Medical Technology University Clinic","city":"Tbilisi","zip":"144","country":"Georgia","geoPoint":{"lat":41.69143,"lon":44.83412}},{"facility":"New Vision University Hospital","city":"Tbilisi","zip":"159","country":"Georgia","geoPoint":{"lat":41.69143,"lon":44.83412}},{"facility":"Multi-profile Clinic \"New Hospitals\"","city":"Tbilisi","zip":"186","country":"Georgia","geoPoint":{"lat":41.69143,"lon":44.83412}},{"facility":"Clínica Privada Dr. Rixci Ramírez","city":"Guatemala City","country":"Guatemala","geoPoint":{"lat":14.64072,"lon":-90.51327}},{"facility":"Grupo Medico Angeles","city":"Guatemala City","country":"Guatemala","geoPoint":{"lat":14.64072,"lon":-90.51327}},{"facility":"INTEGRA Cancer Institute","city":"Guatemala City","country":"Guatemala","geoPoint":{"lat":14.64072,"lon":-90.51327}},{"facility":"Medi-k Cayalá","city":"Guatemala City","country":"Guatemala","geoPoint":{"lat":14.64072,"lon":-90.51327}},{"facility":"Centro Regional de Sub Especialidades Médicas (CRESEM) SA","city":"Quetzaltenango","country":"Guatemala","geoPoint":{"lat":14.84462,"lon":-91.52316}},{"facility":"Hong Kong Sanatorium and Hosp","city":"Happy Valley","country":"Hong Kong","geoPoint":{"lat":22.26912,"lon":114.18619}},{"facility":"Humanity & Health Clinical Trial Centre","city":"Hong Kong","country":"Hong Kong","geoPoint":{"lat":22.27832,"lon":114.17469}},{"facility":"Queen Mary Hospital - Hong Kong","city":"Hong Kong","country":"Hong Kong","geoPoint":{"lat":22.27832,"lon":114.17469}},{"facility":"Tuen Mun Hospital","city":"Tuenmen","country":"Hong Kong","geoPoint":{"lat":22.39175,"lon":113.97157}},{"facility":"Dél-pesti Centrumkórház - Országos Hematológiai és Infektológiai Intézet","city":"Budapest","country":"Hungary","geoPoint":{"lat":47.49835,"lon":19.04045}},{"facility":"Országos Onkológiai Intézet","city":"Budapest","country":"Hungary","geoPoint":{"lat":47.49835,"lon":19.04045}},{"facility":"Bács-Kiskun Megyei Oktatókórház - Kecskemét","city":"Kecskemét","country":"Hungary","geoPoint":{"lat":46.90618,"lon":19.69128}},{"facility":"Pécsi Tudományegyetem Klinikai Központ","city":"Pécs","country":"Hungary","geoPoint":{"lat":46.07617,"lon":18.22814}},{"facility":"Hadassah University Hospital Ein Kerem","city":"Jerusalem","country":"Israel","geoPoint":{"lat":31.76904,"lon":35.21633}},{"facility":"Shaare Zedek Medical Center","city":"Jerusalem","country":"Israel","geoPoint":{"lat":31.76904,"lon":35.21633}},{"facility":"Davidoff Cancer Center","city":"Petah Tikva","country":"Israel","geoPoint":{"lat":32.08707,"lon":34.88747}},{"facility":"Tel Aviv Sourasky Medical Center","city":"Tel Aviv","country":"Israel","geoPoint":{"lat":32.08088,"lon":34.78057}},{"facility":"Azienda Ospedaliero - Universitaria Careggi","city":"Florence","country":"Italy","geoPoint":{"lat":43.77925,"lon":11.24626}},{"facility":"Istituto di Ricovero e Cura a Carattere Scientifico (IRCCS) - Ospedale San Raffaele","city":"Milan","country":"Italy","geoPoint":{"lat":45.46427,"lon":9.18951}},{"facility":"Istituto Europeo di Oncologia","city":"Milan","country":"Italy","geoPoint":{"lat":42.78235,"lon":12.59836}},{"facility":"Ospedale Santa Maria Croci","city":"Ravenna","country":"Italy","geoPoint":{"lat":44.41344,"lon":12.20121}},{"facility":"Istituto di Ricovero e Cura a Carattere Scientifico (IRCCS) - Istituto Clinico Humanitas","city":"Rozzano","country":"Italy","geoPoint":{"lat":45.38193,"lon":9.1559}},{"facility":"Azienda Sanitaria Universitaria Friuli Centrale ? P.O. Santa Maria della Misericordia","city":"Udine","country":"Italy","geoPoint":{"lat":46.0693,"lon":13.23715}},{"facility":"Hyogo Cancer Center","city":"Akashi","country":"Japan","geoPoint":{"lat":34.65524,"lon":135.00687}},{"facility":"Tokyo Metro Ctr","city":"Bunkyō City","country":"Japan","geoPoint":{"lat":35.5331,"lon":139.4217}},{"facility":"University of Tokyo Hospital","city":"Bunkyō City","country":"Japan","geoPoint":{"lat":35.5331,"lon":139.4217}},{"facility":"Chiba Cancer Center","city":"Chiba","country":"Japan","geoPoint":{"lat":35.6,"lon":140.11667}},{"facility":"Kyushu Cancer Center","city":"Fukuoka","country":"Japan","geoPoint":{"lat":33.6,"lon":130.41667}},{"facility":"Nat Cancer Ctr-Kashiwa Campus","city":"Kashiwa-shi","country":"Japan"},{"facility":"St. Marianna Uni Hosp","city":"Kawasaki","country":"Japan","geoPoint":{"lat":35.52056,"lon":139.71722}},{"facility":"Cancer Inst Hosp of JFCR","city":"Kōtō City","country":"Japan","geoPoint":{"lat":32.77856,"lon":130.74537}},{"facility":"Kumamoto University Hospital","city":"Kumamoto","country":"Japan","geoPoint":{"lat":32.80589,"lon":130.69181}},{"facility":"Shikoku Cancer Center","city":"Matsuyama","country":"Japan","geoPoint":{"lat":33.83916,"lon":132.76574}},{"facility":"Shizuoka Cancer Center","city":"Nagaizumi-cho","country":"Japan"},{"facility":"Niigata Cancer Center Hospital","city":"Niigata","country":"Japan","geoPoint":{"lat":37.92259,"lon":139.04125}},{"facility":"Osaka Prefectural Hosp Org","city":"Osaka","country":"Japan","geoPoint":{"lat":34.69379,"lon":135.50107}},{"facility":"Kindai University Hospital","city":"Osakasayama-shi","country":"Japan"},{"facility":"Gunma Prefectural Cancer Ctr","city":"Ota-shi","country":"Japan"},{"facility":"Saitama Cancer Center","city":"Saitama","country":"Japan","geoPoint":{"lat":35.90807,"lon":139.65657}},{"facility":"National Cancer Ctr Hosp","city":"Tokyo","country":"Japan","geoPoint":{"lat":35.6895,"lon":139.69171}},{"facility":"Kanagawa Cancer Center","city":"Yokohama","country":"Japan","geoPoint":{"lat":35.43333,"lon":139.65}},{"facility":"Kauno Klinikos","city":"Kaunas","country":"Lithuania","geoPoint":{"lat":54.90156,"lon":23.90909}},{"facility":"Klaipedos Universitetine Ligonine","city":"Klaipėda","country":"Lithuania","geoPoint":{"lat":55.7068,"lon":21.13912}},{"facility":"Nacionalinis Vėžio Institutas","city":"Vilnius","country":"Lithuania","geoPoint":{"lat":54.68916,"lon":25.2798}},{"facility":"Vilniaus Universiteto Ligoninė Santariškių Klinikos","city":"Vilnius","country":"Lithuania","geoPoint":{"lat":54.68916,"lon":25.2798}},{"facility":"Hospital Pulau Pinang","city":"George Town","country":"Malaysia","geoPoint":{"lat":5.41123,"lon":100.33543}},{"facility":"Hospital Kuala Lumpur","city":"Kuala Lumpur","country":"Malaysia","geoPoint":{"lat":3.1412,"lon":101.68653}},{"facility":"Pusat Perubatan Universiti Malaya","city":"Kuala Lumpur","country":"Malaysia","geoPoint":{"lat":3.1412,"lon":101.68653}},{"facility":"Hospital Umum Sarawak","city":"Kuching","country":"Malaysia","geoPoint":{"lat":1.55,"lon":110.33333}},{"facility":"CLIMERS Clinical Medical Research","city":"Colonia Centro","zip":"94300","country":"Mexico","geoPoint":{"lat":28.82333,"lon":-111.94062}},{"facility":"Centro Especializado en Investigacion y Tratamiento Oncologicos SC","city":"Mexico City","zip":"3100","country":"Mexico","geoPoint":{"lat":19.42847,"lon":-99.12766}},{"facility":"Centro de Atención e Investigación Clínica en Oncología","city":"Mérida","zip":"97134","country":"Mexico","geoPoint":{"lat":20.967,"lon":-89.62318}},{"facility":"Hospital Zambrano Hellion TecSalud","city":"San Pedro Garza García","zip":"66278","country":"Mexico","geoPoint":{"lat":25.6604,"lon":-100.40651}},{"facility":"Centro Hemato - Oncológico Privado (CHOP)","city":"Toluca","zip":"50120","country":"Mexico","geoPoint":{"lat":19.28786,"lon":-99.65324}},{"facility":"Hosp Nacional Daniel Carrion","city":"Bellavista","country":"Peru","geoPoint":{"lat":-7.05614,"lon":-76.5911}},{"facility":"SANNA - Clínica El Golf","city":"San Isidro","country":"Peru","geoPoint":{"lat":-12.09655,"lon":-77.04258}},{"facility":"Hospital Maria Auxiliadora","city":"San Juán de Miraflores","country":"Peru","geoPoint":{"lat":-11.93531,"lon":-75.41647}},{"facility":"Instituto Nacional de Enfermedades Neoplásicas","city":"Surquillo","country":"Peru","geoPoint":{"lat":-5.80111,"lon":-77.26889}},{"facility":"Dr Pablo O. Torre Memorial Hospital - Riverside Medical Center","city":"Bacolod City","country":"Philippines","geoPoint":{"lat":10.66667,"lon":122.95}},{"facility":"Baguio General Hospital and Medical Center","city":"Baguio City","country":"Philippines","geoPoint":{"lat":16.41639,"lon":120.59306}},{"facility":"Cebu Doctors' University Hospital","city":"Cebu City","country":"Philippines","geoPoint":{"lat":10.31672,"lon":123.89071}},{"facility":"Manila Doctors Hospital","city":"Manila","country":"Philippines","geoPoint":{"lat":14.6042,"lon":120.9822}},{"facility":"Centrum Onkologii Ziemi Lubelskiej im. św. Jana z Dukli","city":"Lublin","country":"Poland","geoPoint":{"lat":51.25058,"lon":22.57009}},{"facility":"Samodzielny Publiczny Szpital Kliniczny nr 1 w Lublinie","city":"Lublin","country":"Poland","geoPoint":{"lat":51.25058,"lon":22.57009}},{"facility":"Szpital Miejski w Tychach","city":"Tychy","country":"Poland","geoPoint":{"lat":50.13717,"lon":18.96641}},{"facility":"Narodowy Instytut Onkologii im. Marii Skłodowskiej-Curie - Państwowy Instytut Badawczy","city":"Warsaw","country":"Poland","geoPoint":{"lat":52.22977,"lon":21.01178}},{"facility":"Centro Hospitalar e Universitário de Coimbra","city":"Coimbra","country":"Portugal","geoPoint":{"lat":40.20686,"lon":-8.41996}},{"facility":"Fundação D. Anna de Sommer Champalimaud e Dr. Carlos Montez Champalimaud","city":"Lisbon","country":"Portugal","geoPoint":{"lat":38.72509,"lon":-9.1498}},{"facility":"Instituto Português de Oncologia do Porto Francisco Gentil","city":"Porto","country":"Portugal","geoPoint":{"lat":41.1485,"lon":-8.61097}},{"facility":"Spitalul Judetean de Urgenta","city":"Baia Mare","country":"Romania","geoPoint":{"lat":47.65729,"lon":23.56808}},{"facility":"Institutul Clinic Fundeni","city":"Bucharest","country":"Romania","geoPoint":{"lat":44.43225,"lon":26.10626}},{"facility":"Institutul Oncologic Prof. Dr. Ion Chiricuta","city":"Cluj-Napoca","country":"Romania","geoPoint":{"lat":46.76667,"lon":23.6}},{"facility":"Medisprof","city":"Cluj-Napoca","country":"Romania","geoPoint":{"lat":46.76667,"lon":23.6}},{"facility":"Centrul De Oncologie Sf Nectarie","city":"Craiova","country":"Romania","geoPoint":{"lat":44.31667,"lon":23.8}},{"facility":"Centrul de Radioterapie Amethyst Cluj","city":"Florești","country":"Romania","geoPoint":{"lat":44.51313,"lon":25.69658}},{"facility":"Centrul de Oncologie Euroclinic","city":"Iași","country":"Romania","geoPoint":{"lat":47.16667,"lon":27.6}},{"facility":"Clinica SIGMedical","city":"Suceava","country":"Romania","geoPoint":{"lat":47.63333,"lon":26.25}},{"facility":"Institute of Oncology and Radiology of Serbia (Institut za onkologiju i radiologiju Srbije)","city":"Belgrade","country":"Serbia","geoPoint":{"lat":44.80401,"lon":20.46513}},{"facility":"University Hospital Medical Center (KBC) Bezanijska Kosa","city":"Belgrade","country":"Serbia","geoPoint":{"lat":44.80401,"lon":20.46513}},{"facility":"Clinical Center Kragujevac","city":"Kragujevac","country":"Serbia","geoPoint":{"lat":44.01667,"lon":20.91667}},{"facility":"Dong-A University Hospital","city":"Busan","country":"South Korea","geoPoint":{"lat":35.10168,"lon":129.03004}},{"facility":"Kyungpook Nat Uni Chilgok","city":"Daegu","country":"South Korea","geoPoint":{"lat":35.87028,"lon":128.59111}},{"facility":"Cha Bundang Medical Center","city":"Seongnam","country":"South Korea","geoPoint":{"lat":35.54127,"lon":127.39683}},{"facility":"Asan Medical Center","city":"Seoul","country":"South Korea","geoPoint":{"lat":37.566,"lon":126.9784}},{"facility":"Korea University Guro Hospital","city":"Seoul","country":"South Korea","geoPoint":{"lat":37.566,"lon":126.9784}},{"facility":"Samsung Medical Center","city":"Seoul","country":"South Korea","geoPoint":{"lat":37.566,"lon":126.9784}},{"facility":"Seoul Nat Uni Hospital","city":"Seoul","country":"South Korea","geoPoint":{"lat":37.566,"lon":126.9784}},{"facility":"Severance Hospital","city":"Seoul","country":"South Korea","geoPoint":{"lat":37.566,"lon":126.9784}},{"facility":"Hospital Universitari Vall d'Hebrón","city":"Barcelona","country":"Spain","geoPoint":{"lat":41.38879,"lon":2.15899}},{"facility":"Institut Català d'Oncologia - Hospital Duran i Reynals (ICO L'Hospitalet)","city":"Barcelona","country":"Spain","geoPoint":{"lat":41.38879,"lon":2.15899}},{"facility":"Hospital General Universitario Gregorio Marañón","city":"Madrid","country":"Spain","geoPoint":{"lat":40.4165,"lon":-3.70256}},{"facility":"Hospital Universitario HM Sanchinarro","city":"Madrid","country":"Spain","geoPoint":{"lat":40.4165,"lon":-3.70256}},{"facility":"Hospital Universitario Ramón y Cajal","city":"Madrid","country":"Spain","geoPoint":{"lat":40.4165,"lon":-3.70256}},{"facility":"Hospital Universitario Marqués de Valdecilla","city":"Santander","country":"Spain","geoPoint":{"lat":43.46589,"lon":-3.80493}},{"facility":"Hospital Clínico Universitario de Valencia","city":"Valencia","country":"Spain","geoPoint":{"lat":39.47391,"lon":-0.37966}},{"facility":"Hospital Universitario Miguel Servet","city":"Zaragoza","country":"Spain","geoPoint":{"lat":41.65606,"lon":-0.87734}},{"facility":"Faculty of Medicine Siriraj Hospital","city":"Bang Phlat","country":"Thailand","geoPoint":{"lat":13.79425,"lon":100.50447}},{"facility":"Songklanagarind Hospital","city":"Hat Yai","country":"Thailand","geoPoint":{"lat":7.00836,"lon":100.47668}},{"facility":"Sunpasitthiprasong Hospital","city":"Ubon Ratchathani","country":"Thailand","geoPoint":{"lat":15.23844,"lon":104.84866}},{"facility":"T.C. Saglik Bakanligi Adana Sehir Egitim ve Arastirma Hastanesi","city":"Adana","country":"Turkey (Türkiye)","geoPoint":{"lat":36.98615,"lon":35.32531}},{"facility":"Memorial Ankara Hastanesi","city":"Ankara","country":"Turkey (Türkiye)","geoPoint":{"lat":39.91987,"lon":32.85427}},{"facility":"Trakya Universitesi Tip Fakultesi","city":"Edirne","country":"Turkey (Türkiye)","geoPoint":{"lat":41.67719,"lon":26.55597}},{"facility":"T.C. Saglik Bakanligi - Istanbul Il Saglik Mudurlugu - Goztepe Prof. Dr. Suleyman Yalcin Sehir Hastanesi","city":"Istanbul","country":"Turkey (Türkiye)","geoPoint":{"lat":41.01384,"lon":28.94966}},{"facility":"Kocaeli Üniversitesi Araştırma ve Uygulama Hastanesi","city":"İzmit","country":"Turkey (Türkiye)","geoPoint":{"lat":40.76499,"lon":29.92928}},{"facility":"Inönü Üniversitesi Turgut Özal Tıp Merkezi","city":"Malatya","country":"Turkey (Türkiye)","geoPoint":{"lat":38.35018,"lon":38.31667}},{"facility":"Ankara Üniversitesi Tıp Fakültesi - Cebeci Araştırma ve Uygulama Hastanesi","city":"Mamak","country":"Turkey (Türkiye)","geoPoint":{"lat":41.48859,"lon":32.36864}},{"facility":"Van Yüzüncü Yıl Üniversitesi Dursun Odabaş Tıp Merkezi","city":"Van","country":"Turkey (Türkiye)","geoPoint":{"lat":38.49457,"lon":43.38323}},{"facility":"Ataturk Universitesi Arastirma Hastanesi","city":"Yakutiye","country":"Turkey (Türkiye)","geoPoint":{"lat":39.89821,"lon":41.26916}},{"facility":"Başkent Üniversitesi Adana Dr Turgut Noyan Uygulama ve Araştirma Merkezi","city":"Yüreğir","country":"Turkey (Türkiye)","geoPoint":{"lat":36.97439,"lon":35.35916}},{"facility":"Barts Health NHS Trust","city":"London","country":"United Kingdom","geoPoint":{"lat":51.50853,"lon":-0.12574}},{"facility":"Sarah Cannon Research Institute London","city":"London","country":"United Kingdom","geoPoint":{"lat":51.50853,"lon":-0.12574}},{"facility":"The Royal Marsden NHS Foundation Trust","city":"London","country":"United Kingdom","geoPoint":{"lat":51.50853,"lon":-0.12574}},{"facility":"University College London Hospitals NHS Foundation Trust","city":"London","country":"United Kingdom","geoPoint":{"lat":51.50853,"lon":-0.12574}},{"facility":"The Christie NHS Foundation Trust","city":"Manchester","country":"United Kingdom","geoPoint":{"lat":53.48095,"lon":-2.23743}},{"facility":"Oxford University Hospitals NHS Foundation Trust","city":"Oxford","country":"United Kingdom","geoPoint":{"lat":51.75222,"lon":-1.25596}},{"facility":"The Royal Marsden NHS Foundation Trust","city":"Sutton","country":"United Kingdom","geoPoint":{"lat":51.35,"lon":-0.2}}]},"referencesModule":{"seeAlsoLinks":[{"label":"STAR-221 Public Website","url":"https://trials.arcusbio.com/study/?id=STAR-221"}]},"ipdSharingStatementModule":{"ipdSharing":"YES","description":"Arcus will provide access to individual de-identified participant data and related study documents \\[e.g. protocol, Statistical Analysis Plan (SAP), Clinical Study Report (CSR)\\] upon request from qualified researchers, and subject to certain criteria, conditions, and exceptions.\n\nFor more information, please visit our website.","infoTypes":["STUDY_PROTOCOL","SAP","CSR"],"url":"https://trials.arcusbio.com/our-transparency-policy"}},"derivedSection":{"miscInfoModule":{"versionHolder":"2026-02-25","removedCountries":["Greece"]},"conditionBrowseModule":{"meshes":[{"id":"C562730","term":"Adenocarcinoma Of Esophagus"},{"id":"D013274","term":"Stomach Neoplasms"}],"ancestors":[{"id":"D005770","term":"Gastrointestinal Neoplasms"},{"id":"D004067","term":"Digestive System Neoplasms"},{"id":"D009371","term":"Neoplasms by Site"},{"id":"D009369","term":"Neoplasms"},{"id":"D004066","term":"Digestive System Diseases"},{"id":"D005767","term":"Gastrointestinal Diseases"},{"id":"D013272","term":"Stomach Diseases"}]},"interventionBrowseModule":{"meshes":[{"id":"C000719848","term":"zimberelimab"},{"id":"D000069287","term":"Capecitabine"},{"id":"D005472","term":"Fluorouracil"},{"id":"D002955","term":"Leucovorin"},{"id":"D000077150","term":"Oxaliplatin"},{"id":"D000077594","term":"Nivolumab"}],"ancestors":[{"id":"D003841","term":"Deoxycytidine"},{"id":"D003562","term":"Cytidine"},{"id":"D011741","term":"Pyrimidine Nucleosides"},{"id":"D011743","term":"Pyrimidines"},{"id":"D006573","term":"Heterocyclic Compounds, 1-Ring"},{"id":"D006571","term":"Heterocyclic Compounds"},{"id":"D014498","term":"Uracil"},{"id":"D011744","term":"Pyrimidinones"},{"id":"D003853","term":"Deoxyribonucleosides"},{"id":"D009705","term":"Nucleosides"},{"id":"D009706","term":"Nucleic Acids, Nucleotides, and Nucleosides"},{"id":"D005575","term":"Formyltetrahydrofolates"},{"id":"D013763","term":"Tetrahydrofolates"},{"id":"D005492","term":"Folic Acid"},{"id":"D011622","term":"Pterins"},{"id":"D011621","term":"Pteridines"},{"id":"D006574","term":"Heterocyclic Compounds, 2-Ring"},{"id":"D000072471","term":"Heterocyclic Compounds, Fused-Ring"},{"id":"D003067","term":"Coenzymes"},{"id":"D045762","term":"Enzymes and Coenzymes"},{"id":"D056831","term":"Coordination Complexes"},{"id":"D009930","term":"Organic Chemicals"},{"id":"D061067","term":"Antibodies, Monoclonal, Humanized"},{"id":"D000911","term":"Antibodies, Monoclonal"},{"id":"D000906","term":"Antibodies"},{"id":"D007136","term":"Immunoglobulins"},{"id":"D007162","term":"Immunoproteins"},{"id":"D001798","term":"Blood Proteins"},{"id":"D011506","term":"Proteins"},{"id":"D000602","term":"Amino Acids, Peptides, and Proteins"},{"id":"D012712","term":"Serum Globulins"},{"id":"D005916","term":"Globulins"}]}},"hasResults":false}