{"protocolSection":{"identificationModule":{"nctId":"NCT05668741","orgStudyIdInfo":{"id":"VX21-522-001"},"secondaryIdInfos":[{"id":"2022-000726-25","type":"EUDRACT_NUMBER"},{"id":"2023-504786-23-00","type":"OTHER","domain":"EU CT Number"}],"organization":{"fullName":"Vertex Pharmaceuticals Incorporated","class":"INDUSTRY"},"briefTitle":"A Phase 1/2 Study of VX-522 in Participants With Cystic Fibrosis (CF)","officialTitle":"A Phase 1/2 Dose Escalation Study Evaluating the Safety, and Tolerability and Efficacy of VX-522 in Subjects 18 Years of Age and Older With Cystic Fibrosis and a CFTR Genotype Not Responsive to CFTR Modulator Therapy"},"statusModule":{"statusVerifiedDate":"2025-09","overallStatus":"RECRUITING","expandedAccessInfo":{"hasExpandedAccess":false},"startDateStruct":{"date":"2023-02-27","type":"ACTUAL"},"primaryCompletionDateStruct":{"date":"2026-12-23","type":"ESTIMATED"},"completionDateStruct":{"date":"2027-05-12","type":"ESTIMATED"},"studyFirstSubmitDate":"2022-12-19","studyFirstSubmitQcDate":"2022-12-19","studyFirstPostDateStruct":{"date":"2022-12-30","type":"ACTUAL"},"lastUpdateSubmitDate":"2026-02-06","lastUpdatePostDateStruct":{"date":"2026-02-09","type":"ACTUAL"}},"sponsorCollaboratorsModule":{"responsibleParty":{"type":"SPONSOR"},"leadSponsor":{"name":"Vertex Pharmaceuticals Incorporated","class":"INDUSTRY"},"collaborators":[{"name":"Moderna, Inc","class":"UNKNOWN"}]},"oversightModule":{"isFdaRegulatedDrug":true,"isFdaRegulatedDevice":false},"descriptionModule":{"briefSummary":"The purpose of this study is to evaluate the safety, and tolerability and efficacy of VX-522 in participants 18 years of age and older with cystic fibrosis and a cystic fibrosis transmembrane conductance regulator (CFTR) genotype not responsive to CFTR modulator therapy."},"conditionsModule":{"conditions":["Cystic Fibrosis"]},"designModule":{"studyType":"INTERVENTIONAL","phases":["PHASE1","PHASE2"],"designInfo":{"allocation":"NA","interventionModel":"SEQUENTIAL","primaryPurpose":"TREATMENT","maskingInfo":{"masking":"NONE"}},"enrollmentInfo":{"count":39,"type":"ESTIMATED"}},"armsInterventionsModule":{"armGroups":[{"label":"Single Ascending Dose (SAD)","type":"EXPERIMENTAL","description":"Participants grouped into different cohorts will receive a single ascending dose of VX-522.","interventionNames":["Drug: VX-522 mRNA therapy"]},{"label":"Multiple Ascending Dose (MAD) Cohort 1: VX-522","type":"EXPERIMENTAL","description":"Participants will receive multiple ascending doses of VX-522.","interventionNames":["Drug: VX-522 mRNA therapy"]},{"label":"MAD Cohort 1: VX-522+ IVA","type":"EXPERIMENTAL","description":"Following run-in period with ivacaftor (IVA), participants will receive multiple ascending doses of VX-522 with IVA.","interventionNames":["Drug: VX-522 mRNA therapy","Drug: IVA"]},{"label":"MAD Cohort 2: VX-522+ IVA","type":"EXPERIMENTAL","description":"Following run-in period with ivacaftor (IVA), participants will receive multiple ascending doses of VX-522 with IVA.","interventionNames":["Drug: VX-522 mRNA therapy","Drug: IVA"]}],"interventions":[{"type":"DRUG","name":"VX-522 mRNA therapy","description":"Oral inhalation using nebulizer.","armGroupLabels":["MAD Cohort 1: VX-522+ IVA","MAD Cohort 2: VX-522+ IVA","Multiple Ascending Dose (MAD) Cohort 1: VX-522","Single Ascending Dose (SAD)"]},{"type":"DRUG","name":"IVA","description":"Tablet for oral administration.","armGroupLabels":["MAD Cohort 1: VX-522+ IVA","MAD Cohort 2: VX-522+ IVA"],"otherNames":["ivacaftor","VX-770"]}]},"outcomesModule":{"primaryOutcomes":[{"measure":"Safety and Tolerability as Assessed by Number of Participants With Adverse Events (AEs) and Serious Adverse Events (SAEs)","timeFrame":"From Day 1 Through Week 8 [SAD and MAD]"}],"secondaryOutcomes":[{"measure":"MAD: Change From Baseline in Percent Predicted Forced Expiratory Volume in 1 Second (ppFEV1)","timeFrame":"From Baseline at Day 29"},{"measure":"MAD: Safety and Tolerability as Assessed by Number of Participants With Adverse Events (AEs) and Serious Adverse Events (SAEs)","timeFrame":"From Day 1 Through Safety Follow-up Visit [up to Week 28]"}]},"eligibilityModule":{"eligibilityCriteria":"Key Inclusion Criteria:\n\n* Body mass index is less than (\\<) 30.0 kilograms per meter square (kg/m\\^2)\n* A total body weight greater than (\\>) 50 kg\n* Stable CF disease\n* CFTR gene mutations on both alleles that are not responsive to CFTR modulator therapy\n\n  o Example mutations include but are not limited to, mutations that do not produce CFTR protein (i.e., Class I): nonsense mutations (e.g., G542X, W1282X) and canonical splice mutations (e.g., 621+1G-\\>T)\n* Forced expiratory volume in 1 second (FEV1) value for SAD: greater than or equal to (≥)40 percent (%), MAD: ≥ 40% to less than or equal to (≤) 90%\n\nKey Exclusion Criteria:\n\n* History of uncontrolled asthma within a year prior to screening\n* History of solid organ or hematological transplantation\n* Hepatic cirrhosis with portal hypertension, moderate hepatic impairment (Child Pugh Score 7 to 9), or severe hepatic impairment (Child Pugh Score 10 to 15)\n* Arterial oxygen saturation on room air less than (\\<) 94% at screening\n\nOther protocol defined Inclusion/Exclusion criteria may apply.","healthyVolunteers":false,"sex":"ALL","minimumAge":"18 Years","maximumAge":"65 Years","stdAges":["ADULT","OLDER_ADULT"]},"contactsLocationsModule":{"centralContacts":[{"name":"Medical Information","role":"CONTACT","phone":"617-341-6777","email":"medicalinfo@vrtx.com"}],"locations":[{"facility":"University of Alabama at Birmingham - Child Health Research Unit","status":"RECRUITING","city":"Birmingham","state":"Alabama","zip":"35233","country":"United States","geoPoint":{"lat":33.52066,"lon":-86.80249}},{"facility":"Memorial Health Services on behalf of Long Beach Memorial Medical Center d/b/a Miller Children's Hospital Long Beach","status":"RECRUITING","city":"Long Beach","state":"California","zip":"90806","country":"United States","geoPoint":{"lat":33.76696,"lon":-118.18923}},{"facility":"Stanford University - Palo Alto - Pulmonology","status":"ACTIVE_NOT_RECRUITING","city":"Palo Alto","state":"California","zip":"94304","country":"United States","geoPoint":{"lat":37.44188,"lon":-122.14302}},{"facility":"National Jewish Health","status":"RECRUITING","city":"Denver","state":"Colorado","zip":"80206","country":"United States","geoPoint":{"lat":39.73915,"lon":-104.9847}},{"facility":"Shands Hospital - Pulmonology","status":"RECRUITING","city":"Gainesville","state":"Florida","zip":"32610","country":"United States","geoPoint":{"lat":29.65163,"lon":-82.32483}},{"facility":"Northwestern Memorial Hospital - Feinberg Pavilion","status":"ACTIVE_NOT_RECRUITING","city":"Chicago","state":"Illinois","zip":"60611","country":"United States","geoPoint":{"lat":41.85003,"lon":-87.65005}},{"facility":"Clinical & Translational Science Unit (CTSU) - Pulmonology","status":"RECRUITING","city":"Kansas City","state":"Kansas","zip":"66160","country":"United States","geoPoint":{"lat":39.11417,"lon":-94.62746}},{"facility":"PAREXEL International - Baltimore","status":"COMPLETED","city":"Baltimore","state":"Maryland","zip":"21225","country":"United States","geoPoint":{"lat":39.29038,"lon":-76.61219}},{"facility":"The Johns Hopkins University - Johns Hopkins Hospital - Pulmonology","status":"ACTIVE_NOT_RECRUITING","city":"Baltimore","state":"Maryland","zip":"21287","country":"United States","geoPoint":{"lat":39.29038,"lon":-76.61219}},{"facility":"MGH - MGfC Pediatric Cystic Fibrosis Center","status":"RECRUITING","city":"Boston","state":"Massachusetts","zip":"02114","country":"United States","geoPoint":{"lat":42.35843,"lon":-71.05977}},{"facility":"Boston Children's Hospital","status":"RECRUITING","city":"Boston","state":"Massachusetts","zip":"02115","country":"United States","geoPoint":{"lat":42.35843,"lon":-71.05977}},{"facility":"University of Minnesota -Pulmonology","status":"RECRUITING","city":"Minneapolis","state":"Minnesota","zip":"55455","country":"United States","geoPoint":{"lat":44.97997,"lon":-93.26384}},{"facility":"St. Louis Children's Hospital - Pulmonology","status":"COMPLETED","city":"St Louis","state":"Missouri","zip":"63110","country":"United States","geoPoint":{"lat":38.62727,"lon":-90.19789}},{"facility":"Medicine at East 85th Street","status":"RECRUITING","city":"New York","state":"New York","zip":"10028","country":"United States","geoPoint":{"lat":40.71427,"lon":-74.00597}},{"facility":"Presbyterian Hospital - Pulmonology","status":"RECRUITING","city":"New York","state":"New York","zip":"10032","country":"United States","geoPoint":{"lat":40.71427,"lon":-74.00597}},{"facility":"UC Health Holmes Hospital","status":"RECRUITING","city":"Cincinnati","state":"Ohio","zip":"45220","country":"United States","geoPoint":{"lat":39.12711,"lon":-84.51439}},{"facility":"UH Cleveland Medical Center - Pulmonology","status":"ACTIVE_NOT_RECRUITING","city":"Cleveland","state":"Ohio","zip":"44106","country":"United States","geoPoint":{"lat":41.4995,"lon":-81.69541}},{"facility":"Nationwide Children's Hospital","status":"ACTIVE_NOT_RECRUITING","city":"Columbus","state":"Ohio","zip":"43205","country":"United States","geoPoint":{"lat":39.96118,"lon":-82.99879}},{"facility":"Children's Hospital of Pittsburgh - Pulmonology","status":"RECRUITING","city":"Pittsburgh","state":"Pennsylvania","zip":"15224","country":"United States","geoPoint":{"lat":40.44062,"lon":-79.99589}},{"facility":"Medical University of South Carolina - Pulmonology","status":"ACTIVE_NOT_RECRUITING","city":"Charleston","state":"South Carolina","zip":"29425","country":"United States","geoPoint":{"lat":32.77632,"lon":-79.93275}},{"facility":"Vanderbilt Interventional Pulmonology","status":"RECRUITING","city":"Nashville","state":"Tennessee","zip":"37232","country":"United States","geoPoint":{"lat":36.16589,"lon":-86.78444}},{"facility":"Texas Children's Hospital - Wallace Tower - Pulmonology","status":"ACTIVE_NOT_RECRUITING","city":"Houston","state":"Texas","zip":"77030","country":"United States","geoPoint":{"lat":29.76328,"lon":-95.36327}},{"facility":"University of Utah Hospital - Pulmonology","status":"ACTIVE_NOT_RECRUITING","city":"Salt Lake City","state":"Utah","zip":"84132","country":"United States","geoPoint":{"lat":40.76078,"lon":-111.89105}},{"facility":"University of Wisconsin Hospital and Clinics","status":"RECRUITING","city":"Madison","state":"Wisconsin","zip":"53792","country":"United States","geoPoint":{"lat":43.07305,"lon":-89.40123}},{"facility":"The Alfred Hospital - Pulmonology","status":"RECRUITING","city":"Melbourne","country":"Australia","geoPoint":{"lat":-37.814,"lon":144.96332}},{"facility":"Universitair Ziekenhuis Gent","status":"RECRUITING","city":"Ghent","country":"Belgium","geoPoint":{"lat":51.05,"lon":3.71667}},{"facility":"University of Calgary Medical Clinic of the Foothills Medical Centre","status":"RECRUITING","city":"Calgary","country":"Canada","geoPoint":{"lat":51.05011,"lon":-114.08529}},{"facility":"IUCPQ Pavillon Recherche U-1771","status":"RECRUITING","city":"Québec","country":"Canada","geoPoint":{"lat":46.81228,"lon":-71.21454}},{"facility":"Ruhrlandklinik","status":"RECRUITING","city":"Essen","country":"Germany","geoPoint":{"lat":51.45657,"lon":7.01228}},{"facility":"IRCCS Istituto Giannina Gaslini-Ospedale Pediatrico - Pulmonology","status":"ACTIVE_NOT_RECRUITING","city":"Genova","country":"Italy","geoPoint":{"lat":45.21604,"lon":11.87211}},{"facility":"IRCSS Ospedale Pediatrico Bambino Gesu - Pulmonology","status":"RECRUITING","city":"Rome","country":"Italy","geoPoint":{"lat":41.89193,"lon":12.51133}},{"facility":"Centro Ricerche Cliniche di Verona S.r.l.","status":"RECRUITING","city":"Verona","country":"Italy","geoPoint":{"lat":45.43854,"lon":10.9938}},{"facility":"UMCU - Department of Pulmonology and Tuberculosis","status":"WITHDRAWN","city":"Utrecht","country":"Netherlands","geoPoint":{"lat":52.09083,"lon":5.12222}},{"facility":"Hospital Universitari Vall d´Hebron Servicio de Broncoscopia","status":"RECRUITING","city":"Barcelona","country":"Spain","geoPoint":{"lat":41.38879,"lon":2.15899}},{"facility":"Hospital Virgen del Rocio - Pulmonology","status":"ACTIVE_NOT_RECRUITING","city":"Seville","country":"Spain","geoPoint":{"lat":37.38283,"lon":-5.97317}},{"facility":"Hospital Universitario y Politecnico La Fe - Pulmonology","status":"RECRUITING","city":"Valencia","country":"Spain","geoPoint":{"lat":39.47391,"lon":-0.37966}},{"facility":"Karolinska University Hospital - Pulmonology","status":"RECRUITING","city":"Stockholm","country":"Sweden","geoPoint":{"lat":59.32938,"lon":18.06871}},{"facility":"Papworth Hospital NHS Foundation Trust","status":"COMPLETED","city":"Cambridge","country":"United Kingdom","geoPoint":{"lat":52.2,"lon":0.11667}},{"facility":"Queen Elizabeth University Hospital - Pulmonology","status":"COMPLETED","city":"Glasgow","country":"United Kingdom","geoPoint":{"lat":55.86515,"lon":-4.25763}},{"facility":"Royal Brompton Hospital","status":"RECRUITING","city":"London","country":"United Kingdom","geoPoint":{"lat":51.50853,"lon":-0.12574}},{"facility":"Wythenshawe Hospital - OPD","status":"RECRUITING","city":"Manchester","country":"United Kingdom","geoPoint":{"lat":53.48095,"lon":-2.23743}},{"facility":"All Wales Adult Cystic Fibrosis Centre, University Hospital Llandough","status":"RECRUITING","city":"Penarth","country":"United Kingdom","geoPoint":{"lat":51.4386,"lon":-3.17342}},{"facility":"University Hospital Southampton NHS Fountion - Southampton General Hospital","status":"RECRUITING","city":"Southampton","country":"United Kingdom","geoPoint":{"lat":50.90395,"lon":-1.40428}}]},"ipdSharingStatementModule":{"ipdSharing":"NO","description":"Details on Vertex data sharing criteria and process for requesting access can be found at: https://www.vrtx.com/our-science/clinical-trials-data-sharing/"}},"derivedSection":{"miscInfoModule":{"versionHolder":"2026-02-25"},"conditionBrowseModule":{"meshes":[{"id":"D003550","term":"Cystic Fibrosis"}],"ancestors":[{"id":"D010182","term":"Pancreatic Diseases"},{"id":"D004066","term":"Digestive System Diseases"},{"id":"D008171","term":"Lung Diseases"},{"id":"D012140","term":"Respiratory Tract Diseases"},{"id":"D030342","term":"Genetic Diseases, Inborn"},{"id":"D009358","term":"Congenital, Hereditary, and Neonatal Diseases and Abnormalities"},{"id":"D007232","term":"Infant, Newborn, Diseases"}]},"interventionBrowseModule":{"meshes":[{"id":"C545203","term":"ivacaftor"}]}},"hasResults":false}