{"protocolSection":{"identificationModule":{"nctId":"NCT02991469","orgStudyIdInfo":{"id":"DRI13926"},"secondaryIdInfos":[{"id":"U1111-1177-3584","type":"REGISTRY","domain":"ICTRP"},{"id":"2024-512701-11","type":"REGISTRY","domain":"CTIS"}],"organization":{"fullName":"Sanofi","class":"INDUSTRY"},"briefTitle":"A Repeated Dose-finding Study of Sarilumab in Children and Adolescents With Systemic Juvenile Idiopathic Arthritis (SKYPS)","officialTitle":"An Open-label, Sequential, Ascending, Repeated Dose-finding Study of Sarilumab, Administered With Subcutaneous (SC) Injection, in Children and Adolescents, Aged 1 to 17 Years, With Systemic Juvenile Idiopathic Arthritis (sJIA), Followed by an Extension Phase","acronym":"SKYPS"},"statusModule":{"statusVerifiedDate":"2025-12","overallStatus":"RECRUITING","expandedAccessInfo":{"hasExpandedAccess":false},"startDateStruct":{"date":"2018-08-09","type":"ACTUAL"},"primaryCompletionDateStruct":{"date":"2026-04-01","type":"ESTIMATED"},"completionDateStruct":{"date":"2029-02-19","type":"ESTIMATED"},"studyFirstSubmitDate":"2016-10-14","studyFirstSubmitQcDate":"2016-12-09","studyFirstPostDateStruct":{"date":"2016-12-13","type":"ESTIMATED"},"lastUpdateSubmitDate":"2025-12-23","lastUpdatePostDateStruct":{"date":"2025-12-24","type":"ACTUAL"}},"sponsorCollaboratorsModule":{"responsibleParty":{"type":"SPONSOR"},"leadSponsor":{"name":"Sanofi","class":"INDUSTRY"},"collaborators":[{"name":"Regeneron Pharmaceuticals","class":"INDUSTRY"}]},"oversightModule":{"oversightHasDmc":true,"isFdaRegulatedDrug":true,"isFdaRegulatedDevice":false},"descriptionModule":{"briefSummary":"Primary Objective:\n\nTo describe the pharmacokinetic (PK) profile of sarilumab in patients aged 1-17 years with Systemic Juvenile Idiopathic Arthritis (sJIA) in order to identify the dose and regimen for adequate treatment of this population.\n\nSecondary Objective:\n\nTo describe the pharmacodynamics (PD) profile, the efficacy, and the long term safety of sarilumab in patients with sJIA.","detailedDescription":"The total study duration per patient will be 166 weeks that will consist of a 4- week screening, a 12-week core treatment phase, a 144-week extension phase, and a 6-week post-treatment follow-up."},"conditionsModule":{"conditions":["Juvenile Idiopathic Arthritis"]},"designModule":{"studyType":"INTERVENTIONAL","phases":["PHASE2"],"designInfo":{"allocation":"NA","interventionModel":"SINGLE_GROUP","primaryPurpose":"TREATMENT","maskingInfo":{"masking":"NONE"}},"enrollmentInfo":{"count":51,"type":"ESTIMATED"}},"armsInterventionsModule":{"armGroups":[{"label":"Sarilumab","type":"EXPERIMENTAL","description":"Participants will receive one of two ascending doses (or an additional intermediate dose based on available data) of sarilumab by subcutaneous (SC) injection based on body weight. All the participants will receive the selected dose once the selected dose is identified. Sarilumab will be given during 12-week core treatment phase followed by a 144- week extension treatment phase.","interventionNames":["Drug: Sarilumab SAR153191 (REGN88)"]}],"interventions":[{"type":"DRUG","name":"Sarilumab SAR153191 (REGN88)","description":"Pharmaceutical form: Solution\n\nRoute of administration: Subcutaneous","armGroupLabels":["Sarilumab"]}]},"outcomesModule":{"primaryOutcomes":[{"measure":"Assessment of PK parameter: maximum serum concentration observed (Cmax)","timeFrame":"Up to Week 12"},{"measure":"Assessment of PK parameter: Area under the serum concentration versus time curve calculated using the trapezoidal method during a dose interval (AUC0-t)","timeFrame":"Up to Week 12"},{"measure":"Assessment of PK parameter: Concentration observed before treatment administration during repeated dosing (Ctrough)","timeFrame":"Up to Week 12"}],"secondaryOutcomes":[{"measure":"Number of patients with adverse events","timeFrame":"Core treatment phase: Up to Week 12. Extension phase: Up to Week 162"},{"measure":"Proportion of participants with local reactions after injection","timeFrame":"Core treatment phase: Up to Week 12. Extension phase: Up to Week 156"},{"measure":"Proportion of participants with Investigator Global Assessment (IGA) of disease activity below a defined value on 1-100 VAS scale","timeFrame":"Core treatment phase: Up to Week 12. Extension phase: At weeks 24, 48, and every 24 weeks up to Week 156"},{"measure":"Proportion of participants with Parent / patient Global Assessment (PGA) of well-being below a defined value on 1-100 VAS scale","timeFrame":"Core treatment phase: Up to Week 12. Extension phase: At weeks 24, 48, and every 24 weeks up to Week 156"},{"measure":"Proportion of participants with clinically inactive disease (CID)","timeFrame":"Core treatment phase: Up to Week 12. Extension phase: At weeks 24, 48, and every 24 weeks up to Week 156"},{"measure":"Changes in glucocorticoid use","timeFrame":"Core treatment phase: Up to Week 12. Extension phase: At weeks 24, 48, and every 24 weeks up to Week 156"},{"measure":"Juvenile Idiopathic Arthritis ACR30/50/70/90/100 (in the absence of fever) response rate","description":"Population according to the 2001 ILAR classification","timeFrame":"Core treatment phase: Up to Week 12. Extension phase: At weeks 24, 48, and every 24 weeks up to Week 156"},{"measure":"Change from baseline in individual JIA ACR components","description":"Population according to the 2001 ILAR classification","timeFrame":"Core treatment phase: Up to Week 12. Extension phase: At weeks 24, 48, and every 24 weeks up to Week 156"},{"measure":"Change from baseline in Systemic Juvenile Arthritis Disease Activity Score-10 (sJADAS-10)","description":"Population according to the 2001 ILAR classification","timeFrame":"Core treatment phase: Up to Week 12. Extension phase: At weeks 24, 48, and every 24 weeks up to Week 156"},{"measure":"Assessment of participants with disease-related symptoms","description":"Population according to the 2024 EULAR / PReS","timeFrame":"At Week 4"},{"measure":"Changes in IL-6 associated biomarkers","description":"Population according to the 2001 ILAR classification and the 2024 EULAR / PReS","timeFrame":"Up to Week 12"}]},"eligibilityModule":{"eligibilityCriteria":"Inclusion criteria :\n\n* Male and female patients aged ≥1 and ≤17 years (or country specified age requirement, ≥6 to ≤17 years for Russia) at the time of the screening visit.\n* Diagnosis of systemic JIA subtype according to the International Associations against Rheumatism (ILAR) 2001 Juvenile Idiopathic Arthritis (JIA) Classification Criteria OR According to 2024 EULAR/PReS recommendation at Screening.\n* Patient with an inadequate response to current treatment and considered as a candidate for a biologic disease modifying anti rheumatic drug (DMARD) as per investigator's judgment.\n\nExclusion criteria:\n\n* Body weight \\<10 kg or \\>60 kg for patients enrolled in the ascending dose cohorts, then body weight \\<10 kg for patients subsequently enrolled at the selected dose.\n* Uncontrolled severe systemic symptoms and/or Macrophage Activation Syndrome (MAS) within 6 months prior to screening.\n* History of or ongoing interstitial lung disease, pulmonary hypertension, pulmonary alveolar proteinosis.\n* If nonsteroidal anti-inflammatory drugs (NSAIDs) (including cyclo oxygenase-2 inhibitors \\[COX-2\\]) taken, dose stable for less than 2 weeks prior to the baseline visit and/or dosing prescribed outside of approved label.\n* If non-biologic DMARD taken, dose stable for less than 6 weeks prior to the baseline visit or at a dose exceeding the recommended dose as per local labeling.\n* If oral glucocorticoid taken, dose exceeding equivalent prednisone dose 1 mg/kg/day (or 60 mg/day) within 3 days prior to baseline.\n* Use of parenteral or intra-articular glucocorticoid injection within 4 weeks prior to baseline.\n* Prior treatment with anti-interleukin 6 (IL-6) or IL-6 receptor (IL-6R) antagonist therapies, including but not limited to tocilizumab or sarilumab.\n* Treatment with any biologic treatment for sJIA within 5 half-lives prior to the first dose of sarilumab (the required off treatment periods and procedures may vary according to local requirements).\n* Treatment with a Janus kinase inhibitor within 4 weeks prior to the first dose of sarilumab; and treatment with growth hormone within 4 weeks prior to the first dose of sarilumab (the required off treatment periods and procedures may vary according to local requirements).\n* Treatment with any investigational biologic or non-biologic product within 8 weeks or 5 half-lives prior to baseline, whichever is longer.\n* Exclusion related to tuberculosis.\n* Exclusion criteria related to past or current infection other than tuberculosis.\n* Any live, attenuated vaccine within 4 weeks prior to the baseline visit, such as varicella-zoster, oral polio, rubella vaccines. Killed or inactive vaccine may be permitted based on the Investigator's judgment.\n* Exclusion related to history of a systemic hypersensitivity reaction to any biologic drug and known hypersensitivity to any constituent of the product.\n* Laboratory abnormalities at the screening visit (identified by the central laboratory).\n* Severe cardiac disease due to sJIA.\n* Pregnant or breast-feeding female adolescent patients.\n\nThe above information is not intended to contain all considerations relevant to a patient's potential participation in a clinical trial.","healthyVolunteers":false,"sex":"ALL","minimumAge":"1 Year","maximumAge":"17 Years","stdAges":["CHILD"]},"contactsLocationsModule":{"centralContacts":[{"name":"Trial Transparency email recommended (Toll free for US & Canada)","role":"CONTACT","phone":"800-633-1610","phoneExt":"option 6","email":"Contact-Us@sanofi.com"}],"overallOfficials":[{"name":"Clinical Sciences & Operations","affiliation":"Sanofi","role":"STUDY_DIRECTOR"}],"locations":[{"facility":"Investigational Site Number : 0320004","status":"RECRUITING","city":"San Miguel de Tucumán","state":"Tucumán Province","zip":"T4000AXL","country":"Argentina","geoPoint":{"lat":-26.81601,"lon":-65.21051}},{"facility":"Investigational Site Number : 1240110","status":"RECRUITING","city":"Calgary","state":"Alberta","zip":"T3B 6A9","country":"Canada","geoPoint":{"lat":51.05011,"lon":-114.08529}},{"facility":"Investigational Site Number : 2460040","status":"RECRUITING","city":"Helsinki","zip":"00290","country":"Finland","geoPoint":{"lat":60.16952,"lon":24.93545}},{"facility":"Investigational Site Number : 2500041","status":"RECRUITING","city":"Bron","zip":"69500","country":"France","geoPoint":{"lat":45.73865,"lon":4.91303}},{"facility":"Investigational Site Number : 2500042","status":"RECRUITING","city":"Montpellier","zip":"34295","country":"France","geoPoint":{"lat":43.61093,"lon":3.87635}},{"facility":"Investigational Site Number : 2500040","status":"RECRUITING","city":"Paris","zip":"75015","country":"France","geoPoint":{"lat":48.85341,"lon":2.3488}},{"facility":"Investigational Site Number : 2760064","status":"RECRUITING","city":"Berlin","zip":"13125","country":"Germany","geoPoint":{"lat":52.52437,"lon":13.41053}},{"facility":"Investigational Site Number : 2760065","status":"RECRUITING","city":"Berlin","zip":"13353","country":"Germany","geoPoint":{"lat":52.52437,"lon":13.41053}},{"facility":"Investigational Site Number : 2760062","status":"RECRUITING","city":"Hamburg","zip":"22081","country":"Germany","geoPoint":{"lat":53.55073,"lon":9.99302}},{"facility":"Investigational Site Number : 2760060","status":"RECRUITING","city":"Sankt Augustin","zip":"53757","country":"Germany","geoPoint":{"lat":50.77538,"lon":7.197}},{"facility":"Investigational Site Number : 2760063","status":"COMPLETED","city":"Sendenhorst","zip":"48324","country":"Germany","geoPoint":{"lat":51.84303,"lon":7.82996}},{"facility":"Investigational Site Number : 3720001","status":"RECRUITING","city":"Crumlin","state":"Dublin","zip":"D12 N512","country":"Ireland","geoPoint":{"lat":53.32154,"lon":-6.31439}},{"facility":"Investigational Site Number : 3800051","status":"RECRUITING","city":"Genoa","state":"Genova","zip":"16147","country":"Italy","geoPoint":{"lat":44.40478,"lon":8.94439}},{"facility":"Investigational Site Number : 3800054","status":"RECRUITING","city":"Milan","state":"Milano","zip":"20122","country":"Italy","geoPoint":{"lat":45.46427,"lon":9.18951}},{"facility":"Investigational Site Number : 3800052","status":"RECRUITING","city":"Rome","state":"Roma","zip":"00165","country":"Italy","geoPoint":{"lat":41.89193,"lon":12.51133}},{"facility":"Investigational Site Number : 6430001","status":"COMPLETED","city":"Moscow","zip":"115522","country":"Russia","geoPoint":{"lat":55.75204,"lon":37.61781}},{"facility":"Investigational Site Number : 6430062","status":"COMPLETED","city":"Moscow","zip":"117997","country":"Russia","geoPoint":{"lat":55.75204,"lon":37.61781}},{"facility":"Investigational Site Number : 6430063","status":"COMPLETED","city":"Moscow","zip":"119991","country":"Russia","geoPoint":{"lat":55.75204,"lon":37.61781}},{"facility":"Investigational Site Number : 6430065","status":"COMPLETED","city":"Ufa","zip":"450083","country":"Russia","geoPoint":{"lat":54.74306,"lon":55.96779}},{"facility":"Investigational Site Number : 7240055","status":"RECRUITING","city":"Barcelona","state":"Barcelona [Barcelona]","zip":"08035","country":"Spain","geoPoint":{"lat":41.38879,"lon":2.15899}},{"facility":"Investigational Site Number : 7240050","status":"RECRUITING","city":"Esplugues de Llobregat","state":"Barcelona [Barcelona]","zip":"08950","country":"Spain","geoPoint":{"lat":41.37732,"lon":2.08809}},{"facility":"Investigational Site Number : 7240053","status":"RECRUITING","city":"Madrid","zip":"28009","country":"Spain","geoPoint":{"lat":40.4165,"lon":-3.70256}},{"facility":"Investigational Site Number : 7240056","status":"RECRUITING","city":"Madrid","zip":"28010","country":"Spain","geoPoint":{"lat":40.4165,"lon":-3.70256}},{"facility":"Investigational Site Number : 7240054","status":"RECRUITING","city":"Málaga","zip":"29010","country":"Spain","geoPoint":{"lat":36.72016,"lon":-4.42034}},{"facility":"Investigational Site Number : 7240051","status":"RECRUITING","city":"Valencia","zip":"46026","country":"Spain","geoPoint":{"lat":39.47391,"lon":-0.37966}},{"facility":"Investigational Site Number : 8260031","status":"COMPLETED","city":"London","state":"London, City of","zip":"WC1N 3JH","country":"United Kingdom","geoPoint":{"lat":51.50853,"lon":-0.12574}},{"facility":"Investigational Site Number : 8260034","status":"RECRUITING","city":"Leeds","zip":"LS1 3EX","country":"United Kingdom","geoPoint":{"lat":53.79648,"lon":-1.54785}},{"facility":"Investigational Site Number : 8260033","status":"COMPLETED","city":"Liverpool","zip":"L12 2AP","country":"United Kingdom","geoPoint":{"lat":53.41058,"lon":-2.97794}}]},"referencesModule":{"seeAlsoLinks":[{"label":"DRI13926 Plain Language Results Summary","url":"https://www.trialsummaries.com/Study/StudyDetails?id=26032&tenant=MT_SNY_9011"}]}},"derivedSection":{"miscInfoModule":{"versionHolder":"2026-02-25","removedCountries":["Bulgaria","Chile","Czechia","Estonia","Netherlands","Poland","United States"]},"conditionBrowseModule":{"meshes":[{"id":"D001171","term":"Arthritis, Juvenile"}],"ancestors":[{"id":"D001168","term":"Arthritis"},{"id":"D007592","term":"Joint Diseases"},{"id":"D009140","term":"Musculoskeletal Diseases"},{"id":"D012216","term":"Rheumatic Diseases"},{"id":"D003240","term":"Connective Tissue Diseases"},{"id":"D017437","term":"Skin and Connective Tissue Diseases"},{"id":"D001327","term":"Autoimmune Diseases"},{"id":"D007154","term":"Immune System Diseases"}]},"interventionBrowseModule":{"meshes":[{"id":"C000592401","term":"sarilumab"}]}},"hasResults":false}