{"protocolSection":{"identificationModule":{"nctId":"NCT06111235","orgStudyIdInfo":{"id":"PIVOT-006"},"organization":{"fullName":"CG Oncology, Inc.","class":"INDUSTRY"},"briefTitle":"A Study of Adjuvant Cretostimogene Grenadenorepvec for Treatment of Intermediate Risk NMIBC Following TURBT","officialTitle":"A Phase 3, Randomized Study of Adjuvant Cretostimogene Grenadenorepvec Versus Observation for the Treatment of Intermediate Risk Non-Muscle Invasive Bladder Cancer (IR-NMIBC) Following Transurethral Resection of Bladder Tumor (TURBT)"},"statusModule":{"statusVerifiedDate":"2026-01","overallStatus":"ACTIVE_NOT_RECRUITING","expandedAccessInfo":{"hasExpandedAccess":false},"startDateStruct":{"date":"2023-12-14","type":"ACTUAL"},"primaryCompletionDateStruct":{"date":"2026-06","type":"ESTIMATED"},"completionDateStruct":{"date":"2029-02","type":"ESTIMATED"},"studyFirstSubmitDate":"2023-10-25","studyFirstSubmitQcDate":"2023-10-30","studyFirstPostDateStruct":{"date":"2023-11-01","type":"ACTUAL"},"lastUpdateSubmitDate":"2026-01-09","lastUpdatePostDateStruct":{"date":"2026-01-12","type":"ACTUAL"}},"sponsorCollaboratorsModule":{"responsibleParty":{"type":"SPONSOR"},"leadSponsor":{"name":"CG Oncology, Inc.","class":"INDUSTRY"}},"oversightModule":{"oversightHasDmc":true,"isFdaRegulatedDrug":true,"isFdaRegulatedDevice":false},"descriptionModule":{"briefSummary":"This is a Phase 3, open-label, randomized trial designed to evaluate the RFS of TURBT followed by cretostimogene grenadenorepvec versus TURBT followed by surveillance for the treatment of participants with IR-NMIBC.","detailedDescription":"Participants will be randomized 1:1 to cretostimogene grenadenorepvec after TURBT (Arm A) vs surveillance after TURBT (Arm B).\n\nParticipants in Arm A will receive an induction course and then quarterly maintenance courses of cretostimogene through Month 13, if there is no disease recurrence.\n\nDisease status will be assessed using urine cytology, cystoscopy, and directed TURBT/biopsy (if indicated) every 3 months for the first 2 years after randomization and then every 6 months for an additional year or until disease recurrence. CT Urogram/MRU every 12 months.\n\nParticipants in Arm B who recur with IR-NMIBC after TURBT and surveillance will be offered treatment with cretostimogene as per the treatment schedule in Arm A."},"conditionsModule":{"conditions":["Non Muscle Invasive Bladder Cancer","Urologic Cancer","Bladder Cancer","Urothelial Carcinoma"],"keywords":["Urology","Bladder Cancer","Non Muscle Invasive Bladder Cancer","Intermediate Risk Non Muscle Invasive Bladder Cancer","Cretostimogene Grenadenorepvec"]},"designModule":{"studyType":"INTERVENTIONAL","phases":["PHASE3"],"designInfo":{"allocation":"RANDOMIZED","interventionModel":"PARALLEL","interventionModelDescription":"This is a Phase 3, open-label, randomized trial designed to evaluate the RFS of TURBT followed by adjuvant cretostimogene versus TURBT alone for the treatment of participants with IR-NMIBC","primaryPurpose":"TREATMENT","maskingInfo":{"masking":"NONE"}},"enrollmentInfo":{"count":367,"type":"ACTUAL"}},"armsInterventionsModule":{"armGroups":[{"label":"Cretostimogene after TURBT","type":"EXPERIMENTAL","description":"Following screening confirmation of IR-NMIBC and complete resection of the tumor, participants will be treated with adjuvant cretostimogene.","interventionNames":["Drug: Cretostimogene Grenadenorepvec","Other: n-dodecyl-B-D-maltoside"]},{"label":"Observation after TURBT","type":"NO_INTERVENTION","description":"Following screening confirmation of IR-NMIBC and complete resection of tumor, participants will enter surveillance.\n\nParticipants who recur with IR-NMIBC after TURBT and surveillance will be offered treatment with cretostimogene as per the treatment schedule in Arm A. This arm will be called the Extension Arm."}],"interventions":[{"type":"DRUG","name":"Cretostimogene Grenadenorepvec","description":"Engineered Oncolytic Adenovirus","armGroupLabels":["Cretostimogene after TURBT"],"otherNames":["CG0070"]},{"type":"OTHER","name":"n-dodecyl-B-D-maltoside","description":"Transduction-enhancing agent","armGroupLabels":["Cretostimogene after TURBT"],"otherNames":["DDM"]}]},"outcomesModule":{"primaryOutcomes":[{"measure":"Recurrence Free Survival (RFS)","description":"Recurrence free survival (RFS) of cretostimogene after TURBT versus surveillance after TURBT","timeFrame":"29 months"}],"secondaryOutcomes":[{"measure":"Recurrence Free Survival (RFS) at 6 months, 12 months and 24 months","description":"Recurrence free survival (RFS) of cretostimogene after TURBT versus surveillance after TURBT at 12 months and 24 months","timeFrame":"27 months (RFS at 6 months), 33 months (RFS at 12 months) and 45 months (RFS at 24 months)"},{"measure":"Incidence of Adverse Events","description":"Safety of cretostimogene following TURBT","timeFrame":"34 months"}]},"eligibilityModule":{"eligibilityCriteria":"Inclusion Criteria:\n\n* Pathologically confirmed IR-NMIBC, per American Urologic Association/Society of Urologic Oncology/National Comprehensive Cancer Network guidelines, within 90 days of participant randomization:\n\n  1. Recurrent LG Ta within 12 months of prior LG or HG (HG Ta ≤ 3 cm) tumor\n  2. Solitary LG Ta \\>3 cm tumor\n  3. Multifocal LG Ta tumors\n  4. Primary and solitary HG Ta ≤3 cm tumor\n  5. LG T1 tumor\n* All visible disease removed by TURBT within 90 days of study randomization\n* Acceptable baseline organ function\n\nExclusion Criteria:\n\n* High-risk NMIBC (e.g., HG T1, Recurrent or multifocal HG Ta\\>3cm tumor(s), CIS)\n* Low-Risk NMIBC (e.g., solitary LG Ta ≤3 cm tumor)\n* Disease in the prostatic urethra at any time or in the upper genitourinary tract within 24 months of randomization\n* Muscle-invasive bladder cancer, locally advanced or metastatic bladder cancer\n* Prior treatment with any human adenovirus serotype 5 based therapy (e.g., Adstiladrin)","healthyVolunteers":false,"sex":"ALL","minimumAge":"18 Years","stdAges":["ADULT","OLDER_ADULT"]},"contactsLocationsModule":{"overallOfficials":[{"name":"Max Kates, MD","affiliation":"Johns Hopkins University","role":"PRINCIPAL_INVESTIGATOR"}],"locations":[{"facility":"Urology Centers of Alabama PC","city":"Homewood","state":"Alabama","zip":"35209","country":"United States","geoPoint":{"lat":33.47177,"lon":-86.80082}},{"facility":"Banner MD Anderson Cancer Center","city":"Gilbert","state":"Arizona","zip":"85234","country":"United States","geoPoint":{"lat":33.35283,"lon":-111.78903}},{"facility":"Mayo Clinic","city":"Scottsdale","state":"Arizona","zip":"85259","country":"United States","geoPoint":{"lat":33.50921,"lon":-111.89903}},{"facility":"Arizona Institute of Urology PLLC","city":"Tucson","state":"Arizona","zip":"85745","country":"United States","geoPoint":{"lat":32.22174,"lon":-110.92648}},{"facility":"Arkansas Urology PA","city":"Little Rock","state":"Arkansas","zip":"72211","country":"United States","geoPoint":{"lat":34.74648,"lon":-92.28959}},{"facility":"Michael G. Oefelein MD Clinical Trials","city":"Bakersfield","state":"California","zip":"93301-2284","country":"United States","geoPoint":{"lat":35.37329,"lon":-119.01871}},{"facility":"USC/Keck Department of Urology","city":"Los Angeles","state":"California","zip":"90033","country":"United States","geoPoint":{"lat":34.05223,"lon":-118.24368}},{"facility":"Tower Urology","city":"Los Angeles","state":"California","zip":"90048","country":"United States","geoPoint":{"lat":34.05223,"lon":-118.24368}},{"facility":"Sun Kim Urology","city":"Orange","state":"California","zip":"92868","country":"United States","geoPoint":{"lat":33.78779,"lon":-117.85311}},{"facility":"University of California Irvine Medical Center (UCIMC)","city":"Orange","state":"California","zip":"92868","country":"United States","geoPoint":{"lat":33.78779,"lon":-117.85311}},{"facility":"University of California Davis Cancer Center","city":"Sacramento","state":"California","zip":"95817","country":"United States","geoPoint":{"lat":38.58157,"lon":-121.4944}},{"facility":"Stanford University School of Medicine","city":"Stanford","state":"California","zip":"94305","country":"United States","geoPoint":{"lat":37.42411,"lon":-122.16608}},{"facility":"Colorado Clinical Research","city":"Aurora","state":"Colorado","zip":"80012","country":"United States","geoPoint":{"lat":39.72943,"lon":-104.83192}},{"facility":"Urology Associates, PC","city":"Lone Tree","state":"Colorado","zip":"80124","country":"United States","geoPoint":{"lat":39.55171,"lon":-104.8863}},{"facility":"Hartford HealthCare Medical Group","city":"Hartford","state":"Connecticut","zip":"06106","country":"United States","geoPoint":{"lat":41.76371,"lon":-72.68509}},{"facility":"MedStar Washington Hospital Center","city":"Washington D.C.","state":"District of Columbia","zip":"20010","country":"United States","geoPoint":{"lat":38.89511,"lon":-77.03637}},{"facility":"Advanced Urology Institute","city":"Daytona Beach","state":"Florida","zip":"32114","country":"United States","geoPoint":{"lat":29.21081,"lon":-81.02283}},{"facility":"Mayo Clinic Cancer Center","city":"Jacksonville","state":"Florida","zip":"32224","country":"United States","geoPoint":{"lat":30.33218,"lon":-81.65565}},{"facility":"Lakeland Regional Health","city":"Lakeland","state":"Florida","zip":"33805","country":"United States","geoPoint":{"lat":28.03947,"lon":-81.9498}},{"facility":"Advanced Urology Institute, LLC","city":"Largo","state":"Florida","zip":"33771","country":"United States","geoPoint":{"lat":27.90979,"lon":-82.78842}},{"facility":"University of Miami","city":"Miami","state":"Florida","zip":"33136","country":"United States","geoPoint":{"lat":25.77427,"lon":-80.19366}},{"facility":"Emory Winship Cancer Center","city":"Atlanta","state":"Georgia","zip":"30322","country":"United States","geoPoint":{"lat":33.749,"lon":-84.38798}},{"facility":"Velocity Clinical Research- Savanah Urological Associates","city":"Savannah","state":"Georgia","zip":"31405","country":"United States","geoPoint":{"lat":32.08354,"lon":-81.09983}},{"facility":"Rush University Medical Center","city":"Chicago","state":"Illinois","zip":"60612","country":"United States","geoPoint":{"lat":41.85003,"lon":-87.65005}},{"facility":"University of Chicago","city":"Chicago","state":"Illinois","zip":"60637","country":"United States","geoPoint":{"lat":41.85003,"lon":-87.65005}},{"facility":"UroPartners LLC","city":"Glenview","state":"Illinois","zip":"60026","country":"United States","geoPoint":{"lat":42.06975,"lon":-87.78784}},{"facility":"Duly Health and Care","city":"Lisle","state":"Illinois","zip":"601152","country":"United States","geoPoint":{"lat":41.80114,"lon":-88.07479}},{"facility":"Urology of Indiana, LLC","city":"Carmel","state":"Indiana","zip":"46032","country":"United States","geoPoint":{"lat":39.97837,"lon":-86.11804}},{"facility":"Urology of Indiana","city":"Greenwood","state":"Indiana","zip":"46143","country":"United States","geoPoint":{"lat":39.61366,"lon":-86.10665}},{"facility":"Urology Center of Iowa Research","city":"West Des Moines","state":"Iowa","zip":"50266","country":"United States","geoPoint":{"lat":41.57721,"lon":-93.71133}},{"facility":"The University of Kansas Cancer Center","city":"Westwood","state":"Kansas","zip":"66205","country":"United States","geoPoint":{"lat":39.04056,"lon":-94.6169}},{"facility":"Wichita Urology Group","city":"Wichita","state":"Kansas","zip":"67226","country":"United States","geoPoint":{"lat":37.69224,"lon":-97.33754}},{"facility":"First Urology, PSC","city":"Louisville","state":"Kentucky","zip":"47130","country":"United States","geoPoint":{"lat":38.25424,"lon":-85.75941}},{"facility":"Southern Urology","city":"Lafayette","state":"Louisiana","zip":"70508","country":"United States","geoPoint":{"lat":30.22409,"lon":-92.01984}},{"facility":"Regional Urology, LLC","city":"Shreveport","state":"Louisiana","zip":"71106","country":"United States","geoPoint":{"lat":32.52515,"lon":-93.75018}},{"facility":"Chesapeake Urology Associates, LLC","city":"Baltimore","state":"Maryland","zip":"21204","country":"United States","geoPoint":{"lat":39.29038,"lon":-76.61219}},{"facility":"Johns Hopkins Hospital Green Spring Station","city":"Baltimore","state":"Maryland","zip":"21287","country":"United States","geoPoint":{"lat":39.29038,"lon":-76.61219}},{"facility":"Brigham and Women's Hospital","city":"Boston","state":"Massachusetts","zip":"02215","country":"United States","geoPoint":{"lat":42.35843,"lon":-71.05977}},{"facility":"Cancer Center at Beth Israel Deaconess Medical Center - Research","city":"Boston","state":"Massachusetts","zip":"02215","country":"United States","geoPoint":{"lat":42.35843,"lon":-71.05977}},{"facility":"Henry Ford Hospital","city":"Detroit","state":"Michigan","zip":"48202","country":"United States","geoPoint":{"lat":42.33143,"lon":-83.04575}},{"facility":"Comprehensive Urology","city":"Roseville","state":"Michigan","zip":"48066","country":"United States","geoPoint":{"lat":42.49726,"lon":-82.93714}},{"facility":"Michigan Institute of Urology, PC","city":"Troy","state":"Michigan","zip":"48084","country":"United States","geoPoint":{"lat":42.60559,"lon":-83.14993}},{"facility":"Mayo Clinic","city":"Rochester","state":"Minnesota","zip":"55905","country":"United States","geoPoint":{"lat":44.02163,"lon":-92.4699}},{"facility":"The Urology Group","city":"Southaven","state":"Mississippi","zip":"38671","country":"United States","geoPoint":{"lat":34.98898,"lon":-90.01259}},{"facility":"Specialty Clinical Research of St. Louis","city":"St Louis","state":"Missouri","zip":"63141","country":"United States","geoPoint":{"lat":38.62727,"lon":-90.19789}},{"facility":"Urology Nevada","city":"Reno","state":"Nevada","zip":"89511","country":"United States","geoPoint":{"lat":39.52963,"lon":-119.8138}},{"facility":"Garden State Urology, LLC- Morristown Medical Center","city":"Morristown","state":"New Jersey","zip":"07962","country":"United States","geoPoint":{"lat":40.79677,"lon":-74.48154}},{"facility":"Rutgers Cancer Institute of New Jersey - Cancer Center","city":"New Brunswick","state":"New Jersey","zip":"08901","country":"United States","geoPoint":{"lat":40.48622,"lon":-74.45182}},{"facility":"Integrated Medical Professionals PLLC","city":"New York","state":"New York","zip":"10016","country":"United States","geoPoint":{"lat":40.71427,"lon":-74.00597}},{"facility":"NYU Langone Health","city":"New York","state":"New York","zip":"10016","country":"United States","geoPoint":{"lat":40.71427,"lon":-74.00597}},{"facility":"Icahn School of Medicine at Mount Sinai","city":"New York","state":"New York","zip":"10029","country":"United States","geoPoint":{"lat":40.71427,"lon":-74.00597}},{"facility":"University of Rochester Medical Center","city":"Rochester","state":"New York","zip":"14642","country":"United States","geoPoint":{"lat":43.15478,"lon":-77.61556}},{"facility":"Stony Brook University","city":"Stony Brook","state":"New York","zip":"11794","country":"United States","geoPoint":{"lat":40.92565,"lon":-73.14094}},{"facility":"Associated Medical Professionals of NY","city":"Syracuse","state":"New York","zip":"13202","country":"United States","geoPoint":{"lat":43.04812,"lon":-76.14742}},{"facility":"SUNY Upstate Medical University","city":"Syracuse","state":"New York","zip":"13210","country":"United States","geoPoint":{"lat":43.04812,"lon":-76.14742}},{"facility":"Montefiore Medical Center","city":"The Bronx","state":"New York","zip":"10461","country":"United States","geoPoint":{"lat":40.84985,"lon":-73.86641}},{"facility":"Duke Cancer Center","city":"Durham","state":"North Carolina","zip":"27710","country":"United States","geoPoint":{"lat":35.99403,"lon":-78.89862}},{"facility":"Urology Group","city":"Cincinnati","state":"Ohio","zip":"45212","country":"United States","geoPoint":{"lat":39.12711,"lon":-84.51439}},{"facility":"Ohio State University Comprehensive Cancer Center","city":"Columbus","state":"Ohio","zip":"43210","country":"United States","geoPoint":{"lat":39.96118,"lon":-82.99879}},{"facility":"University of Toledo","city":"Toledo","state":"Ohio","zip":"43614","country":"United States","geoPoint":{"lat":41.66394,"lon":-83.55521}},{"facility":"Oregon Urology Insititute","city":"Springfield","state":"Oregon","zip":"97477","country":"United States","geoPoint":{"lat":44.04624,"lon":-123.02203}},{"facility":"Midlantic Urology","city":"Bala-Cynwyd","state":"Pennsylvania","zip":"19004","country":"United States","geoPoint":{"lat":40.00761,"lon":-75.23407}},{"facility":"Penn State Health Milton S. Hershey Medical Center","city":"Hershey","state":"Pennsylvania","zip":"17033","country":"United States","geoPoint":{"lat":40.28592,"lon":-76.65025}},{"facility":"Keystone Urology Specialists","city":"Lancaster","state":"Pennsylvania","zip":"17604","country":"United States","geoPoint":{"lat":40.03788,"lon":-76.30551}},{"facility":"University of Pennsylvania - Perelman School of Medicine","city":"Philadelphia","state":"Pennsylvania","zip":"19104","country":"United States","geoPoint":{"lat":39.95238,"lon":-75.16362}},{"facility":"Thomas Jefferson University","city":"Philadelphia","state":"Pennsylvania","zip":"19107","country":"United States","geoPoint":{"lat":39.95238,"lon":-75.16362}},{"facility":"The Miriam Hospital","city":"Providence","state":"Rhode Island","zip":"02905","country":"United States","geoPoint":{"lat":41.82399,"lon":-71.41283}},{"facility":"Medical University of South Carolina","city":"Charleston","state":"South Carolina","zip":"29425","country":"United States","geoPoint":{"lat":32.77632,"lon":-79.93275}},{"facility":"Carolina Urologic Research Center","city":"Myrtle Beach","state":"South Carolina","zip":"29572","country":"United States","geoPoint":{"lat":33.68906,"lon":-78.88669}},{"facility":"Lowcountry Urology Clinics","city":"North Charleston","state":"South Carolina","zip":"29406","country":"United States","geoPoint":{"lat":32.85462,"lon":-79.97481}},{"facility":"The Conrad Pearson Clinic","city":"Germantown","state":"Tennessee","zip":"38138","country":"United States","geoPoint":{"lat":35.08676,"lon":-89.81009}},{"facility":"Urology Associates, P.C.","city":"Nashville","state":"Tennessee","zip":"37209","country":"United States","geoPoint":{"lat":36.16589,"lon":-86.78444}},{"facility":"Vanderbilt University Medical Center","city":"Nashville","state":"Tennessee","zip":"37232","country":"United States","geoPoint":{"lat":36.16589,"lon":-86.78444}},{"facility":"Amarillo Urology Research, LLC","city":"Amarillo","state":"Texas","zip":"79106","country":"United States","geoPoint":{"lat":35.222,"lon":-101.8313}},{"facility":"Urology Associates of North Texas","city":"Arlington","state":"Texas","zip":"76017","country":"United States","geoPoint":{"lat":32.73569,"lon":-97.10807}},{"facility":"Urology Austin, PLLC","city":"Austin","state":"Texas","zip":"78745","country":"United States","geoPoint":{"lat":30.26715,"lon":-97.74306}},{"facility":"University of Texas Southwestern Medical Center","city":"Dallas","state":"Texas","zip":"75390","country":"United States","geoPoint":{"lat":32.78306,"lon":-96.80667}},{"facility":"Houston Methodist Research Institute","city":"Houston","state":"Texas","zip":"77030","country":"United States","geoPoint":{"lat":29.76328,"lon":-95.36327}},{"facility":"MD Anderson Cancer Center","city":"Houston","state":"Texas","zip":"77030","country":"United States","geoPoint":{"lat":29.76328,"lon":-95.36327}},{"facility":"Michael E. DeBakey VA Medical Center","city":"Houston","state":"Texas","zip":"77030","country":"United States","geoPoint":{"lat":29.76328,"lon":-95.36327}},{"facility":"Houston Metro Urology","city":"Houston","state":"Texas","zip":"77074","country":"United States","geoPoint":{"lat":29.76328,"lon":-95.36327}},{"facility":"Urology San Antonio PA","city":"San Antonio","state":"Texas","zip":"78229","country":"United States","geoPoint":{"lat":29.42412,"lon":-98.49363}},{"facility":"UT Health San Antonio","city":"San Antonio","state":"Texas","zip":"78229","country":"United States","geoPoint":{"lat":29.42412,"lon":-98.49363}},{"facility":"University of Utah- Huntsman Cancer Institute","city":"Salt Lake City","state":"Utah","zip":"84112","country":"United States","geoPoint":{"lat":40.76078,"lon":-111.89105}},{"facility":"Urology of Virginia (UVA) - Virginia Beach (Devine-Tidewater Urology)","city":"Virginia Beach","state":"Virginia","zip":"23462","country":"United States","geoPoint":{"lat":36.85293,"lon":-75.97799}},{"facility":"Benaroya Research Institute at Virginia Mason","city":"Seattle","state":"Washington","zip":"98101","country":"United States","geoPoint":{"lat":47.60621,"lon":-122.33207}},{"facility":"University of Washington Medical Center","city":"Seattle","state":"Washington","zip":"98195","country":"United States","geoPoint":{"lat":47.60621,"lon":-122.33207}},{"facility":"Spokane Urology- Southside","city":"Spokane","state":"Washington","zip":"99202","country":"United States","geoPoint":{"lat":47.65966,"lon":-117.42908}},{"facility":"Charleston Area Medical Center","city":"Charleston","state":"West Virginia","zip":"25304","country":"United States","geoPoint":{"lat":38.34982,"lon":-81.63262}},{"facility":"University of Wisconsin Medical Foundation","city":"Madison","state":"Wisconsin","zip":"53705","country":"United States","geoPoint":{"lat":43.07305,"lon":-89.40123}},{"facility":"Vancouver Prostate Centre","city":"Vancouver","state":"British Columbia","zip":"V5Z 1M9","country":"Canada","geoPoint":{"lat":49.24966,"lon":-123.11934}},{"facility":"Nova Scotia Health Centre of Applied Urology Research","city":"Halifax","state":"Nova Scotia","zip":"B3H 2Y9","country":"Canada","geoPoint":{"lat":44.64269,"lon":-63.57688}},{"facility":"London Health Sciences Centre","city":"London","state":"Ontario","zip":"N6A 5W9","country":"Canada","geoPoint":{"lat":42.98339,"lon":-81.23304}},{"facility":"University Health Network (UHN) - Princess Margaret Cancer Centre","city":"Toronto","state":"Ontario","zip":"M5G 1Z5","country":"Canada","geoPoint":{"lat":43.70643,"lon":-79.39864}},{"facility":"McGill University Health Center - Montreal General Hospital","city":"Montreal","state":"Quebec","zip":"H4A 3J1","country":"Canada","geoPoint":{"lat":45.50884,"lon":-73.58781}}]},"referencesModule":{"references":[{"pmid":"27317986","type":"BACKGROUND","citation":"Chang SS, Boorjian SA, Chou R, Clark PE, Daneshmand S, Konety BR, Pruthi R, Quale DZ, Ritch CR, Seigne JD, Skinner EC, Smith ND, McKiernan JM. Diagnosis and Treatment of Non-Muscle Invasive Bladder Cancer: AUA/SUO Guideline. J Urol. 2016 Oct;196(4):1021-9. doi: 10.1016/j.juro.2016.06.049. Epub 2016 Jun 16."}],"seeAlsoLinks":[{"label":"NCCN Guidelines Bladder Cancer 3.2023","url":"https://www.nccn.org/guidelines/recently-published-guidelines"}]},"ipdSharingStatementModule":{"ipdSharing":"NO"}},"derivedSection":{"miscInfoModule":{"versionHolder":"2026-02-25"},"conditionBrowseModule":{"meshes":[{"id":"D000093284","term":"Non-Muscle Invasive Bladder Neoplasms"},{"id":"D014571","term":"Urologic Neoplasms"},{"id":"D001749","term":"Urinary Bladder Neoplasms"},{"id":"D002295","term":"Carcinoma, Transitional Cell"}],"ancestors":[{"id":"D002277","term":"Carcinoma"},{"id":"D009375","term":"Neoplasms, Glandular and Epithelial"},{"id":"D009370","term":"Neoplasms by Histologic Type"},{"id":"D009369","term":"Neoplasms"},{"id":"D014565","term":"Urogenital Neoplasms"},{"id":"D009371","term":"Neoplasms by Site"},{"id":"D052776","term":"Female Urogenital Diseases"},{"id":"D005261","term":"Female Urogenital Diseases and Pregnancy Complications"},{"id":"D000091642","term":"Urogenital Diseases"},{"id":"D001745","term":"Urinary Bladder Diseases"},{"id":"D014570","term":"Urologic Diseases"},{"id":"D052801","term":"Male Urogenital Diseases"}]},"interventionBrowseModule":{"meshes":[{"id":"C040358","term":"dodecyl maltoside"}]}},"hasResults":false}