{"protocolSection":{"identificationModule":{"nctId":"NCT07281495","orgStudyIdInfo":{"id":"BHV2000-202"},"organization":{"fullName":"Biohaven Pharmaceuticals, Inc.","class":"INDUSTRY"},"briefTitle":"Taldefgrobep Alfa in Adults With Overweight and Obesity","officialTitle":"A Phase 2b, Multicenter, Randomized, Double-Blind, Placebo-Controlled, Multiple Dose Study With Open-Label Extension to Assess the Efficacy, Safety, and Pharmacokinetics of Subcutaneously Administered Taldefgrobep Alfa in Adults Living With Overweight and Obesity"},"statusModule":{"statusVerifiedDate":"2026-01","overallStatus":"RECRUITING","expandedAccessInfo":{"hasExpandedAccess":false},"startDateStruct":{"date":"2025-11-24","type":"ACTUAL"},"primaryCompletionDateStruct":{"date":"2026-09","type":"ESTIMATED"},"completionDateStruct":{"date":"2026-09","type":"ESTIMATED"},"studyFirstSubmitDate":"2025-12-04","studyFirstSubmitQcDate":"2025-12-04","studyFirstPostDateStruct":{"date":"2025-12-15","type":"ACTUAL"},"lastUpdateSubmitDate":"2026-01-29","lastUpdatePostDateStruct":{"date":"2026-01-30","type":"ACTUAL"}},"sponsorCollaboratorsModule":{"responsibleParty":{"type":"SPONSOR"},"leadSponsor":{"name":"Biohaven Therapeutics Ltd.","class":"INDUSTRY"}},"oversightModule":{"isFdaRegulatedDrug":true,"isFdaRegulatedDevice":false},"descriptionModule":{"briefSummary":"This is a multicenter, randomized, double-blind, placebo-controlled, multiple dose study to evaluate the efficacy, safety, and tolerability of taldefgrobep alfa in adults with overweight and obesity, with an open-label extension."},"conditionsModule":{"conditions":["Obesity","Overweight"],"keywords":["myostatin","activin"]},"designModule":{"studyType":"INTERVENTIONAL","phases":["PHASE2"],"designInfo":{"allocation":"RANDOMIZED","interventionModel":"PARALLEL","primaryPurpose":"TREATMENT","maskingInfo":{"masking":"QUADRUPLE","whoMasked":["PARTICIPANT","CARE_PROVIDER","INVESTIGATOR","OUTCOMES_ASSESSOR"]}},"enrollmentInfo":{"count":150,"type":"ESTIMATED"}},"armsInterventionsModule":{"armGroups":[{"label":"Taldefgrobep Alpha once weekly","type":"EXPERIMENTAL","interventionNames":["Drug: Taldefgrobep Alfa"]},{"label":"Placebo once weekly","type":"PLACEBO_COMPARATOR","interventionNames":["Drug: Placebo"]},{"label":"Taldefgrobep Alpha once every 4 weeks","type":"EXPERIMENTAL","interventionNames":["Drug: Taldefgrobep Alfa"]},{"label":"Placebo once every 4 weeks","type":"PLACEBO_COMPARATOR","interventionNames":["Drug: Placebo"]}],"interventions":[{"type":"DRUG","name":"Taldefgrobep Alfa","description":"Subcutaneous injection administered once each week","armGroupLabels":["Taldefgrobep Alpha once weekly"],"otherNames":["BHV-2000"]},{"type":"DRUG","name":"Placebo","description":"Subcutaneous injection (matching placebo) administered once each week","armGroupLabels":["Placebo once weekly"]},{"type":"DRUG","name":"Taldefgrobep Alfa","description":"Subcutaneous injection administered once every 4 weeks","armGroupLabels":["Taldefgrobep Alpha once every 4 weeks"],"otherNames":["BHV-2000"]},{"type":"DRUG","name":"Placebo","description":"Subcutaneous injection (matching placebo) administered once every 4 weeks","armGroupLabels":["Placebo once every 4 weeks"]}]},"outcomesModule":{"primaryOutcomes":[{"measure":"Percent change in total body weight from Baseline to Week 24","timeFrame":"Baseline to Week 24"}],"secondaryOutcomes":[{"measure":"Percent change in total body fat mass from Baseline to Week 24","timeFrame":"Baseline to Week 24"},{"measure":"Percent change in total body lean mass from Baseline to Week 24","timeFrame":"Baseline to Week 24"},{"measure":"Number of participants with death, SAEs, AEs considered related to study drug, moderate and severe AEs, and Grade 3 to 4 laboratory abnormalities","timeFrame":"Through week 24"}]},"eligibilityModule":{"eligibilityCriteria":"Key Inclusion Criteria:\n\n1. a. BMI \\> 30 kg/m2 and BMI \\< 42 kg/m2, OR b. BMI ≥ 27 kg/m2 and BMI \\<30 kg/m2 with at least one weight-related co-morbidity\n2. History of at least one self-reported unsuccessful dietary effort to lose body weight.\n3. Stable body weight and stable physical activity within 3 months prior to screening per participant self-report.\n4. All participants must adhere to protocol contraception requirements\n\nKey Exclusion Criteria:\n\n1. History of diabetes, including individuals with a HbA1c of ≥ 6.5% at Screening\n2. Non-ambulatory participants, defined as unable to take at least 10 steps independently.\n3. Females currently pregnant or breastfeeding, or who intend to become pregnant or to breastfeed.\n4. Participation in another investigational clinical trial while participating in this clinical trial","healthyVolunteers":false,"sex":"ALL","minimumAge":"18 Years","maximumAge":"65 Years","stdAges":["ADULT","OLDER_ADULT"]},"contactsLocationsModule":{"centralContacts":[{"name":"Chief Medical Officer","role":"CONTACT","phone":"203-404-0410","email":"clinicaltrials@biohavenpharma.com"}],"locations":[{"facility":"Site-001","status":"RECRUITING","city":"Chula Vista","state":"California","zip":"91911","country":"United States","geoPoint":{"lat":32.64005,"lon":-117.0842}},{"facility":"Site-014","status":"RECRUITING","city":"Montclair","state":"California","zip":"97163","country":"United States","geoPoint":{"lat":34.07751,"lon":-117.68978}},{"facility":"Site-011","status":"RECRUITING","city":"Sacramento","state":"California","zip":"95821","country":"United States","geoPoint":{"lat":38.58157,"lon":-121.4944}},{"facility":"Site-018","status":"RECRUITING","city":"Tustin","state":"California","zip":"92780","country":"United States","geoPoint":{"lat":33.74585,"lon":-117.82617}},{"facility":"Site-008","status":"RECRUITING","city":"Palm Springs","state":"Florida","zip":"33461","country":"United States","geoPoint":{"lat":26.6359,"lon":-80.09615}},{"facility":"Site-015","status":"RECRUITING","city":"St. Petersburg","state":"Florida","zip":"33704","country":"United States","geoPoint":{"lat":27.77086,"lon":-82.67927}},{"facility":"Site-007","status":"RECRUITING","city":"Chicago","state":"Illinois","zip":"60625","country":"United States","geoPoint":{"lat":41.85003,"lon":-87.65005}},{"facility":"Site-016","status":"RECRUITING","city":"Indianapolis","state":"Indiana","zip":"46254","country":"United States","geoPoint":{"lat":39.76838,"lon":-86.15804}},{"facility":"Site-010","status":"RECRUITING","city":"Baton Rouge","state":"Louisiana","zip":"70808","country":"United States","geoPoint":{"lat":30.44332,"lon":-91.18747}},{"facility":"Site-009","status":"RECRUITING","city":"Metairie","state":"Louisiana","zip":"70006","country":"United States","geoPoint":{"lat":29.98409,"lon":-90.15285}},{"facility":"Site-006","status":"RECRUITING","city":"City of Saint Peters","state":"Missouri","zip":"63303","country":"United States","geoPoint":{"lat":38.80033,"lon":-90.62651}},{"facility":"Site-003","status":"RECRUITING","city":"Springfield","state":"Missouri","zip":"65807","country":"United States","geoPoint":{"lat":37.21533,"lon":-93.29824}},{"facility":"Site-019","status":"RECRUITING","city":"Monroe","state":"North Carolina","zip":"28112","country":"United States","geoPoint":{"lat":34.98543,"lon":-80.54951}},{"facility":"Site-002","status":"RECRUITING","city":"Fargo","state":"North Dakota","zip":"58104","country":"United States","geoPoint":{"lat":46.87719,"lon":-96.7898}},{"facility":"Site-017","status":"RECRUITING","city":"North Charleston","state":"South Carolina","zip":"29405","country":"United States","geoPoint":{"lat":32.85462,"lon":-79.97481}},{"facility":"Site-005","status":"RECRUITING","city":"Austin","state":"Texas","zip":"78745","country":"United States","geoPoint":{"lat":30.26715,"lon":-97.74306}},{"facility":"Site-012","status":"RECRUITING","city":"McKinney","state":"Texas","zip":"75069","country":"United States","geoPoint":{"lat":33.19762,"lon":-96.61527}},{"facility":"Site-013","status":"RECRUITING","city":"San Antonio","state":"Texas","zip":"78229","country":"United States","geoPoint":{"lat":29.42412,"lon":-98.49363}},{"facility":"Site-004","status":"RECRUITING","city":"Arlington","state":"Virginia","zip":"22205","country":"United States","geoPoint":{"lat":38.88101,"lon":-77.10428}}]}},"derivedSection":{"miscInfoModule":{"versionHolder":"2026-02-25"},"conditionBrowseModule":{"meshes":[{"id":"D009765","term":"Obesity"},{"id":"D050177","term":"Overweight"}],"ancestors":[{"id":"D044343","term":"Overnutrition"},{"id":"D009748","term":"Nutrition Disorders"},{"id":"D009750","term":"Nutritional and Metabolic Diseases"},{"id":"D001835","term":"Body Weight"},{"id":"D012816","term":"Signs and Symptoms"},{"id":"D013568","term":"Pathological Conditions, Signs and Symptoms"}]}},"hasResults":false}