{"protocolSection":{"identificationModule":{"nctId":"NCT07128550","orgStudyIdInfo":{"id":"VIR-CHDV-V205"},"organization":{"fullName":"Vir Biotechnology, Inc.","class":"INDUSTRY"},"briefTitle":"A Study to Evaluate Tobevibart+Elebsiran in Participants With Chronic HDV Infection Not Virologically Suppressed With Bulevirtide","officialTitle":"A Phase 3 Randomized, Open-Label Study to Evaluate the Efficacy and Safety of Tobevibart+Elebsiran Combination Therapy in Participants With Chronic HDV Infection Not Virologically Suppressed With Bulevirtide (ECLIPSE 2)"},"statusModule":{"statusVerifiedDate":"2026-01","overallStatus":"RECRUITING","startDateStruct":{"date":"2025-07-30","type":"ACTUAL"},"primaryCompletionDateStruct":{"date":"2026-12","type":"ESTIMATED"},"completionDateStruct":{"date":"2031-07","type":"ESTIMATED"},"studyFirstSubmitDate":"2025-08-13","studyFirstSubmitQcDate":"2025-08-13","studyFirstPostDateStruct":{"date":"2025-08-19","type":"ACTUAL"},"lastUpdateSubmitDate":"2026-01-23","lastUpdatePostDateStruct":{"date":"2026-01-26","type":"ACTUAL"}},"sponsorCollaboratorsModule":{"responsibleParty":{"type":"SPONSOR"},"leadSponsor":{"name":"Vir Biotechnology, Inc.","class":"INDUSTRY"}},"oversightModule":{"oversightHasDmc":true,"isFdaRegulatedDrug":true,"isFdaRegulatedDevice":false},"descriptionModule":{"briefSummary":"This is a multicenter, open label, randomized Phase 3 clinical study to evaluate tobevibart + elebsiran in participants with Chronic HDV Infection not virologically suppressed with bulevirtide"},"conditionsModule":{"conditions":["Viral Hepatitis"],"keywords":["HDV","Hepatitis D Virus","Hepatitis","Chronic Hepatitis D Virus","Hepatitis D","Hepatitis D, Chronic","Hepatitis Delta Virus","Digestive System Diseases","Liver Diseases"]},"designModule":{"studyType":"INTERVENTIONAL","phases":["PHASE3"],"designInfo":{"allocation":"RANDOMIZED","interventionModel":"PARALLEL","primaryPurpose":"TREATMENT","maskingInfo":{"masking":"NONE"}},"enrollmentInfo":{"count":150,"type":"ESTIMATED"}},"armsInterventionsModule":{"armGroups":[{"label":"Arm 1","type":"EXPERIMENTAL","description":"Participants will receive treatment with tobevibart + elebsiran up to 240 weeks.","interventionNames":["Drug: Tobevibart","Drug: Elebsiran"]},{"label":"Arm 2","type":"EXPERIMENTAL","description":"Participants will receive Bulevirtide for 24 weeks and switch to receive tobevibart + elebsiran for additional 216 weeks","interventionNames":["Drug: Tobevibart","Drug: Elebsiran","Drug: Bulevirtide"]}],"interventions":[{"type":"DRUG","name":"Tobevibart","description":"Tobevibart administered by subcutaneous injection","armGroupLabels":["Arm 1","Arm 2"],"otherNames":["VIR-3434"]},{"type":"DRUG","name":"Elebsiran","description":"Elebsiran administered by subcutaneous injection","armGroupLabels":["Arm 1","Arm 2"],"otherNames":["VIR-2218"]},{"type":"DRUG","name":"Bulevirtide","description":"Bulevirtide administered by subcutaneous injection","armGroupLabels":["Arm 2"],"otherNames":["Hepcludex"]}]},"outcomesModule":{"primaryOutcomes":[{"measure":"HDV RNA < Lower Limit of Quantification (LLOQ), Target not detected (TND) at Week 24","timeFrame":"Week 24"},{"measure":"HDV RNA < Lower Limit of Quantification (LLOQ), Target not detected (TND) 24 weeks after end of treatment.","timeFrame":"24 Weeks after End of Treatment"}],"secondaryOutcomes":[{"measure":"Incidence of Treatment-emergent adverse events (TEAEs) and serious adverse events (SAEs) through Week 24, Week 48, Week 96, Week 120, Week 144, Week 192, and Week 240","timeFrame":"Week 24, Week 48, Week 96, Week 120, Week 144, Week 192, and Week 240"},{"measure":"HDV RNA < Lower Limit of Quantification (LLOQ), Target not detected (TND) at Week 48, Week 96, Week 120, Week 144, Week 192 and Week 240","timeFrame":"Week 48 , Week 96, Week 120, Week 144, Week 192 and Week 240"},{"measure":"Change from baseline in ALT at Week 24, Week 48, Week 96, Week 120, Week 144, Week 192, and Week 240","timeFrame":"Week 24, Week 48, Week 96, Week 120, Week 144, Week 192, and Week 240"}]},"eligibilityModule":{"eligibilityCriteria":"Inclusion Criteria:\n\n1. Male or female ages 18 to 70 years at screening\n2. HDV RNA ≥ 500 IU/mL at screening\n3. Receiving BLV 2 mg SC QD for ≥ 24 weeks at Day 1\n4. Noncirrhotic or compensated cirrhotic liver disease at screening\n5. On NRTI therapy against HBV for at least 12 weeks prior to day 1 or have HBV DNA \\< 10 IU/ml at screening, currently on locally approved NRTI therapy\n\nExclusion Criteria:\n\n1. Serum ALT ≥ 5 × ULN\n2. Any clinically significant chronic or acute medical or psychiatric condition that makes the participant unsuitable for participation.\n3. History of significant liver disease from non-HBV or non-HDV etiology\n4. History of allergic reactions, hypersensitivity, or intolerance to study drug, its metabolites, or excipients.\n5. History of anaphylaxis\n6. History of immune complex disease\n7. History of autoimmune disorder\n8. Current therapy or therapy within 24 weeks of screening with an immunomodulatory agent, immune checkpoint inhibitors, immunosuppressants, cytotoxic or chemotherapeutic agent, or chronic systemic corticosteroids.","healthyVolunteers":false,"sex":"ALL","minimumAge":"18 Years","maximumAge":"70 Years","stdAges":["ADULT","OLDER_ADULT"]},"contactsLocationsModule":{"centralContacts":[{"name":"Study Injury","role":"CONTACT","phone":"415-654-5281","email":"clinicaltrials@vir.bio"}],"locations":[{"facility":"Investigative Site","status":"RECRUITING","city":"Bobigny","zip":"93009","country":"France","geoPoint":{"lat":48.90982,"lon":2.45012}},{"facility":"Investigative Site","status":"RECRUITING","city":"Clichy","zip":"92110","country":"France","geoPoint":{"lat":48.90018,"lon":2.30952}},{"facility":"Investigative Site","status":"RECRUITING","city":"Créteil","zip":"94000","country":"France","geoPoint":{"lat":48.79266,"lon":2.46569}},{"facility":"Investigative Site","status":"RECRUITING","city":"Le Chesnay","zip":"78150","country":"France","geoPoint":{"lat":48.8222,"lon":2.12213}},{"facility":"Investigative Site","status":"RECRUITING","city":"Limoges","zip":"87000","country":"France","geoPoint":{"lat":45.83362,"lon":1.24759}},{"facility":"Investigative Site","status":"RECRUITING","city":"Lyon","zip":"69004","country":"France","geoPoint":{"lat":45.74906,"lon":4.84789}},{"facility":"Investigative Site","status":"RECRUITING","city":"Montpellier","zip":"34295","country":"France","geoPoint":{"lat":43.61093,"lon":3.87635}},{"facility":"Investigative Site","status":"RECRUITING","city":"Pessac","zip":"33604","country":"France","geoPoint":{"lat":44.80565,"lon":-0.6324}},{"facility":"Investigative Site","status":"RECRUITING","city":"Rennes","zip":"35033","country":"France","geoPoint":{"lat":48.11109,"lon":-1.67431}},{"facility":"Investigative Site","status":"RECRUITING","city":"Toulouse","zip":"31059","country":"France","geoPoint":{"lat":43.60426,"lon":1.44367}},{"facility":"Investigative Site","status":"RECRUITING","city":"Villejuif","zip":"94804","country":"France","geoPoint":{"lat":48.7939,"lon":2.35992}},{"facility":"Investigative Site","status":"RECRUITING","city":"Berlin","zip":"13353","country":"Germany","geoPoint":{"lat":52.52437,"lon":13.41053}},{"facility":"Investigative Site","status":"RECRUITING","city":"Essen","zip":"45147","country":"Germany","geoPoint":{"lat":51.45657,"lon":7.01228}},{"facility":"Investigative Site","status":"RECRUITING","city":"Frankfurt am Main","zip":"60590","country":"Germany","geoPoint":{"lat":50.11552,"lon":8.68417}},{"facility":"Investigative Site","status":"RECRUITING","city":"Hanover","zip":"30625","country":"Germany","geoPoint":{"lat":52.37052,"lon":9.73322}},{"facility":"Investigative Site","status":"RECRUITING","city":"Milan","zip":"20089","country":"Italy","geoPoint":{"lat":42.78235,"lon":12.59836}},{"facility":"Investigative Site","status":"RECRUITING","city":"Milan","zip":"20122","country":"Italy","geoPoint":{"lat":42.78235,"lon":12.59836}},{"facility":"Investigative Site","status":"RECRUITING","city":"Bucharest","zip":"021105","country":"Romania","geoPoint":{"lat":44.43225,"lon":26.10626}},{"facility":"Investigative Site","status":"RECRUITING","city":"Bucharest","zip":"022328","country":"Romania","geoPoint":{"lat":44.43225,"lon":26.10626}},{"facility":"Investigative Site","status":"RECRUITING","city":"Bucharest","zip":"030303","country":"Romania","geoPoint":{"lat":44.43225,"lon":26.10626}},{"facility":"Investigative Site","status":"RECRUITING","city":"Craiova","zip":"200073","country":"Romania","geoPoint":{"lat":44.31667,"lon":23.8}},{"facility":"Investigative Site","status":"RECRUITING","city":"Barcelona","zip":"08035","country":"Spain","geoPoint":{"lat":41.38879,"lon":2.15899}},{"facility":"Investigative Site","status":"RECRUITING","city":"Barcelona","zip":"08036","country":"Spain","geoPoint":{"lat":41.38879,"lon":2.15899}},{"facility":"Investigative Site","status":"RECRUITING","city":"Madrid","zip":"28046","country":"Spain","geoPoint":{"lat":40.4165,"lon":-3.70256}},{"facility":"Investigative Site","status":"RECRUITING","city":"Santander","zip":"39008","country":"Spain","geoPoint":{"lat":43.46589,"lon":-3.80493}},{"facility":"Investigative Site","status":"RECRUITING","city":"London","zip":"E1 1FR","country":"United Kingdom","geoPoint":{"lat":51.50853,"lon":-0.12574}},{"facility":"Investigative Site","status":"RECRUITING","city":"London","zip":"SE5 9NU","country":"United Kingdom","geoPoint":{"lat":51.50853,"lon":-0.12574}},{"facility":"Investigative Site","status":"RECRUITING","city":"Manchester","zip":"M8 5RB","country":"United Kingdom","geoPoint":{"lat":53.48095,"lon":-2.23743}},{"facility":"Investigative Site","status":"RECRUITING","city":"Nottingham","zip":"NG7 2UH","country":"United Kingdom","geoPoint":{"lat":52.9536,"lon":-1.15047}}]}},"derivedSection":{"miscInfoModule":{"versionHolder":"2026-02-25"},"conditionBrowseModule":{"meshes":[{"id":"D006505","term":"Hepatitis"},{"id":"D003699","term":"Hepatitis D"},{"id":"D019701","term":"Hepatitis D, Chronic"},{"id":"D004066","term":"Digestive System Diseases"},{"id":"D008107","term":"Liver Diseases"}],"ancestors":[{"id":"D006525","term":"Hepatitis, Viral, Human"},{"id":"D014777","term":"Virus Diseases"},{"id":"D007239","term":"Infections"},{"id":"D012327","term":"RNA Virus Infections"},{"id":"D006521","term":"Hepatitis, Chronic"},{"id":"D002908","term":"Chronic Disease"},{"id":"D020969","term":"Disease Attributes"},{"id":"D010335","term":"Pathologic Processes"},{"id":"D013568","term":"Pathological Conditions, Signs and Symptoms"}]},"interventionBrowseModule":{"meshes":[{"id":"C000718249","term":"bulevirtide"}]}},"hasResults":false}