{"protocolSection":{"identificationModule":{"nctId":"NCT05731128","orgStudyIdInfo":{"id":"ACT17746"},"secondaryIdInfos":[{"id":"U1111-1278-4042","type":"REGISTRY","domain":"ICTRP"}],"organization":{"fullName":"Sanofi","class":"INDUSTRY"},"briefTitle":"A Study to Investigate the Efficacy and Safety of Dupilumab Therapy Compared With Placebo in Participants Aged ≥18 Years With Moderately to Severely Active Ulcerative Colitis With an Eosinophilic Phenotype (LIBERTY-UC SUCCEED (Study in UC for Clinical Efficacy Evaluation of Dupilumab))","officialTitle":"A Phase 2, Multi-center, Randomized, Double-blind, Placebo-controlled Parallel-group Study to Evaluate the Efficacy and Safety of Dupilumab Therapy in Patients With Moderately to Severely Active Ulcerative Colitis With an Eosinophilic Phenotype"},"statusModule":{"statusVerifiedDate":"2025-12","overallStatus":"ACTIVE_NOT_RECRUITING","expandedAccessInfo":{"hasExpandedAccess":false},"startDateStruct":{"date":"2023-01-12","type":"ACTUAL"},"primaryCompletionDateStruct":{"date":"2026-05-15","type":"ESTIMATED"},"completionDateStruct":{"date":"2027-02-19","type":"ESTIMATED"},"studyFirstSubmitDate":"2023-02-03","studyFirstSubmitQcDate":"2023-02-15","studyFirstPostDateStruct":{"date":"2023-02-16","type":"ACTUAL"},"lastUpdateSubmitDate":"2025-12-08","lastUpdatePostDateStruct":{"date":"2025-12-15","type":"ACTUAL"}},"sponsorCollaboratorsModule":{"responsibleParty":{"type":"SPONSOR"},"leadSponsor":{"name":"Sanofi","class":"INDUSTRY"},"collaborators":[{"name":"Regeneron Pharmaceuticals","class":"INDUSTRY"}]},"oversightModule":{"oversightHasDmc":true,"isFdaRegulatedDrug":true,"isFdaRegulatedDevice":false},"descriptionModule":{"briefSummary":"The protocol of this Phase 2 clinical trial consists of a double-blind, placebo-controlled, parallel-group, multicenter study to evaluate the efficacy and safety of dupilumab in participants with moderately to severely active Ulcerative Colitis (UC) with an eosinophilic phenotype.\n\nScreening period: 2 to up to 4 weeks\n\nTreatment period:\n\n52-week investigational medicinal product (IMP) intervention (dupilumab or matching placebo) from Week 0 to Week 52 Open-label arm (optional): administration of open-label dupilumab therapy for study participants who qualify. Follow-up period: 12 weeks The maximum duration of study per participant is up to 68 weeks."},"conditionsModule":{"conditions":["Colitis Ulcerative"]},"designModule":{"studyType":"INTERVENTIONAL","phases":["PHASE2"],"designInfo":{"allocation":"RANDOMIZED","interventionModel":"PARALLEL","primaryPurpose":"TREATMENT","maskingInfo":{"masking":"QUADRUPLE","whoMasked":["PARTICIPANT","CARE_PROVIDER","INVESTIGATOR","OUTCOMES_ASSESSOR"]}},"enrollmentInfo":{"count":68,"type":"ACTUAL"}},"armsInterventionsModule":{"armGroups":[{"label":"Dupilumab","type":"EXPERIMENTAL","description":"Initial loading dose followed by regular administration for the duration of the treatment period.","interventionNames":["Drug: Dupilumab"]},{"label":"Placebo","type":"PLACEBO_COMPARATOR","description":"Initial loading dose followed by regular administration for the duration of the treatment period.","interventionNames":["Drug: Placebo"]},{"label":"Open-label arm (optional)","type":"OTHER","description":"Regular administration of open label dupilumab","interventionNames":["Drug: Dupilumab"]}],"interventions":[{"type":"DRUG","name":"Dupilumab","description":"injection solution subcutaneous","armGroupLabels":["Dupilumab","Open-label arm (optional)"],"otherNames":["Dupixent"]},{"type":"DRUG","name":"Placebo","description":"injection solution subcutaneous","armGroupLabels":["Placebo"]}]},"outcomesModule":{"primaryOutcomes":[{"measure":"Proportion of participants achieving clinical response at Week 24","description":"Clinical response by modified Mayo score is defined as a decrease from baseline in the modified Mayo score of ≥2 points and at least a 30% reduction from baseline, and a decrease in rectal bleeding subscore of ≥1 OR an absolute rectal bleeding subscore of 0 or 1. The modified Mayo score consists of 3 subscores; a patient-reported subscore for rectal bleeding, a patient-reported subscore for stool frequency, and a Mayo endoscopic subscore. Each subscore ranges 0-3 with higher scores indicating greater disease severity. The total modified Mayo score ranges 0-9 with higher scores indicating greater disease severity.","timeFrame":"Week 24"}],"secondaryOutcomes":[{"measure":"Proportion of participants who are in clinical response at Week 52","description":"Clinical response by modified Mayo score is defined as a decrease from baseline in the modified Mayo score of ≥2 points and at least a 30% reduction from baseline, and a decrease in rectal bleeding subscore of ≥1 OR an absolute rectal bleeding subscore of 0 or 1. The modified Mayo score consists of 3 subscores; a patient-reported subscore for rectal bleeding, a patient-reported subscore for stool frequency, and a Mayo endoscopic subscore. Each subscore ranges 0-3 with higher scores indicating greater disease severity. The total modified Mayo score ranges 0-9 with higher scores indicating greater disease severity.","timeFrame":"Week 52"},{"measure":"Proportion of participants who are in clinical remission at Week 24 and Week 52","description":"Clinical remission by modified Mayo score is defined as a modified Mayo score of ≤2 with a stool frequency score ≤1, a rectal bleeding score = 0, AND a Mayo endoscopic subscore ≤1 with absence of friability. The modified Mayo score consists of 3 subscores; a patient-reported subscore for rectal bleeding, a patient-reported subscore for stool frequency, and a Mayo endoscopic subscore. Each subscore ranges 0-3 with higher scores indicating greater disease severity. The total modified Mayo score ranges 0-9 with higher scores indicating greater disease severity.","timeFrame":"Week 24 and Week 52"},{"measure":"Proportion of participants in symptomatic remission over time","description":"Symptomatic remission is defined as Mayo stool frequency score = 0, or Mayo stool frequency score = 1 with a ≥1-point decrease from baseline, and Mayo rectal bleeding score = 0.","timeFrame":"Baseline up to Week 52"},{"measure":"Proportion of participants achieving histologic-endoscopic healing at Week 24, and Week 52","description":"Histologic-endoscopic healing is defined by Mayo endoscopic subscore of 0 or 1 and histological healing (Geboes score \\<2). Mayo endoscopic subscore ranges 0-3 with higher scores indicating greater disease severity. The Geboes Index score is a six-grade classification system for inflammation: Grade 0 - structural change only; Grade 1 -chronic inflammation; Grade 2 - lamina propria neutrophils; Grade 3 - neutrophils in epithelium; Grade 4 - crypt destruction; and Grade 5 - erosions or ulcers.","timeFrame":"Week 24 and Week 52"},{"measure":"Proportion of participants with a Mayo endoscopic subscore of 0 or 1 without friability at Week 24, and Week 52","description":"The Mayo endoscopic subscore ranges 0-3 with higher scores indicating greater disease severity.","timeFrame":"Week 24 and Week 52"},{"measure":"Proportion of participants with a Mayo endoscopic subscore of 0 at Week 24, and Week 52","description":"The Mayo endoscopic subscore ranges 0-3 with higher scores indicating greater disease severity.","timeFrame":"Week 24 and Week 52"},{"measure":"Change from baseline in the partial Mayo score at Week 8, Week 24, and Week 52","description":"The partial Mayo score consists of 3 subscores; a patient-reported subscore for rectal bleeding, a patient-reported subscore for stool frequency, and a Physician's global assessment (PGA) subscore. Each subscore ranges 0-3 with higher scores indicating greater disease severity. The partial Mayo score ranges 0-9 with higher scores indicating greater disease severity.","timeFrame":"Baseline to Week 8, Week 24 and Week 52"},{"measure":"Proportion of participants in clinical remission at Week 52 who are off concomitant oral corticosteroids (OCS) at least 4 weeks prior to Week 52","description":"Clinical remission by modified Mayo score is defined as a modified Mayo score of ≤2 with a stool frequency score ≤1, a rectal bleeding score = 0, AND a Mayo endoscopic subscore ≤1 with absence of friability. The modified Mayo score consists of 3 subscores; a patient-reported subscore for rectal bleeding, a patient-reported subscore for stool frequency, and a Mayo endoscopic subscore. Each subscore ranges 0-3 with higher scores indicating greater disease severity. The total modified Mayo score ranges 0-9 with higher scores indicating greater disease severity.","timeFrame":"Baseline up to Week 52"},{"measure":"Proportion of participants in clinical remission at Week 52 who are off concomitant oral corticosteroids (OCS) at least 4 weeks prior to Week 52 among participants receiving OCS at baseline","description":"Clinical remission by modified Mayo score is defined as a modified Mayo score of ≤2 with a stool frequency score ≤1, a rectal bleeding score = 0, AND a Mayo endoscopic subscore ≤1 with absence of friability. The modified Mayo score consists of 3 subscores; a patient-reported subscore for rectal bleeding, a patient-reported subscore for stool frequency, and a Mayo endoscopic subscore. Each subscore ranges 0-3 with higher scores indicating greater disease severity. The total modified Mayo score ranges 0-9 with higher scores indicating greater disease severity.","timeFrame":"Baseline up to Week 52"},{"measure":"Change from baseline in abdominal pain assessed by Abdominal Pain Numerical Rating Scale (NRS) at Week 8, Week 24, and Week 52","description":"Abdominal pain NRS is a single item patient report outcome (PRO) tool that patients will use to report intensity of their worst abdominal pain during a daily recall period with 0 being 'no pain' and 10 being the 'worst pain imaginable'.","timeFrame":"Baseline to Week 8, Week 24 and Week 52"},{"measure":"Incidence of treatment-emergent adverse events (TEAEs) or serious adverse events (SAEs)","timeFrame":"Baseline up to Week 64"},{"measure":"Concentration of dupilumab in serum over time.","timeFrame":"Baseline up to Week 64"},{"measure":"Incidence of treatment-emergent antidrug antibodies (ADA) against dupilumab.","timeFrame":"Baseline up to Week 64"},{"measure":"Change from baseline (Screening visit) in the normalized enrichment scores (NES) in type 2 inflammation transcriptome signature at Week 24 and Week 52.","description":"NES is a summary score of the expression of a specified set of genes defining a molecular phenotype.","timeFrame":"Baseline to Week 24 and Week 52"}]},"eligibilityModule":{"eligibilityCriteria":"Inclusion Criteria:\n\n* Participants must be ≥18 years of age at the time of signing the informed consent.\n* Evidence of biomarker enrichment at time of screening.\n* Moderately to severely active UC, defined as a baseline modified Mayo score of 5 to 9, inclusive, using the Mayo endoscopic subscore assigned during the concurrent local and central reading of the video endoscopy.\n* Has a screening endoscopy with ≥2 endoscopic subscore in the Mayo score component assessment as determined by concurrent local and central reading of the video endoscopy.\n* Has a baseline rectal bleeding subscore of ≥1 and baseline a stool frequency score of ≥1 as determined by the Mayo score component assessment.\n* Participants with inadequate response/non-response, loss of response, or are intolerant of standard biologic therapy for their UC AND/OR Inadequate or non-responders, have shown loss of response, or are intolerant to at least 1 of the following treatments: oral corticosteroids (≤20 mg/day), 5-aminosalicylic acid (ASA) compounds, immunomodulators, small molecules.\n\nExclusion Criteria:\n\nParticipants are excluded from the study if any of the following criteria apply:\n\n* Severe extensive colitis as evidenced by:\n\n  * Current hospitalization\n  * Likely to require surgery for the treatment of UC within 12 weeks of Screening Visit\n* UC limited to the rectum only or to \\<20 cm of the colon as determined by central reading.\n* Presence of an ileal pouch, ostomy, stoma or fistula or history of a fistula.\n* Require, or required within the 2 months before screening, surgery for active gastrointestinal bleeding, peritonitis, intestinal obstruction, or intra-abdominal or pancreatic abscess requiring surgical drainage, or other conditions possibly confounding the evaluation of benefit from study agent treatment.\n* Has a prior medical history of eosinophilic colitis.\n* Participants with abdominal abscess, fulminant disease, or toxic megacolon.\n* Participants with intestinal failure or short bowel syndrome.\n* Presence of symptomatic colonic or small bowel obstruction, confirmed by objective radiographic or endoscopic evidence of a stricture with resulting obstruction (dilation of the colon or small bowel proximal to the stricture on barium radiograph or an inability to traverse the stricture at endoscopy).\n* History of extensive colonic resection (eg, less than 30 cm of colon remaining) that would prevent adequate evaluation of the effect of study agent on clinical disease activity.\n* History of colonic mucosal dysplasia or presence of adenomatous colonic polyps not removed OR presence of colonic mucosal dysplasia or adenomatous colonic polyps not removed during colonoscopy at screening visit.\n* If the participant has extensive colitis for ≥8 years or disease limited to left side of colon (ie, distal to splenic flexure) for \\>10 years, regardless of age, a colonoscopy within 1 year of the screening visit is required to survey for dysplasia. Participants with dysplasia or cancer identified on biopsies will be excluded.\n* Diagnosis of indeterminate colitis, microscopic colitis, ischemic colitis, or Crohn's disease or clinical findings suggestive of Crohn's disease.\n\nThe above information is not intended to contain all considerations relevant to a patient's potential participation in a clinical trial.","healthyVolunteers":false,"sex":"ALL","minimumAge":"18 Years","stdAges":["ADULT","OLDER_ADULT"]},"contactsLocationsModule":{"overallOfficials":[{"name":"Clinical Sciences & Operations","affiliation":"Sanofi","role":"STUDY_DIRECTOR"}],"locations":[{"facility":"Om Research- Site Number : 8400029","city":"Apple Valley","state":"California","zip":"92307","country":"United States","geoPoint":{"lat":34.50083,"lon":-117.18588}},{"facility":"TLC Clinical Research- Site Number : 8400020","city":"Beverly Hills","state":"California","zip":"90211","country":"United States","geoPoint":{"lat":34.07362,"lon":-118.40036}},{"facility":"Om Research - Oxnard- Site Number : 8400028","city":"Oxnard","state":"California","zip":"93036","country":"United States","geoPoint":{"lat":34.1975,"lon":-119.17705}},{"facility":"Palmtree Clinical Research- Site Number : 8400048","city":"Palm Springs","state":"California","zip":"92262","country":"United States","geoPoint":{"lat":33.8303,"lon":-116.54529}},{"facility":"Clinical Trials Management Services - Thousand Oaks- Site Number : 8400034","city":"Thousand Oaks","state":"California","zip":"91360","country":"United States","geoPoint":{"lat":34.17056,"lon":-118.83759}},{"facility":"Homestead Associates in Research- Site Number : 8400004","city":"Homestead","state":"Florida","zip":"33033","country":"United States","geoPoint":{"lat":25.46872,"lon":-80.47756}},{"facility":"Wellness Clinical Research - Miami Lakes - 8181 Northwest 154th Street- Site Number : 8400009","city":"Miami Lakes","state":"Florida","zip":"33016","country":"United States","geoPoint":{"lat":25.90871,"lon":-80.30866}},{"facility":"GI Pros- Site Number : 8400046","city":"Naples","state":"Florida","zip":"34102","country":"United States","geoPoint":{"lat":26.14234,"lon":-81.79596}},{"facility":"Advanced Research Institute - New Port Richey- Site Number : 8400026","city":"New Port Richey","state":"Florida","zip":"34653","country":"United States","geoPoint":{"lat":28.24418,"lon":-82.71927}},{"facility":"Digestive Disease Consultants - Orange Park- Site Number : 8400042","city":"Orange Park","state":"Florida","zip":"32073","country":"United States","geoPoint":{"lat":30.16607,"lon":-81.70648}},{"facility":"Tellabio International Research Services- Site Number : 8400041","city":"Pembroke Pines","state":"Florida","zip":"33025","country":"United States","geoPoint":{"lat":26.00315,"lon":-80.22394}},{"facility":"GCP Clinical Research- Site Number : 8400014","city":"Tampa","state":"Florida","zip":"33609","country":"United States","geoPoint":{"lat":27.94752,"lon":-82.45843}},{"facility":"Gastroenterology Consultants - Roswell- Site Number : 8400022","city":"Roswell","state":"Georgia","zip":"30076","country":"United States","geoPoint":{"lat":34.02316,"lon":-84.36159}},{"facility":"Sanmora Bespoke Clinical Research Solutions- Site Number : 8400043","city":"East Orange","state":"New Jersey","zip":"07018","country":"United States","geoPoint":{"lat":40.76732,"lon":-74.20487}},{"facility":"Smart Medical Research - New York- Site Number : 8400037","city":"Jackson Heights","state":"New York","zip":"11372","country":"United States","geoPoint":{"lat":40.75566,"lon":-73.88541}},{"facility":"DiGiovanna Family Care- Site Number : 8400006","city":"Massapequa","state":"New York","zip":"11758","country":"United States","geoPoint":{"lat":40.68066,"lon":-73.47429}},{"facility":"Tryon Medical Partners - Charlotte - Piedmont Row Drive South- Site Number : 8400008","city":"Charlotte","state":"North Carolina","zip":"28287","country":"United States","geoPoint":{"lat":35.22709,"lon":-80.84313}},{"facility":"Care Access - Lumberton- Site Number : 8400018","city":"Lumberton","state":"North Carolina","zip":"28358","country":"United States","geoPoint":{"lat":34.61834,"lon":-79.01045}},{"facility":"UPMC Presbyterian- Site Number : 8400038","city":"Pittsburgh","state":"Pennsylvania","zip":"15213","country":"United States","geoPoint":{"lat":40.44062,"lon":-79.99589}},{"facility":"Advanced Gastroenterology Associates - Decatur- Site Number : 8400047","city":"Decatur","state":"Texas","zip":"76234","country":"United States","geoPoint":{"lat":33.23428,"lon":-97.58614}},{"facility":"Katy Integrative Gastroenterology- Site Number : 8400027","city":"Katy","state":"Texas","zip":"77494","country":"United States","geoPoint":{"lat":29.78579,"lon":-95.8244}},{"facility":"Medrasa Clinical Research - Medrasa Sherman- Site Number : 8400039","city":"Sherman","state":"Texas","zip":"75092","country":"United States","geoPoint":{"lat":33.63566,"lon":-96.60888}},{"facility":"Texas Digestive Disease Consultants - Southlake- Site Number : 8400013","city":"Southlake","state":"Texas","zip":"76092","country":"United States","geoPoint":{"lat":32.94124,"lon":-97.13418}},{"facility":"Digestive Health Specialists of Tyler- Site Number : 8400031","city":"Tyler","state":"Texas","zip":"75701","country":"United States","geoPoint":{"lat":32.35126,"lon":-95.30106}},{"facility":"Victoria Gastroenterology- Site Number : 8400019","city":"Victoria","state":"Texas","zip":"77904","country":"United States","geoPoint":{"lat":28.80527,"lon":-97.0036}},{"facility":"Washington Gastroenterology - Bellevue- Site Number : 8400025","city":"Bellevue","state":"Washington","zip":"98004","country":"United States","geoPoint":{"lat":47.61038,"lon":-122.20068}},{"facility":"Washington Gastroenterology - Tacoma- Site Number : 8400030","city":"Tacoma","state":"Washington","zip":"98405","country":"United States","geoPoint":{"lat":47.25288,"lon":-122.44429}},{"facility":"Investigational Site Number : 0320006","city":"Mar del Plata","state":"Buenos Aires","zip":"7600","country":"Argentina","geoPoint":{"lat":-38.00042,"lon":-57.5562}},{"facility":"Investigational Site Number : 0320001","city":"San Miguel de Tucumán","state":"Tucumán Province","zip":"4000","country":"Argentina","geoPoint":{"lat":-26.81601,"lon":-65.21051}},{"facility":"Investigational Site Number : 0320004","city":"San Miguel de Tucumán","state":"Tucumán Province","zip":"4000","country":"Argentina","geoPoint":{"lat":-26.81601,"lon":-65.21051}},{"facility":"Investigational Site Number : 0320007","city":"Buenos Aires","zip":"1028","country":"Argentina","geoPoint":{"lat":-34.61315,"lon":-58.37723}},{"facility":"Investigational Site Number : 0320008","city":"Buenos Aires","zip":"1119","country":"Argentina","geoPoint":{"lat":-34.61315,"lon":-58.37723}},{"facility":"Investigational Site Number : 0320002","city":"Buenos Aires","zip":"1125","country":"Argentina","geoPoint":{"lat":-34.61315,"lon":-58.37723}},{"facility":"Investigational Site Number : 1240007","city":"Edmonton","state":"Alberta","zip":"T5R 1W2","country":"Canada","geoPoint":{"lat":53.55014,"lon":-113.46871}},{"facility":"Investigational Site Number : 1240010","city":"Scarborough Village","state":"Ontario","zip":"M1B 3V4","country":"Canada","geoPoint":{"lat":43.73899,"lon":-79.22124}},{"facility":"Investigational Site Number : 1240006","city":"Montreal","state":"Quebec","zip":"H1T 2M4","country":"Canada","geoPoint":{"lat":45.50884,"lon":-73.58781}},{"facility":"Investigational Site Number : 1240003","city":"Montreal","state":"Quebec","zip":"H3G 1A4","country":"Canada","geoPoint":{"lat":45.50884,"lon":-73.58781}},{"facility":"Investigational Site Number : 1520005","city":"Santiago","state":"Reg Metropolitana de Santiago","zip":"7620001","country":"Chile","geoPoint":{"lat":-33.45694,"lon":-70.64827}},{"facility":"Investigational Site Number : 1520003","city":"Santiago","state":"Reg Metropolitana de Santiago","zip":"8330034","country":"Chile","geoPoint":{"lat":-33.45694,"lon":-70.64827}},{"facility":"Investigational Site Number : 1520006","city":"Santiago","state":"Reg Metropolitana de Santiago","zip":"8360156","country":"Chile","geoPoint":{"lat":-33.45694,"lon":-70.64827}},{"facility":"Investigational Site Number : 1520002","city":"Santiago","state":"Reg Metropolitana de Santiago","zip":"8380456","country":"Chile","geoPoint":{"lat":-33.45694,"lon":-70.64827}},{"facility":"Investigational Site Number : 1520001","city":"Concepción","state":"Región del Biobío","zip":"4070038","country":"Chile","geoPoint":{"lat":-36.82699,"lon":-73.04977}},{"facility":"Investigational Site Number : 3920006","city":"Nagoya","state":"Aichi-ken","zip":"451-8511","country":"Japan","geoPoint":{"lat":35.18147,"lon":136.90641}},{"facility":"Investigational Site Number : 3920005","city":"Kashiwa","state":"Chiba","zip":"277-0871","country":"Japan","geoPoint":{"lat":35.86224,"lon":139.97732}},{"facility":"Investigational Site Number : 3920008","city":"Kitakyushu","state":"Fukuoka","zip":"802-0077","country":"Japan","geoPoint":{"lat":33.85181,"lon":130.85034}},{"facility":"Investigational Site Number : 3920002","city":"Sapporo","state":"Hokkaido","zip":"004-0041","country":"Japan","geoPoint":{"lat":43.06667,"lon":141.35}},{"facility":"Investigational Site Number : 3920001","city":"Sapporo","state":"Hokkaido","zip":"065-0033","country":"Japan","geoPoint":{"lat":43.06667,"lon":141.35}},{"facility":"Investigational Site Number : 3920011","city":"Kamakura","state":"Kanagawa","zip":"247-0056","country":"Japan","geoPoint":{"lat":35.31085,"lon":139.54698}},{"facility":"Investigational Site Number : 3920010","city":"Shimizu","state":"Shizuoka","zip":"411-0905","country":"Japan","geoPoint":{"lat":35.18798,"lon":138.59043}},{"facility":"Investigational Site Number : 3920004","city":"Bunkyo","state":"Tokyo","zip":"113-8510","country":"Japan"},{"facility":"Investigational Site Number : 3920007","city":"Kyoto","zip":"605-0981","country":"Japan","geoPoint":{"lat":35.02107,"lon":135.75385}},{"facility":"Investigational Site Number : 3920009","city":"Saitama","zip":"336-0963","country":"Japan","geoPoint":{"lat":35.90807,"lon":139.65657}},{"facility":"Investigational Site Number : 4840005","city":"Saltillo","state":"Coahuila","zip":"25020","country":"Mexico","geoPoint":{"lat":25.42595,"lon":-100.97963}},{"facility":"Investigational Site Number : 4840002","city":"Torreón","state":"Coahuila","zip":"27000","country":"Mexico","geoPoint":{"lat":25.54389,"lon":-103.41898}},{"facility":"Investigational Site Number : 4840007","city":"Guadalajara","state":"Jalisco","zip":"44100","country":"Mexico","geoPoint":{"lat":20.67738,"lon":-103.34749}},{"facility":"Investigational Site Number : 4840004","city":"Mexico City","state":"Mexico City","zip":"01120","country":"Mexico","geoPoint":{"lat":19.42847,"lon":-99.12766}},{"facility":"Investigational Site Number : 4840003","city":"Chihuahua City","zip":"31000","country":"Mexico","geoPoint":{"lat":28.63528,"lon":-106.08889}},{"facility":"University of Puerto Rico - Medical Sciences Campus- Site Number : 6300002","city":"San Juan","zip":"00936","country":"Puerto Rico","geoPoint":{"lat":18.46633,"lon":-66.10572}},{"facility":"Investigational Site Number : 7100005","city":"Cape Town","zip":"7405","country":"South Africa","geoPoint":{"lat":-33.92584,"lon":18.42322}},{"facility":"Investigational Site Number : 7100009","city":"Cape Town","zip":"7500","country":"South Africa","geoPoint":{"lat":-33.92584,"lon":18.42322}},{"facility":"Investigational Site Number : 7100002","city":"Cape Town","zip":"7708","country":"South Africa","geoPoint":{"lat":-33.92584,"lon":18.42322}},{"facility":"Investigational Site Number : 7100007","city":"Cape Town","zip":"7800","country":"South Africa","geoPoint":{"lat":-33.92584,"lon":18.42322}},{"facility":"Investigational Site Number : 7100006","city":"Johannesburg","zip":"1821","country":"South Africa","geoPoint":{"lat":-26.20227,"lon":28.04363}},{"facility":"Investigational Site Number : 7100001","city":"Johannesburg","zip":"2193","country":"South Africa","geoPoint":{"lat":-26.20227,"lon":28.04363}},{"facility":"Investigational Site Number : 7100008","city":"Kempton Park","zip":"1619","country":"South Africa","geoPoint":{"lat":-26.10859,"lon":28.2377}},{"facility":"Investigational Site Number : 7100003","city":"Port Elizabeth","zip":"6045","country":"South Africa","geoPoint":{"lat":-33.96109,"lon":25.61494}},{"facility":"Investigational Site Number : 7100004","city":"Pretoria","zip":"0002","country":"South Africa","geoPoint":{"lat":-25.74486,"lon":28.18783}},{"facility":"Investigational Site Number : 4100003","city":"Haeundae-gu","state":"Busan","zip":"48108","country":"South Korea"},{"facility":"Investigational Site Number : 4100005","city":"Daegu","state":"Daegu","zip":"41944","country":"South Korea","geoPoint":{"lat":35.87028,"lon":128.59111}},{"facility":"Investigational Site Number : 4100006","city":"Daejeon","state":"Daejeon","zip":"34943","country":"South Korea","geoPoint":{"lat":36.34913,"lon":127.38493}},{"facility":"Investigational Site Number : 4100002","city":"Wŏnju","state":"Gangwon-do","zip":"26426","country":"South Korea","geoPoint":{"lat":37.35139,"lon":127.94528}},{"facility":"Investigational Site Number : 4100004","city":"Daegu","state":"Gyeongsangbuk-do","zip":"42415","country":"South Korea"},{"facility":"Investigational Site Number : 1580002","city":"Taichung","zip":"404","country":"Taiwan","geoPoint":{"lat":24.1469,"lon":120.6839}},{"facility":"Investigational Site Number : 7920003","city":"Gaziantep","zip":"27310","country":"Turkey (Türkiye)","geoPoint":{"lat":37.05944,"lon":37.3825}},{"facility":"Investigational Site Number : 7920005","city":"Istanbul","zip":"34734","country":"Turkey (Türkiye)","geoPoint":{"lat":41.01384,"lon":28.94966}},{"facility":"Investigational Site Number : 7920001","city":"Mersin","zip":"33070","country":"Turkey (Türkiye)","geoPoint":{"lat":36.81196,"lon":34.63886}},{"facility":"Investigational Site Number : 7920006","city":"Zonguldak","zip":"67000","country":"Turkey (Türkiye)","geoPoint":{"lat":41.45139,"lon":31.79305}}]},"referencesModule":{"seeAlsoLinks":[{"label":"ACT17746 Plain Language Results Summary","url":"https://sanofi.trialsummaries.com/Study/StudyDetails?id=25215&tenant=MT_SNY_9011"}]},"ipdSharingStatementModule":{"ipdSharing":"YES","description":"Qualified researchers may request access to patient level data and related study documents including the clinical study report, study protocol with any amendments, blank case report form, statistical analysis plan, and dataset specifications. Patient level data will be anonymized, and study documents will be redacted to protect the privacy of trial participants. Further details on Sanofi's data sharing criteria, eligible studies, and process for requesting access can be found at: https://vivli.org"}},"derivedSection":{"miscInfoModule":{"versionHolder":"2026-02-25"},"conditionBrowseModule":{"meshes":[{"id":"D003093","term":"Colitis, Ulcerative"}],"ancestors":[{"id":"D003092","term":"Colitis"},{"id":"D005759","term":"Gastroenteritis"},{"id":"D005767","term":"Gastrointestinal Diseases"},{"id":"D004066","term":"Digestive System Diseases"},{"id":"D015212","term":"Inflammatory Bowel Diseases"},{"id":"D003108","term":"Colonic Diseases"},{"id":"D007410","term":"Intestinal Diseases"}]},"interventionBrowseModule":{"meshes":[{"id":"C582203","term":"dupilumab"}]}},"hasResults":false}