{"protocolSection":{"identificationModule":{"nctId":"NCT04091984","orgStudyIdInfo":{"id":"18-039-TRP"},"secondaryIdInfos":[{"id":"Pro00037470","type":"OTHER","domain":"Advarra IRB"}],"organization":{"fullName":"Natera, Inc.","class":"INDUSTRY"},"briefTitle":"The PROspera Kidney Transplant ACTIVE Rejection Assessment Registry (ProActive)","officialTitle":"The PROspera Kidney Transplant ACTIVE Rejection Assessment Registry (ProActive)","acronym":"ProActive"},"statusModule":{"statusVerifiedDate":"2024-07","overallStatus":"ACTIVE_NOT_RECRUITING","expandedAccessInfo":{"hasExpandedAccess":false},"startDateStruct":{"date":"2019-11-06","type":"ACTUAL"},"primaryCompletionDateStruct":{"date":"2026-10-01","type":"ESTIMATED"},"completionDateStruct":{"date":"2027-10-01","type":"ESTIMATED"},"studyFirstSubmitDate":"2019-09-06","studyFirstSubmitQcDate":"2019-09-13","studyFirstPostDateStruct":{"date":"2019-09-17","type":"ACTUAL"},"lastUpdateSubmitDate":"2024-08-02","lastUpdatePostDateStruct":{"date":"2024-08-06","type":"ACTUAL"}},"sponsorCollaboratorsModule":{"responsibleParty":{"type":"SPONSOR"},"leadSponsor":{"name":"Natera, Inc.","class":"INDUSTRY"},"collaborators":[{"name":"University of Maryland","class":"OTHER"}]},"oversightModule":{"oversightHasDmc":false,"isFdaRegulatedDrug":false,"isFdaRegulatedDevice":false},"descriptionModule":{"briefSummary":"The ProActive registry is a longitudinal, multi-center study with a prospective arm observing clinical care for patients receiving physician ordered Prospera, an allograft rejection test, and a historical control arm collecting data on cases at the same sites whose kidney allograft rejection status was managed with Serum Creatinine SCr/estimated Glomerular Filtration Rate eGFR. This registry will compare patient management and outcomes in patients who receive Prospera (Prospera arm) to the outcomes of the historical control group (control arm) to determine Prospera's clinical utility. High-risk subjects defined as having a biopsy-demonstrated rejection event or at least one pre-existing Donor Specific Antibody DSA with total Mean Fluorescent Intensity MFI\\>3000 or a calculated Panel Reactive Antibodies cPRA\\>70% will be followed for an additional period up to 24 months in both the Prospera arm and historical control arm.","detailedDescription":"The primary objective is to differentiate the clinical utility of Prospera testing from the use of creatinine testing as measured by the proportion of positive biopsies in post renal allograft patients.\n\nSecondary objectives include:\n\n* To observe the performance of the Prospera assay in detecting AR (repeated validation)\n* To evaluate whether Prospera can detect AR earlier and more often than SCr\n* To determine whether use of Prospera will significant decrease the rate of overall number of biopsies when compared to the rate of biopsies in the control arm"},"conditionsModule":{"conditions":["Kidney Transplant Rejection"],"keywords":["donor-derived cfDNA"]},"designModule":{"studyType":"OBSERVATIONAL","patientRegistry":true,"targetDuration":"5 Years","designInfo":{"observationalModel":"CASE_CONTROL","timePerspective":"OTHER"},"bioSpec":{"retention":"SAMPLES_WITH_DNA","description":"There are two arms to this study: A prospective arm and a historical control (retrospective arm).\n\nEach participant in the Prospective arm will have received the commercially available Prospera test.\n\nSubjects prospectively enrolled and whom consent to \"Optional future Research\" may have bio-specimens stored for future research.\n\nThe historical arm (retrospective cohort) will not have any bio-specimens collected or stored."},"enrollmentInfo":{"count":5000,"type":"ESTIMATED"}},"armsInterventionsModule":{"armGroups":[{"label":"Prospera Arm","description":"There is no intervention in this study. Adult patients who have received a kidney allograft from a genetically different donor in the past 2 years including within 60 days and who have been selected by their healthcare provider to receive Prospera dd-cfDNA testing according to their regular interval testing schedule as part of their clinical care will have medical records pertaining to their kidney rejection status collected at each study visit.","interventionNames":["Diagnostic Test: Prospera"]},{"label":"Control Arm","description":"The control arm will consist of retrospective data review of cases where a renal allograft from a genetically different donor was performed. Data pertaining to to their kidney rejection status from a minimum of 3 time points per year post allograft (up to 5 years) or until renal allograft failure will be collected."}],"interventions":[{"type":"DIAGNOSTIC_TEST","name":"Prospera","description":"No Interventions, this is an observational study.","armGroupLabels":["Prospera Arm"]}]},"outcomesModule":{"primaryOutcomes":[{"measure":"Efficiency of biopsies","description":"The proportion of clinically indicated biopsies that show Active Rejection (AR) will be measured in the Prospera arm and the control arm. Specifically, the proportion of clinically indicated biopsies showing AR in individuals with a positive donor derived-cell free DNA dd-cfDNA test at the time of Bx in the test arm, where Prospera has been integrated into the care paradigm, will be compared against the proportion of clinically indicated biopsies showing AR in the control arm.","timeFrame":"3 years"},{"measure":"Graft function","description":"Graft function in the Prospera arm and control arm will be measured. This will be assessed by examining the average eGFR score (as calculated using serum creatinine Chronic Kidney Disease-EPIdemiology collaboration CKD\\_EPI equation) at year three in the Prospera arm compared to the average eGFR score determined at year three in the historical control arm.","timeFrame":"3 years"}],"secondaryOutcomes":[{"measure":"Evaluate the performance of Prospera","description":"The performance of Prospera to detect AR will be evaluated. The sensitivity, specificity, Positive \\& Negative Predictive Value of the assay in sub-cohorts of patients will be calculated and compared to the performance of serum creatinine to detect AR in those cohorts.","timeFrame":"5 years"},{"measure":"Evaluate whether Prospera can detect acute rejection earlier than serum creatinine","description":"The grade of rejection observed in biopsies in the Prospera arm will be compared to the historical control arm which used serum creatinine.","timeFrame":"3 years"},{"measure":"Determine if and how Prospera testing impacts patient care","description":"The proportion of Prospera assay results that doctors felt influenced their decisions around management of patients and biopsies will be calculated. This will be analyzed separately for the for-cause and protocol biopsies.","timeFrame":"5 years"}]},"eligibilityModule":{"eligibilityCriteria":"Inclusion Criteria Prospera Arm:\n\n1. 18 years of age or older\n2. Renal allograft (kidney transplant) up to 2 years prior to signing informed consent. Newly transplanted patients to receive Prospera testing within 60 days of transplant\n3. A genetically different donor (not an identical twin)\n4. Selected by a healthcare provider to receive Prospera dd-cfDNA test according to the regular interval testing schedule as part of their practical care\n5. Able to read, understand and provide written informed consent\n6. Willing and able to comply with the study visit schedule and study requirements\n\nExclusion Criteria Prospera Arm:\n\n1. Pregnant\n2. Routine ongoing testing with another dd-cfDNA or RNA biomarker test after enrollment into the ProActive study. Receipt of another dd-cfDNA test within 30 days of a patient being enrolled in the study.\n3. History of another organ transplant (i.e. aside from renal allograph)\n4. A serious medical condition that may adversely affect ability to participate in the study (e.g, dementia, current diagnosis of cancer)\n5. Previously enrolled in the ProActive Registry, with the exception of a graft failure and a new renal allograft\n\nInclusion Criteria Control Arm:\n\n1. 18 years of age or older at the time of transplant\n2. Had a renal allograft\n3. Had a genetically different donor\n4. Had a minimum of three evaluations per year during the three years since the renal allograft or until allograft failure\n\nExclusion Criteria Control Arm:\n\n1. Female patients who were pregnant at any time during the 3-year historical control data collection period\n2. Had a transplanted organ other than kidney\n3. Received results from a dd-cfDNA test designed to assess renal allograft rejection during the historical control data collection period","healthyVolunteers":false,"sex":"ALL","minimumAge":"18 Years","stdAges":["ADULT","OLDER_ADULT"],"studyPopulation":"Approximately 5,000 adult renal allograft participants will be enrolled in this study, and data will be collected from a de-identified cohort of approximately 500 historical control patients who had a renal allograft.","samplingMethod":"NON_PROBABILITY_SAMPLE"},"contactsLocationsModule":{"overallOfficials":[{"name":"Jonathan Bromberg, MD","affiliation":"University of Maryland","role":"PRINCIPAL_INVESTIGATOR"}],"locations":[{"facility":"University of Alabama at Birmingham","city":"Birmingham","state":"Alabama","zip":"35294","country":"United States","geoPoint":{"lat":33.52066,"lon":-86.80249}},{"facility":"Arizona Kidney Disease & Hypertension Centers","city":"Phoenix","state":"Arizona","zip":"85016","country":"United States","geoPoint":{"lat":33.44838,"lon":-112.07404}},{"facility":"Arizona Kidney Disease & Hypertension Centers","city":"Scottsdale","state":"Arizona","zip":"85258","country":"United States","geoPoint":{"lat":33.50921,"lon":-111.89903}},{"facility":"Arizona Kidney Disease and Hypertension Centers","city":"Tucson","state":"Arizona","zip":"85712","country":"United States","geoPoint":{"lat":32.22174,"lon":-110.92648}},{"facility":"Arizona Kidney Disease & Hypertension Centers","city":"Tucson","state":"Arizona","zip":"85718","country":"United States","geoPoint":{"lat":32.22174,"lon":-110.92648}},{"facility":"Banner University Medical Center","city":"Tucson","state":"Arizona","zip":"85719","country":"United States","geoPoint":{"lat":32.22174,"lon":-110.92648}},{"facility":"University of California Davis Medical Center","city":"Davis","state":"California","zip":"95616","country":"United States","geoPoint":{"lat":38.54491,"lon":-121.74052}},{"facility":"University of California, Irvine","city":"Irvine","state":"California","zip":"92697","country":"United States","geoPoint":{"lat":33.66946,"lon":-117.82311}},{"facility":"Keck School of Medicine USC","city":"Los Angeles","state":"California","zip":"90033","country":"United States","geoPoint":{"lat":34.05223,"lon":-118.24368}},{"facility":"The Regents of the University of California on behalf of its Los Angeles campus","city":"Los Angeles","state":"California","zip":"90095","country":"United States","geoPoint":{"lat":34.05223,"lon":-118.24368}},{"facility":"Riverside Community Hospital","city":"Riverside","state":"California","zip":"92501","country":"United States","geoPoint":{"lat":33.95335,"lon":-117.39616}},{"facility":"California Institute of Renal Research","city":"San Diego","state":"California","zip":"92123","country":"United States","geoPoint":{"lat":32.71571,"lon":-117.16472}},{"facility":"University of Colorado","city":"Aurora","state":"Colorado","zip":"80045","country":"United States","geoPoint":{"lat":39.72943,"lon":-104.83192}},{"facility":"Hartford Hospital","city":"Hartford","state":"Connecticut","zip":"06102","country":"United States","geoPoint":{"lat":41.76371,"lon":-72.68509}},{"facility":"Yale University, School of Medicine","city":"New Haven","state":"Connecticut","zip":"06520","country":"United States","geoPoint":{"lat":41.30815,"lon":-72.92816}},{"facility":"Georgetown University Medical Center","city":"Washington D.C.","state":"District of Columbia","zip":"20057","country":"United States","geoPoint":{"lat":38.89511,"lon":-77.03637}},{"facility":"University of Florida","city":"Gainesville","state":"Florida","zip":"32611","country":"United States","geoPoint":{"lat":29.65163,"lon":-82.32483}},{"facility":"Florida Health Sciences Center","city":"Tampa","state":"Florida","zip":"33606","country":"United States","geoPoint":{"lat":27.94752,"lon":-82.45843}},{"facility":"Cleveland Clinic Florida (Weston)","city":"Weston","state":"Florida","zip":"33331","country":"United States","geoPoint":{"lat":26.10037,"lon":-80.39977}},{"facility":"Loyola University Medical Center","city":"Maywood","state":"Illinois","zip":"60153","country":"United States","geoPoint":{"lat":41.8792,"lon":-87.84312}},{"facility":"The University of Kansas Medical Center Research Institute","city":"Kansas City","state":"Kansas","zip":"66160","country":"United States","geoPoint":{"lat":39.11417,"lon":-94.62746}},{"facility":"University of Maryland","city":"Baltimore","state":"Maryland","zip":"21201","country":"United States","geoPoint":{"lat":39.29038,"lon":-76.61219}},{"facility":"Brigham and Women's Hospital","city":"Boston","state":"Massachusetts","zip":"02115","country":"United States","geoPoint":{"lat":42.35843,"lon":-71.05977}},{"facility":"Lahey Hospital and Medical Center","city":"Burlington","state":"Massachusetts","zip":"01805","country":"United States","geoPoint":{"lat":42.50482,"lon":-71.19561}},{"facility":"Renal Transplant Associates of New England","city":"Springfield","state":"Massachusetts","zip":"01107","country":"United States","geoPoint":{"lat":42.10148,"lon":-72.58981}},{"facility":"University of Michigan","city":"Ann Arbor","state":"Michigan","zip":"48109","country":"United States","geoPoint":{"lat":42.27756,"lon":-83.74088}},{"facility":"Harper University Hospital, Detroit Medical Center, Wayne State University","city":"Detroit","state":"Michigan","zip":"48201","country":"United States","geoPoint":{"lat":42.33143,"lon":-83.04575}},{"facility":"Henry Ford Health System","city":"Detroit","state":"Michigan","zip":"48202","country":"United States","geoPoint":{"lat":42.33143,"lon":-83.04575}},{"facility":"St. Louis University","city":"St Louis","state":"Missouri","zip":"63103","country":"United States","geoPoint":{"lat":38.62727,"lon":-90.19789}},{"facility":"Washington University School of Medicine in St. Louis","city":"St Louis","state":"Missouri","zip":"63110","country":"United States","geoPoint":{"lat":38.62727,"lon":-90.19789}},{"facility":"University of Nebraska","city":"Omaha","state":"Nebraska","zip":"68198","country":"United States","geoPoint":{"lat":41.25626,"lon":-95.94043}},{"facility":"University Medical Center of Southern Nevada","city":"Las Vegas","state":"Nevada","zip":"89102","country":"United States","geoPoint":{"lat":36.17497,"lon":-115.13722}},{"facility":"Saint Barnabas Medical Center","city":"Livingston","state":"New Jersey","zip":"07039","country":"United States","geoPoint":{"lat":40.79593,"lon":-74.31487}},{"facility":"Erie County Medical Center","city":"Buffalo","state":"New York","zip":"14215","country":"United States","geoPoint":{"lat":42.88645,"lon":-78.87837}},{"facility":"Northwell Health, Inc","city":"Manhasset","state":"New York","zip":"11030","country":"United States","geoPoint":{"lat":40.79788,"lon":-73.69957}},{"facility":"Columbia University Medical Center","city":"New York","state":"New York","zip":"10032","country":"United States","geoPoint":{"lat":40.71427,"lon":-74.00597}},{"facility":"The Research Institute at Westchester Medical Center","city":"Valhalla","state":"New York","zip":"10595","country":"United States","geoPoint":{"lat":41.07482,"lon":-73.77513}},{"facility":"East Carolina University","city":"Greenville","state":"North Carolina","zip":"27858","country":"United States","geoPoint":{"lat":35.61266,"lon":-77.36635}},{"facility":"Wake Forest University Health Sciences","city":"Winston-Salem","state":"North Carolina","zip":"27157","country":"United States","geoPoint":{"lat":36.09986,"lon":-80.24422}},{"facility":"The Cleveland Clinic Foundation","city":"Cleveland","state":"Ohio","zip":"44195","country":"United States","geoPoint":{"lat":41.4995,"lon":-81.69541}},{"facility":"The University of Toledo","city":"Toledo","state":"Ohio","zip":"43606","country":"United States","geoPoint":{"lat":41.66394,"lon":-83.55521}},{"facility":"Legacy Research","city":"Portland","state":"Oregon","zip":"97232","country":"United States","geoPoint":{"lat":45.52345,"lon":-122.67621}},{"facility":"Lehigh Valley Health Network","city":"Allentown","state":"Pennsylvania","zip":"18103","country":"United States","geoPoint":{"lat":40.60843,"lon":-75.49018}},{"facility":"Kidney Care Specialists","city":"Bethlehem","state":"Pennsylvania","zip":"18017","country":"United States","geoPoint":{"lat":40.62593,"lon":-75.37046}},{"facility":"University of Pennsylvania","city":"Philadelphia","state":"Pennsylvania","zip":"19104","country":"United States","geoPoint":{"lat":39.95238,"lon":-75.16362}},{"facility":"Einstein Medical Center","city":"Philadelphia","state":"Pennsylvania","zip":"19141","country":"United States","geoPoint":{"lat":39.95238,"lon":-75.16362}},{"facility":"Rhode Island Hospital","city":"Providence","state":"Rhode Island","zip":"02903","country":"United States","geoPoint":{"lat":41.82399,"lon":-71.41283}},{"facility":"Vanderbilt University","city":"Nashville","state":"Tennessee","zip":"37235","country":"United States","geoPoint":{"lat":36.16589,"lon":-86.78444}},{"facility":"UT Southwestern","city":"Dallas","state":"Texas","zip":"75390","country":"United States","geoPoint":{"lat":32.78306,"lon":-96.80667}},{"facility":"Baylor Scott and White Research Institute","city":"Temple","state":"Texas","zip":"76508","country":"United States","geoPoint":{"lat":31.09823,"lon":-97.34278}},{"facility":"IHC Health Services, Inc","city":"Salt Lake City","state":"Utah","zip":"84111","country":"United States","geoPoint":{"lat":40.76078,"lon":-111.89105}},{"facility":"University of Utah","city":"Salt Lake City","state":"Utah","zip":"84132","country":"United States","geoPoint":{"lat":40.76078,"lon":-111.89105}},{"facility":"Virginia Commonwealth University","city":"Richmond","state":"Virginia","zip":"23298","country":"United States","geoPoint":{"lat":37.55376,"lon":-77.46026}},{"facility":"University of Washington","city":"Seattle","state":"Washington","zip":"98195","country":"United States","geoPoint":{"lat":47.60621,"lon":-122.33207}},{"facility":"West Virginia University","city":"Morgantown","state":"West Virginia","zip":"26506","country":"United States","geoPoint":{"lat":39.62953,"lon":-79.9559}}]},"referencesModule":{"references":[{"pmid":"38595232","type":"DERIVED","citation":"Bromberg JS, Bunnapradist S, Samaniego-Picota M, Anand S, Stites E, Gauthier P, Demko Z, Prewett A, Armer-Cabral M, Marshall K, Kaur N, Bloom MS, Tabriziani H, Bhorade S, Cooper M; ProActive Investigators. Elevation of Donor-derived Cell-free DNA Before Biopsy-proven Rejection in Kidney Transplant. Transplantation. 2024 Sep 1;108(9):1994-2004. doi: 10.1097/TP.0000000000005007. Epub 2024 Aug 20."}]},"ipdSharingStatementModule":{"ipdSharing":"NO"}},"derivedSection":{"miscInfoModule":{"versionHolder":"2026-02-25"}},"hasResults":false}