{"protocolSection":{"identificationModule":{"nctId":"NCT03888105","orgStudyIdInfo":{"id":"R1979-ONC-1625"},"secondaryIdInfos":[{"id":"2017-002139-41","type":"EUDRACT_NUMBER"},{"id":"2024-511747-25-00","type":"REGISTRY","domain":"CTIS number"}],"organization":{"fullName":"Regeneron Pharmaceuticals","class":"INDUSTRY"},"briefTitle":"A Study to Assess the Anti-Tumor Activity and Safety of Odronextamab in Adult Patients With B-cell Non-Hodgkin Lymphoma Who Have Been Previously Treated With Other Cancer Therapies","officialTitle":"An Open-Label Study to Assess the Anti-Tumor Activity and Safety of REGN1979, an Anti-CD20 x Anti-CD3 Bispecific Antibody, in Patients With Relapsed or Refractory B-cell Non-Hodgkin Lymphoma","acronym":"ELM-2"},"statusModule":{"statusVerifiedDate":"2025-10","overallStatus":"ACTIVE_NOT_RECRUITING","expandedAccessInfo":{"hasExpandedAccess":false},"startDateStruct":{"date":"2019-11-13","type":"ACTUAL"},"primaryCompletionDateStruct":{"date":"2026-07-06","type":"ESTIMATED"},"completionDateStruct":{"date":"2028-12-15","type":"ESTIMATED"},"studyFirstSubmitDate":"2019-03-14","studyFirstSubmitQcDate":"2019-03-20","studyFirstPostDateStruct":{"date":"2019-03-25","type":"ACTUAL"},"lastUpdateSubmitDate":"2025-10-14","lastUpdatePostDateStruct":{"date":"2025-10-15","type":"ACTUAL"}},"sponsorCollaboratorsModule":{"responsibleParty":{"type":"SPONSOR"},"leadSponsor":{"name":"Regeneron Pharmaceuticals","class":"INDUSTRY"}},"oversightModule":{"isFdaRegulatedDrug":true,"isFdaRegulatedDevice":false},"descriptionModule":{"briefSummary":"This study is researching an investigational drug, odronextamab, in adult patients B-cell non-Hodgkin's lymphoma (B-NHL).\n\nThe main purpose of this study is to assess the effectiveness of odronextamab in destroying cancer cells and to learn more about the safety of odronextamab.\n\nThe study is looking at several other research questions, including:\n\n* To see if odronextamab works to destroy cancer cells\n* Side effects that may be experienced by people taking odronextamab\n* How odronextamab works in the body\n* How much odronextamab is present in the blood"},"conditionsModule":{"conditions":["B-cell Non-Hodgkin Lymphoma (B-NHL)"],"keywords":["Relapsed B-NHL","Refractory B-NHL","NHL","Follicular lymphoma (FL)","Diffuse large B-cell lymphoma (DLBCL)","Mantle cell lymphoma (MCL)","Marginal zone lymphoma (MZL)","bispecific antibody","CD20"]},"designModule":{"studyType":"INTERVENTIONAL","phases":["PHASE2"],"designInfo":{"allocation":"NON_RANDOMIZED","interventionModel":"PARALLEL","interventionModelDescription":"5 cohorts The first 68 patients in the DLBCL cohort will be randomized; the remaining patients will not be randomized","primaryPurpose":"TREATMENT","maskingInfo":{"masking":"NONE"}},"enrollmentInfo":{"count":515,"type":"ACTUAL"}},"armsInterventionsModule":{"armGroups":[{"label":"FL","type":"EXPERIMENTAL","description":"Follicular lymphoma grade 1-3a cohort","interventionNames":["Drug: Odronextamab"]},{"label":"DLBCL","type":"EXPERIMENTAL","description":"Diffuse large B-cell lymphoma cohort","interventionNames":["Drug: Odronextamab"]},{"label":"MCL","type":"EXPERIMENTAL","description":"Mantle Cell Lymphoma cohort","interventionNames":["Drug: Odronextamab"]},{"label":"MZL","type":"EXPERIMENTAL","description":"Marginal Zone Lymphoma cohort","interventionNames":["Drug: Odronextamab"]},{"label":"Other B-NHL","type":"EXPERIMENTAL","description":"Other B-cell non-Hodgkin lymphoma cohort (excluding FL Grade 1-3a, DLBCL, MCL, MZL, Waldenström macroglobulinemia \\[WM\\]); Patients with a current diagnosis of mixed histology of B-NHL with an aggressive component (such as concurrent FL and DLBCL) will be allowed","interventionNames":["Drug: Odronextamab"]}],"interventions":[{"type":"DRUG","name":"Odronextamab","description":"Administered by intravenous (IV) infusion","armGroupLabels":["DLBCL","FL","MCL","MZL","Other B-NHL"],"otherNames":["REGN1979"]}]},"outcomesModule":{"primaryOutcomes":[{"measure":"Objective Response Rate (ORR), as assessed by independent central review","description":"FL grade 1-3a/MZL","timeFrame":"Up to 52 weeks of study treatment"},{"measure":"ORR, as assessed by independent central review","description":"DLBCL/MCL/Other B-NHL","timeFrame":"Up to 36 weeks of study treatment"}],"secondaryOutcomes":[{"measure":"ORR, as assessed by the local investigator","description":"FL/MZL","timeFrame":"Up to 52 weeks of study treatment"},{"measure":"ORR, as assessed by the local investigator","description":"DLBCL/MCL/Other B-NHL","timeFrame":"Up to 36 weeks of study treatment"},{"measure":"Complete Response (CR) Rate, as assessed by the local investigator","description":"FL grade 1-3a/MZL","timeFrame":"Up to 52 weeks of study treatment"},{"measure":"CR rate, as assessed by independent central review","description":"FL grade 1-3a/MZL","timeFrame":"Up to 52 weeks of study treatment"},{"measure":"CR rate, as assessed by the local investigator","description":"DLBCL/MCL/Other B-NHL","timeFrame":"Up to 36 weeks of study treatment"},{"measure":"CR rate, as assessed by independent central review","description":"DLBCL/MCL/Other B-NHL","timeFrame":"Up to 36 weeks of study treatment"},{"measure":"Progression-Free Survival (PFS), as assessed by independent central review","timeFrame":"Approximately 194 weeks following the first dose"},{"measure":"PFS, as assessed by the local investigator","timeFrame":"Approximately 194 weeks following the first dose"},{"measure":"Overall Survival (OS)","timeFrame":"Approximately 194 weeks following the first dose"},{"measure":"Duration Of Response (DOR), as assessed by independent central review","timeFrame":"Approximately 194 weeks following the first dose"},{"measure":"DOR, as assessed by the local investigator","timeFrame":"Approximately 194 weeks following the first dose"},{"measure":"Disease Control Rate (DCR), as assessed by independent central review","description":"FL grade 1-3a/MZL","timeFrame":"Up to 52 weeks of study treatment"},{"measure":"DCR, as assessed by the local investigator","description":"FL grade 1-3a/MZL","timeFrame":"Up to 52 weeks of study treatment"},{"measure":"DCR, as assessed by independent central review","description":"DLBCL/MCL/Other B-NHL","timeFrame":"Up to 36 weeks of study treatment"},{"measure":"DCR, as assessed by the local investigator","description":"DLBCL/MCL/Other B-NHL","timeFrame":"Up to 36 weeks of study treatment"},{"measure":"Incidence and severity of Treatment Emergent Adverse Events (TEAEs)","timeFrame":"Approximately 194 weeks following the first dose"},{"measure":"Concentration of odronextamab","description":"End of infusion \\[EOI\\]; Concentration at a specified time t \\[Ct\\])","timeFrame":"12 weeks following end of treatment"},{"measure":"Incidence of Anti-Drug Antibodies (ADA) to odronextamab over time","timeFrame":"12 weeks following end of treatment"},{"measure":"Titer of anti-drug antibodies to odronextamab over time","timeFrame":"12 weeks following end of treatment"},{"measure":"Incidence of Neutralizing antibodies (Nab) to odronextamab over time","timeFrame":"12 weeks following end of treatment"},{"measure":"Changes in scores of patient-reported outcomes as measured by European Organisation for Research and Treatment of Cancer Quality of Life Questionnaire Cancer-30 (EORTC-QLQ-C30)","description":"The EORTC QLQ-C30 is a self-reported, 30-item generic questionnaire developed to assess 15 domains: global health status scale, five functional scales (physical, role, emotional, cognitive, and social functioning) and nine symptom scales (fatigue, nausea, vomiting, pain, dyspnea, insomnia, appetite loss, constipation, diarrhea and financial difficulties).","timeFrame":"Approximately 194 weeks following the first dose"},{"measure":"Changes in scores of patient-reported outcomes as measured by Functional Assessment of Cancer Treatment-Lymphoma (FACT-Lym)","description":"Composed of the FACT-G plus the 15-item Lymphoma Subscale (LymS).","timeFrame":"Approximately 194 weeks following the first dose"},{"measure":"Changes in scores of patient-reported outcomes as measured by EuroQol-5 Dimensions-3 Levels (EQ-5D-3L)","description":"The EQ-5D-3L is a standardized instrument for use as a measure of health outcome. It is a health questionnaire that consists of the EQ-5D descriptive system and the EQ visual analogue scale (EQ VAS). The EQ-5D-3L descriptive system comprises the following 5 dimensions: mobility, self-care, usual activities, pain/discomfort and anxiety/depression. Each dimension has 3 levels: no problems, some problems, extreme problems.","timeFrame":"Approximately 194 weeks following the first dose"}]},"eligibilityModule":{"eligibilityCriteria":"Key Inclusion Criteria:\n\n1. For the FL grade 1-3a cohort only: Central histopathologic confirmation of the FL Grade 1 to 3a diagnosis must be obtained before study enrollment. Patients with FL grade 3b are ineligible for this cohort but may be included in the \"other B-NHL\" cohort. Follicular lymphoma subtyping is based on the World Health Organization (WHO) classification (Swerdlow, 2017)\n2. Disease-specific cohorts:\n\n   Patients should in the judgment of the investigator require systemic therapy for lymphoma at the time of study enrollment\n   * FL grade 1-3a cohort: Patients with FL grade 1-3a that has relapsed after or is refractory to at least 2 prior lines of systemic therapy, as defined in the protocol\n   * DLBCL cohort: Patients with DLBCL that has relapsed after or is refractory to at least 2 prior lines of systemic therapy as defined in the protocol\n   * MCL after BTK inhibitor therapy cohort: Patients with MCL who have relapsed or refractory disease to at least one prior line of systemic therapy and had prior treatment with a Bruton's tyrosine kinase (BTK) inhibitor\n   * MZL cohort: Patients with MZL that have relapsed or is refractory to at least 2 prior lines of systemic therapy\n   * Other B-NHL cohort: Patients with B-NHL other than FL grade 1-3a, DLBCL, MCL, or MZL that has relapsed after or is refractory to at least 2 prior lines of systemic therapy as defined in the protocol. New enrollment stopped for patients with Burkitt lymphoma and Burkitt-like lymphoma.\n3. Measurable disease on cross sectional imaging as defined in the protocol documented by diagnostic imaging (computed tomography (CT), or magnetic resonance imaging (MRI)\n4. Eastern Cooperative Oncology Group (ECOG) performance status 0 or 1\n5. Adequate bone marrow, hepatic, and renal function as defined in the protocol\n\nKey Exclusion Criteria:\n\n1. Primary central nervous system (CNS) lymphoma or known involvement by non-primary CNS Non-Hodgkin Lymphoma (NHL) (suspected CNS lymphoma should be evaluated by lumbar puncture, as appropriate, in addition to the mandatory head CT or MRI)\n2. Treatment with any systemic anti-lymphoma therapy within 5 half-lives or within 28 days prior to first administration of study drug, whichever is shorter\n3. History of allogeneic stem cell transplantation, up to 12 months prior to first administration of study drug. The presence of acute or chronic graft-versus host disease (GVHD) will also be an exclusion\n4. Continuous systemic corticosteroid treatment with more than 10 mg per day of prednisone or anti-inflammatory equivalent within 72 hours of start of study drug\n5. History of neurodegenerative condition or CNS movement disorder. Patients with a history of seizure within 12 months prior to study enrollment are excluded\n6. Another malignancy except B-NHL in the past 5 years, with the exception of non-melanoma skin cancer that has undergone potentially curative therapy or in situ cervical carcinoma, or any other tumor that has been deemed to be effectively treated with definitive local control and with curative intent\n7. Uncontrolled infection with human immunodeficiency virus (HIV), hepatitis B or hepatitis C infection; cytomegalovirus (CMV) infection as noted by detectable levels on a blood polymerase chain reaction (PCR) assay as defined in the protocol or other uncontrolled infections\n8. Known hypersensitivity to both allopurinol and rasburicase\n9. Prior treatment with an anti-CD20 x anti-CD3 bispecific therapy\n\nNote: Other protocol-defined Inclusion/Exclusion criteria apply","healthyVolunteers":false,"sex":"ALL","minimumAge":"18 Years","stdAges":["ADULT","OLDER_ADULT"]},"contactsLocationsModule":{"overallOfficials":[{"name":"Clinical Trial Management","affiliation":"Regeneron Pharmaceuticals","role":"STUDY_DIRECTOR"}],"locations":[{"facility":"Rush University Medical Center","city":"Chicago","state":"Illinois","zip":"60612","country":"United States","geoPoint":{"lat":41.85003,"lon":-87.65005}},{"facility":"University of Iowa","city":"Iowa City","state":"Iowa","zip":"52242","country":"United States","geoPoint":{"lat":41.66113,"lon":-91.53017}},{"facility":"Norton Cancer Institute","city":"Louisville","state":"Kentucky","zip":"40207","country":"United States","geoPoint":{"lat":38.25424,"lon":-85.75941}},{"facility":"Tufts Medical Center","city":"Boston","state":"Massachusetts","zip":"02111","country":"United States","geoPoint":{"lat":42.35843,"lon":-71.05977}},{"facility":"Beth Israel Deaconess Medical Center","city":"Boston","state":"Massachusetts","zip":"02215","country":"United States","geoPoint":{"lat":42.35843,"lon":-71.05977}},{"facility":"Mayo Clinic - Rochester","city":"Rochester","state":"Minnesota","zip":"55905","country":"United States","geoPoint":{"lat":44.02163,"lon":-92.4699}},{"facility":"John Theurer Cancer Center at Hackensack UMC","city":"Hackensack","state":"New Jersey","zip":"07601","country":"United States","geoPoint":{"lat":40.88593,"lon":-74.04347}},{"facility":"Weill Cornell Medical College New York Presbyterian Hospital","city":"New York","state":"New York","zip":"10021","country":"United States","geoPoint":{"lat":40.71427,"lon":-74.00597}},{"facility":"Stony Brook University Hospital","city":"Stony Brook","state":"New York","zip":"11794","country":"United States","geoPoint":{"lat":40.92565,"lon":-73.14094}},{"facility":"Wake Forest Baptist Medical Center","city":"Winston-Salem","state":"North Carolina","zip":"27257","country":"United States","geoPoint":{"lat":36.09986,"lon":-80.24422}},{"facility":"Cleveland Clinic Foundation","city":"Cleveland","state":"Ohio","zip":"44195","country":"United States","geoPoint":{"lat":41.4995,"lon":-81.69541}},{"facility":"Stephenson Cancer Center","city":"Oklahoma City","state":"Oklahoma","zip":"73104","country":"United States","geoPoint":{"lat":35.46756,"lon":-97.51643}},{"facility":"Harold C. Simmons Comprehensive Cancer Center","city":"Dallas","state":"Texas","zip":"75390","country":"United States","geoPoint":{"lat":32.78306,"lon":-96.80667}},{"facility":"Border Medical Oncology","city":"East Albury","state":"New South Wales","zip":"2640","country":"Australia","geoPoint":{"lat":-36.08144,"lon":146.92991}},{"facility":"Northern NSW Local Health District The Tweed Hospital","city":"Tweed Heads","state":"South Wales","zip":"2485","country":"Australia","geoPoint":{"lat":-28.17671,"lon":153.5452}},{"facility":"Epworth Hospital","city":"East Melbourne","state":"Victoria","zip":"VIC 3002","country":"Australia","geoPoint":{"lat":-37.81667,"lon":144.9879}},{"facility":"North Building","city":"Frankston","state":"Victoria","zip":"3199","country":"Australia","geoPoint":{"lat":-38.14458,"lon":145.12291}},{"facility":"Andrew Love Cancer Centre","city":"Geelong","state":"Victoria","zip":"3220","country":"Australia","geoPoint":{"lat":-38.14711,"lon":144.36069}},{"facility":"Olivia Newton John Cancer Wellness & Research Centre","city":"Heidelberg","state":"Victoria","zip":"VIC 3084","country":"Australia","geoPoint":{"lat":-37.75,"lon":145.06667}},{"facility":"Royal Perth Hospital","city":"Perth","state":"Western Australia","zip":"6000","country":"Australia","geoPoint":{"lat":-31.95224,"lon":115.8614}},{"facility":"Cross Cancer Institute","city":"Edmonton","state":"Alberta","zip":"T6G172","country":"Canada","geoPoint":{"lat":53.55014,"lon":-113.46871}},{"facility":"QEII Health Science Centre - Halifax location","city":"Halifax","state":"Nova Scotia","zip":"B3H 2Y9","country":"Canada","geoPoint":{"lat":44.64269,"lon":-63.57688}},{"facility":"Peking University Cancer Hospital (Beijing Cancer Hospital) (Beijing Institute for Cancer Research)","city":"Beijing","state":"Beijing Municipality","zip":"100142","country":"China","geoPoint":{"lat":39.9075,"lon":116.39723}},{"facility":"Peking Union Medical College Hospital","city":"Beijing","state":"Beijing Municipality","zip":"100730","country":"China","geoPoint":{"lat":39.9075,"lon":116.39723}},{"facility":"Institute of Hematology & Blood Diseases Hospital","city":"Tianjin","state":"Beijing Municipality","zip":"300020","country":"China"},{"facility":"Second Affiliated Hospital - Xinqiao Hospital","city":"Chongqing","state":"Chongqing Municipality","zip":"400000","country":"China","geoPoint":{"lat":29.56026,"lon":106.55771}},{"facility":"Sun Yat-Sen University Cancer Center - Cancer Prevention and Treatment Center, Sun Yat-sen University","city":"Guangzhou","state":"Guangdong","zip":"510000","country":"China","geoPoint":{"lat":23.11667,"lon":113.25}},{"facility":"The Affiliated Tumor Hospital","city":"Harbin","state":"Heilongjiang","zip":"150081","country":"China","geoPoint":{"lat":45.75,"lon":126.65}},{"facility":"The First Affiliated Hospital of Zhengzhou University","city":"Zhengzhou","state":"Henan","zip":"450000","country":"China","geoPoint":{"lat":34.75778,"lon":113.64861}},{"facility":"Tongji Hospital, Tongji Medical College of Huazhong University of Science and Technology","city":"Wuhan","state":"Hubei","zip":"430030","country":"China","geoPoint":{"lat":30.58333,"lon":114.26667}},{"facility":"The First Affiliated Hospital - Soochow University","city":"Suzhou","state":"Jiangsu","zip":"215000","country":"China","geoPoint":{"lat":31.30408,"lon":120.59538}},{"facility":"The First Bethune Hospital","city":"Changchun","state":"Jilin","zip":"130021","country":"China","geoPoint":{"lat":43.88,"lon":125.32278}},{"facility":"The First Affiliated Hospital of Xi 'an Jiaotong University","city":"Xi'an","state":"Shaanxi","zip":"710061","country":"China","geoPoint":{"lat":34.25833,"lon":108.92861}},{"facility":"Shanhai Cancer Center","city":"Shanghai","state":"Shanghai Municipality","zip":"200032","country":"China","geoPoint":{"lat":31.22222,"lon":121.45806}},{"facility":"West China Hospital","city":"Chengdu","state":"Sichuan","zip":"610041","country":"China","geoPoint":{"lat":30.66667,"lon":104.06667}},{"facility":"Tianjin Medical University Cancer Institute","city":"Tianjin","state":"Tianjin Municipality","zip":"300060","country":"China","geoPoint":{"lat":39.14222,"lon":117.17667}},{"facility":"The First Hospital affiliated to the Medical School of Zhejiang University","city":"Hangzhou","state":"Zhejiang","zip":"310003","country":"China","geoPoint":{"lat":30.29365,"lon":120.16142}},{"facility":"The Second Affiliated Hospital of Zhejiang University School of Medicine","city":"Hangzhou","state":"Zhejiang","zip":"310009","country":"China","geoPoint":{"lat":30.29365,"lon":120.16142}},{"facility":"Peking University - Third Hospital","city":"Beijing","zip":"100191","country":"China","geoPoint":{"lat":39.9075,"lon":116.39723}},{"facility":"Hopital Haut-Leveque","city":"Pessac","state":"Aquitaine","zip":"33604","country":"France","geoPoint":{"lat":44.80565,"lon":-0.6324}},{"facility":"Centre Hospitalier Universitaire de Caen - Hematologie Clinique IHBN","city":"Caen","state":"Calvados","zip":"14000","country":"France","geoPoint":{"lat":49.18585,"lon":-0.35912}},{"facility":"Hopital Lyon Sud","city":"Pierre-Bénite","state":"Lyon","zip":"69310","country":"France","geoPoint":{"lat":45.70359,"lon":4.82424}},{"facility":"Hopital Claude Huriez - CHR Lille","city":"Lille","state":"Nord","zip":"59037","country":"France","geoPoint":{"lat":50.63391,"lon":3.05512}},{"facility":"CHU Hotel Dieu Service Hematologie","city":"Nantes","state":"Pays de la Loire Region","zip":"44093","country":"France","geoPoint":{"lat":47.21725,"lon":-1.55336}},{"facility":"Chu Poitiers - Pole Regional De Cancerologie","city":"Poitiers","state":"Vienne","zip":"86000","country":"France","geoPoint":{"lat":46.58261,"lon":0.34348}},{"facility":"Hopital Saint Louis","city":"Paris","zip":"75010","country":"France","geoPoint":{"lat":48.85341,"lon":2.3488}},{"facility":"Hospital de la Pitie-Salpetriere","city":"Paris","zip":"75651","country":"France","geoPoint":{"lat":48.85341,"lon":2.3488}},{"facility":"Unite Hemopathies Lymphoides Hospital Henri Mondor","city":"Créteil","state":"Île-de-France Region","zip":"94010","country":"France","geoPoint":{"lat":48.79266,"lon":2.46569}},{"facility":"Kliniken Ostalb Stauferklinikum Schwab Gmund","city":"Mutlangen","state":"Gmund","zip":"D-73557","country":"Germany","geoPoint":{"lat":48.82588,"lon":9.79714}},{"facility":"University Hospital Halle Saale","city":"Halle","zip":"6120","country":"Germany","geoPoint":{"lat":51.48158,"lon":11.97947}},{"facility":"Universitatsklinik Wurzburg, Med Klinik und Poliklinik II, Zentrum Innere Medizin","city":"Würzburg","zip":"97080","country":"Germany","geoPoint":{"lat":49.79391,"lon":9.95121}},{"facility":"UOC Hematologia, Fondazione IRCCS, Ca Granda, OM Policlinico","city":"Milan","state":"Milan","zip":"20122","country":"Italy","geoPoint":{"lat":42.78235,"lon":12.59836}},{"facility":"University of Bologna Dipartimento di Medicina Specialistica Diagnostica e Sperimentale","city":"Bologna","zip":"40138","country":"Italy","geoPoint":{"lat":44.49381,"lon":11.33875}},{"facility":"Uos Ematologia - Ospedale Civile di Livorno","city":"Livorno","zip":"57124","country":"Italy","geoPoint":{"lat":43.54427,"lon":10.32615}},{"facility":"ASST Grande Ospedale Metropolitano Niguarda - Division of Hematology","city":"Milan","zip":"20162","country":"Italy","geoPoint":{"lat":42.78235,"lon":12.59836}},{"facility":"AOU Maggiore della Carita","city":"Novara","zip":"28100","country":"Italy","geoPoint":{"lat":45.44694,"lon":8.62118}},{"facility":"Presidio Ospedaliero Santa Maria della Misericordia","city":"Perugia","zip":"6156","country":"Italy","geoPoint":{"lat":43.1122,"lon":12.38878}},{"facility":"Ospedale Santa Maria delle Croci","city":"Ravenna","zip":"48121","country":"Italy","geoPoint":{"lat":44.41344,"lon":12.20121}},{"facility":"Arcispedale Santa Maria Nuova","city":"Reggio Emilia","zip":"42123","country":"Italy","geoPoint":{"lat":44.69825,"lon":10.63125}},{"facility":"Ospedale dell'Angelo - Varese","city":"Varese","zip":"21100","country":"Italy","geoPoint":{"lat":45.82058,"lon":8.82511}},{"facility":"Ospedale DellAngelo Di Mestre","city":"Venice","zip":"30174","country":"Italy","geoPoint":{"lat":45.43713,"lon":12.33265}},{"facility":"Japanese Red Cross Aichi Medical Center Nagoya Daini Hospital","city":"Nagoya","state":"Aichi-ken","zip":"466-8650","country":"Japan","geoPoint":{"lat":35.18147,"lon":136.90641}},{"facility":"National Hospital Organization Nagoya Medical Center","city":"Nagoya","state":"Aiti","zip":"460-0001","country":"Japan","geoPoint":{"lat":35.18147,"lon":136.90641}},{"facility":"Chiba Cancer Center","city":"Chiba","state":"Chiba","zip":"260-8717","country":"Japan","geoPoint":{"lat":35.6,"lon":140.11667}},{"facility":"National Cancer Center Hospital East","city":"Kashiwa-shi","state":"Chiba","zip":"277-8577","country":"Japan"},{"facility":"National Hospital Organization Shikoku Cancer Center","city":"Matsuyama","state":"Ehime","zip":"791-0280","country":"Japan","geoPoint":{"lat":33.83916,"lon":132.76574}},{"facility":"National Hospital Organization National Kyushu Cancer Center","city":"Fukuoka","state":"Hukuoka","zip":"811-1395","country":"Japan","geoPoint":{"lat":33.6,"lon":130.41667}},{"facility":"Kobe City Medical Center General Hospital","city":"Kobe","state":"Hyōgo","zip":"650-0047","country":"Japan","geoPoint":{"lat":34.6913,"lon":135.183}},{"facility":"Tokai University Hospital","city":"Isehara-Shi","state":"Kanagawa","zip":"259-1193","country":"Japan"},{"facility":"University Hospital Kyoto Prefectural University of Medicine","city":"Kyoto","state":"Kyoto","zip":"602-8566","country":"Japan","geoPoint":{"lat":35.02107,"lon":135.75385}},{"facility":"Osaka Metropolitan University Hospital","city":"Osaka","state":"Osaka","zip":"545-8586","country":"Japan","geoPoint":{"lat":34.69379,"lon":135.50107}},{"facility":"Saitama Medical University International Medical Center","city":"Hidaka","state":"Saitama","zip":"350-1298","country":"Japan","geoPoint":{"lat":35.91664,"lon":139.36233}},{"facility":"National Cancer Center Hospital - Tsukiji Campus","city":"Chuo Ku","state":"Tokyo","zip":"104-0045","country":"Japan"},{"facility":"Yamagata University Hospital","city":"Yamagata","state":"Yamagata","zip":"990-9585","country":"Japan","geoPoint":{"lat":38.23333,"lon":140.36667}},{"facility":"Japanese Red Cross Nagasaki Genbaku Hospital","city":"Nagasaki","zip":"852-8511","country":"Japan","geoPoint":{"lat":32.75,"lon":129.88333}},{"facility":"Centrum Onkologii Instytut im M Sklodowskiej CurieOddzial Chorob United Kingdomladu Chlonnego","city":"Warsaw","state":"Masovian Voivodeship","zip":"02-781","country":"Poland","geoPoint":{"lat":52.22977,"lon":21.01178}},{"facility":"Uniwersyteckie Centrum","city":"Gdansk","state":"Pomeranian Voivodeship","zip":"80-214","country":"Poland","geoPoint":{"lat":54.35227,"lon":18.64912}},{"facility":"Pomorskie Hospitals SP. Z O. O. Oncology And Radiotherapy Ward","city":"Gdynia","state":"Pomeranian Voivodeship","zip":"81519","country":"Poland","geoPoint":{"lat":54.51889,"lon":18.53188}},{"facility":"Uniwersyteckie Centrum Kliniczne","city":"Gdansk","zip":"80-214","country":"Poland","geoPoint":{"lat":54.35227,"lon":18.64912}},{"facility":"Szpitale Pomorskie spSp. Z.o.o.","city":"Gdynia","zip":"81-519","country":"Poland","geoPoint":{"lat":54.51889,"lon":18.53188}},{"facility":"Wojewodzkie Wielospecjalistyczne Centrum Onkologii i Traumatologii im. Mikolaja Kopernika w Lodzi (Copernicus Memorial Hospital)","city":"Lodz","zip":"93-513","country":"Poland","geoPoint":{"lat":51.77058,"lon":19.47395}},{"facility":"Instytut Hematologii I Transfuzjologii Klinika Hematologii","city":"Warsaw","zip":"02-776","country":"Poland","geoPoint":{"lat":52.22977,"lon":21.01178}},{"facility":"Uniwersytecki Szpital Kliniczny we Wroclawiu, Klinika Hematologii, Terapii Komorkowych i Chorob Wewnetrznych","city":"Wroclaw","zip":"50-367","country":"Poland","geoPoint":{"lat":51.10286,"lon":17.03006}},{"facility":"National University Hospital","city":"Singapore","zip":"119074","country":"Singapore","geoPoint":{"lat":1.28967,"lon":103.85007}},{"facility":"Singapore General Hospital","city":"Singapore","zip":"169608","country":"Singapore","geoPoint":{"lat":1.28967,"lon":103.85007}},{"facility":"Icon Soc Farrer Park","city":"Singapore","zip":"217562","country":"Singapore","geoPoint":{"lat":1.28967,"lon":103.85007}},{"facility":"University of Ulsan College of Medicine","city":"Ulsan","state":"Daegu","zip":"682-714","country":"South Korea"},{"facility":"National Cancer Center","city":"Gyeonggi-do","state":"Gyeonggi-do","zip":"10408","country":"South Korea","geoPoint":{"lat":37.58944,"lon":126.76917}},{"facility":"Dong-A University Hospital","city":"Busan","zip":"49201","country":"South Korea","geoPoint":{"lat":35.10168,"lon":129.03004}},{"facility":"Seoul National University Hospital","city":"Seoul","zip":"3080","country":"South Korea","geoPoint":{"lat":37.566,"lon":126.9784}},{"facility":"Severance Hospital","city":"Seoul","zip":"3722","country":"South Korea","geoPoint":{"lat":37.566,"lon":126.9784}},{"facility":"Samsung Medical Center","city":"Seoul","zip":"6351","country":"South Korea","geoPoint":{"lat":37.566,"lon":126.9784}},{"facility":"The Catholic University of Korea Seoul St Marys Hospital","city":"Seoul","zip":"6591","country":"South Korea","geoPoint":{"lat":37.566,"lon":126.9784}},{"facility":"Ewha Womans University Mokdong Hospital - Hemato Oncology","city":"Seoul","zip":"7985","country":"South Korea","geoPoint":{"lat":37.566,"lon":126.9784}},{"facility":"Hospital Universitari Son Espases","city":"Palma","state":"Balearic Islands","zip":"07120","country":"Spain","geoPoint":{"lat":39.56939,"lon":2.65024}},{"facility":"Hospital Son Llatzer","city":"Palma","state":"Balearic Islands","zip":"07198","country":"Spain","geoPoint":{"lat":39.56939,"lon":2.65024}},{"facility":"Ico Lhospitalet - Hospital Duran i Reynals","city":"Barcelona","state":"Catalonia","zip":"8907","country":"Spain","geoPoint":{"lat":41.38879,"lon":2.15899}},{"facility":"Hospital Universitario Quiron Salud Madrid","city":"Pozuelo de Alarcón","state":"Madrid","zip":"28223","country":"Spain","geoPoint":{"lat":40.43293,"lon":-3.81338}},{"facility":"Hospital Universitario Vall d'Hebron","city":"Barcelona","zip":"08035","country":"Spain","geoPoint":{"lat":41.38879,"lon":2.15899}},{"facility":"Hospital Clinic de Barcelona - Planta 4 Escalera","city":"Barcelona","zip":"8036","country":"Spain","geoPoint":{"lat":41.38879,"lon":2.15899}},{"facility":"Hospital de la Santa Creu i Sant Pau","city":"Barcelona","zip":"8041","country":"Spain","geoPoint":{"lat":41.38879,"lon":2.15899}},{"facility":"Hospital Universitario Fundacion Jimenez Diaz","city":"Madrid","zip":"28040","country":"Spain","geoPoint":{"lat":40.4165,"lon":-3.70256}},{"facility":"Hospital Universitario 12 de Octubre","city":"Madrid","zip":"28041","country":"Spain","geoPoint":{"lat":40.4165,"lon":-3.70256}},{"facility":"Hospital Universitario HM Sanchinarro","city":"Madrid","zip":"28050","country":"Spain","geoPoint":{"lat":40.4165,"lon":-3.70256}},{"facility":"Hospital Universitario de Salamanca","city":"Salamanca","zip":"37007","country":"Spain","geoPoint":{"lat":40.96882,"lon":-5.66388}},{"facility":"Hospital Universitari i Politecnic La Fe","city":"Valencia","zip":"46026","country":"Spain","geoPoint":{"lat":39.47391,"lon":-0.37966}},{"facility":"Chang Gung Memorial Hospital Kaohsiung","city":"Kaohsiung City","zip":"83301","country":"Taiwan","geoPoint":{"lat":22.61626,"lon":120.31333}},{"facility":"China Medical University","city":"Taichung","zip":"40447","country":"Taiwan","geoPoint":{"lat":24.1469,"lon":120.6839}},{"facility":"National Cheng Kung University","city":"Tainan","zip":"704","country":"Taiwan","geoPoint":{"lat":22.99083,"lon":120.21333}},{"facility":"Chi-Mei Medical Center - Liuying","city":"Tainan","zip":"736","country":"Taiwan","geoPoint":{"lat":22.99083,"lon":120.21333}},{"facility":"National Taiwan University Hospital","city":"Taipei","zip":"10002","country":"Taiwan","geoPoint":{"lat":25.05306,"lon":121.52639}},{"facility":"Koo Foundation Sun Yat-Sen Cancer Center","city":"Taipei","zip":"11251","country":"Taiwan","geoPoint":{"lat":25.05306,"lon":121.52639}},{"facility":"Tri-Service General Hospital","city":"Taipei","zip":"11490","country":"Taiwan","geoPoint":{"lat":25.05306,"lon":121.52639}},{"facility":"Chang Gung Medical Foundation-","city":"Taoyuan District","zip":"333","country":"Taiwan","geoPoint":{"lat":24.9896,"lon":121.3187}},{"facility":"Royal Cornwall Hospital","city":"Truro","state":"Cornwall","zip":"TR1 3LJ","country":"United Kingdom","geoPoint":{"lat":50.26526,"lon":-5.05436}},{"facility":"Derriford Hospital and the Royal Eye Infirmary","city":"Plymouth","state":"Devon","zip":"PL6 8DH","country":"United Kingdom","geoPoint":{"lat":50.37153,"lon":-4.14305}},{"facility":"The Royal Marsden Hospital","city":"Sutton","state":"Surrey","zip":"SM2 5PT","country":"United Kingdom","geoPoint":{"lat":51.35,"lon":-0.2}},{"facility":"University Hospital of Wales","city":"Cardiff","state":"Wales","zip":"CF14 4XW","country":"United Kingdom","geoPoint":{"lat":51.48,"lon":-3.18}},{"facility":"Kings College Hospital","city":"London","zip":"SE5 9RS","country":"United Kingdom","geoPoint":{"lat":51.50853,"lon":-0.12574}}]},"referencesModule":{"references":[{"pmid":"40902079","type":"DERIVED","citation":"Arnason JE, Matasar M, Luminari S, Tucker D, Sun D, Tao W, Zhu YO, Kundu K, Gupta NT, Leary A, Jankovic V, Ambati S, Mohamed H, Chaudhry A, Brouwer-Visser J. Early clearance of circulating tumor DNA and association with odronextamab response in relapsed/refractory FL and DLBCL. Blood Adv. 2025 Dec 9;9(23):6130-6140. doi: 10.1182/bloodadvances.2025016332."},{"pmid":"40472301","type":"DERIVED","citation":"Danilov AV, Kambhampati Thiruvengadam S, Linton K, Cumings K, Chirikov V, Mutebi A, Bains Chawla S, Chhibber A, Rivas Navarro F, Marques Goncalves F, Wang A, Ding Z, Alshreef A, Favaro E, Hoehn D, Sureda A. Indirect comparison of epcoritamab vs chemoimmunotherapy, mosunetuzumab, or odronextamab in follicular lymphoma. Blood Adv. 2025 Aug 12;9(15):3754-3765. doi: 10.1182/bloodadvances.2024015274."},{"pmid":"40097657","type":"DERIVED","citation":"Kim WS, Kim TM, Cho SG, Jarque I, Iskierka-Jazdzewska E, Poon LM, Prince HM, Zhang H, Cao J, Zhang M, Tessoulin B, Oh SY, Lim F, Carpio C, Tan TD, Ayyappan S, Gutierrez A, Cai J, Ufkin M, Shariff S, Brouwer-Visser J, Chaudhry A, Mohamed H, Ambati S, Walewski J; ELM-2 Investigators. Odronextamab monotherapy in patients with relapsed/refractory diffuse large B cell lymphoma: primary efficacy and safety analysis in phase 2 ELM-2 trial. Nat Cancer. 2025 Mar;6(3):528-539. doi: 10.1038/s43018-025-00921-6. Epub 2025 Mar 17."}],"seeAlsoLinks":[{"label":"Related Info","url":"https://elmclinicalresearchstudies.com/"}]},"ipdSharingStatementModule":{"ipdSharing":"YES","description":"All Individual Patient Data (IPD) that underlie publicly available results will be considered for sharing","infoTypes":["STUDY_PROTOCOL","SAP","ICF","CSR","ANALYTIC_CODE"],"timeFrame":"When Regeneron has:\n\n* received marketing authorization from major health authorities (e.g., FDA, European Medicines Agency (EMA), Pharmaceuticals and Medical Devices Agency (PMDA), etc.) for the product and indication or has globally discontinued development of the product for all indications on or after April 2020 and has no plans for future development\n* made the study results publicly available (e.g., scientific publication, scientific conference, clinical trial registry)\n* the legal authority to share the data, and\n* ensured the ability to protect participant privacy","accessCriteria":"Qualified researchers can submit a proposal for access to individual patient or aggregate level data from a Regeneron-sponsored clinical trial through Vivli. Regeneron's Independent Research Request Evaluation Criteria can be found at: https://www.regeneron.com/sites/default/files/Regeneron-External-Data-Sharing-Policy-and-Independent-Research-Request-Evaluation-Criteria.pdf","url":"https://vivli.org/"}},"derivedSection":{"miscInfoModule":{"versionHolder":"2026-02-25"},"conditionBrowseModule":{"meshes":[{"id":"D016393","term":"Lymphoma, B-Cell"},{"id":"D008224","term":"Lymphoma, Follicular"},{"id":"D016403","term":"Lymphoma, Large B-Cell, Diffuse"},{"id":"D020522","term":"Lymphoma, Mantle-Cell"},{"id":"D018442","term":"Lymphoma, B-Cell, Marginal Zone"}],"ancestors":[{"id":"D008228","term":"Lymphoma, Non-Hodgkin"},{"id":"D008223","term":"Lymphoma"},{"id":"D009370","term":"Neoplasms by Histologic Type"},{"id":"D009369","term":"Neoplasms"},{"id":"D008232","term":"Lymphoproliferative Disorders"},{"id":"D008206","term":"Lymphatic Diseases"},{"id":"D006425","term":"Hemic and Lymphatic Diseases"},{"id":"D007160","term":"Immunoproliferative Disorders"},{"id":"D007154","term":"Immune System Diseases"}]}},"hasResults":false}