{"protocolSection":{"identificationModule":{"nctId":"NCT06510816","orgStudyIdInfo":{"id":"ANX007-GA-02"},"secondaryIdInfos":[{"id":"2024-515022-88-00","type":"CTIS"}],"organization":{"fullName":"Annexon, Inc.","class":"INDUSTRY"},"briefTitle":"A Study Investigating the Efficacy and Safety of Intravitreal (IVT) Injections of Vonaprument (Formerly ANX007) in Participants With Geographic Atrophy (GA)","officialTitle":"A Phase 3, Multicenter, Randomized, Parallel-Group, Double-Masked, 2-Arm, Sham Controlled Study of the Efficacy, Safety, and Tolerability of ANX007 Administered by Intravitreal Injection in Patients With Geographic Atrophy (GA) Secondary to Age Related Macular Degeneration (AMD)","acronym":"ARCHER II"},"statusModule":{"statusVerifiedDate":"2025-11","overallStatus":"ACTIVE_NOT_RECRUITING","expandedAccessInfo":{"hasExpandedAccess":false},"startDateStruct":{"date":"2024-07-30","type":"ACTUAL"},"primaryCompletionDateStruct":{"date":"2026-10-31","type":"ESTIMATED"},"completionDateStruct":{"date":"2027-10-31","type":"ESTIMATED"},"studyFirstSubmitDate":"2024-07-15","studyFirstSubmitQcDate":"2024-07-15","studyFirstPostDateStruct":{"date":"2024-07-19","type":"ACTUAL"},"lastUpdateSubmitDate":"2025-11-05","lastUpdatePostDateStruct":{"date":"2025-11-06","type":"ACTUAL"}},"sponsorCollaboratorsModule":{"responsibleParty":{"type":"SPONSOR"},"leadSponsor":{"name":"Annexon, Inc.","class":"INDUSTRY"}},"oversightModule":{"oversightHasDmc":true,"isFdaRegulatedDrug":true,"isFdaRegulatedDevice":false},"descriptionModule":{"briefSummary":"The primary purpose of the study is to determine if IVT injections of vonaprument every month reduce vision loss in participants with GA secondary to age-related macular degeneration (AMD)."},"conditionsModule":{"conditions":["Geographic Atrophy"]},"designModule":{"studyType":"INTERVENTIONAL","phases":["PHASE3"],"designInfo":{"allocation":"RANDOMIZED","interventionModel":"PARALLEL","interventionModelDescription":"Double-masked","primaryPurpose":"TREATMENT","maskingInfo":{"masking":"QUADRUPLE","whoMasked":["PARTICIPANT","CARE_PROVIDER","INVESTIGATOR","OUTCOMES_ASSESSOR"]}},"enrollmentInfo":{"count":659,"type":"ACTUAL"}},"armsInterventionsModule":{"armGroups":[{"label":"Vonaprument","type":"EXPERIMENTAL","description":"Participants will receive vonaprument IVT injections every month during the 24-month treatment period.","interventionNames":["Drug: Vonaprument"]},{"label":"Sham Group","type":"SHAM_COMPARATOR","description":"Participants will receive Sham IVT injections every month during the 24-month treatment period.","interventionNames":["Other: Sham Administration"]}],"interventions":[{"type":"DRUG","name":"Vonaprument","description":"Form: solution for injection; Route of Administration: IVT injection","armGroupLabels":["Vonaprument"],"otherNames":["ANX007"]},{"type":"OTHER","name":"Sham Administration","description":"Form and Route of Administration: to mimic IVT injection (includes placement of the blunt opening of an empty, needleless syringe barrel on the conjunctiva in the inferotemporal quadrant of the eyeball to stimulate the pressure of an injection).","armGroupLabels":["Sham Group"]}]},"outcomesModule":{"primaryOutcomes":[{"measure":"Proportion of patients experiencing a best corrected visual acuity (BCVA) ≥15-letter loss from baseline through the primary timepoint as assessed by the Early Treatment Diabetic Retinopathy Study (ETDRS) chart at any two consecutive visits.","timeFrame":"The primary timepoint is based on accumulation of the target event rate, but no earlier than Month 12 and no later than Month 18"}],"secondaryOutcomes":[{"measure":"Change From Baseline in the Hazard of ≥15 letter BCVA Loss Through Month 12 and Month 24","timeFrame":"Baseline, Months 12 and 24"}]},"eligibilityModule":{"eligibilityCriteria":"Inclusion Criteria:\n\n* Diagnosis of GA of the macula secondary to AMD as determined by the Investigator and confirmed by the independent Central Reading Center.\n\nExclusion Criteria:\n\n* Geographic atrophy due to other causes than AMD such as Stargardt disease, cone-rod dystrophy, pathologic myopia, or toxic maculopathies (for example, plaquenil maculopathy) in either eye.\n\nNOTE: Other protocol-defined inclusion and exclusion criteria may apply.","healthyVolunteers":false,"sex":"ALL","minimumAge":"50 Years","stdAges":["ADULT","OLDER_ADULT"]},"contactsLocationsModule":{"overallOfficials":[{"name":"Clinical Trials","affiliation":"Annexon, Inc.","role":"STUDY_DIRECTOR"}],"locations":[{"facility":"Retina Macula Institute of Arizona","city":"Scottsdale","state":"Arizona","zip":"85255","country":"United States","geoPoint":{"lat":33.50921,"lon":-111.89903}},{"facility":"Retina-Vitreous Associates Medical Group","city":"Beverly Hills","state":"California","zip":"90211","country":"United States","geoPoint":{"lat":34.07362,"lon":-118.40036}},{"facility":"RCOC Clinical Research Institute Inc","city":"Fullerton","state":"California","zip":"92835","country":"United States","geoPoint":{"lat":33.87029,"lon":-117.92534}},{"facility":"Global Research Management","city":"Glendale","state":"California","zip":"91204","country":"United States","geoPoint":{"lat":34.14251,"lon":-118.25508}},{"facility":"Retina Consultants Medical Group","city":"Modesto","state":"California","zip":"95356","country":"United States","geoPoint":{"lat":37.6391,"lon":-120.99688}},{"facility":"Northern California Retina Vitreous Associates Medical Group, Inc.","city":"Mountain View","state":"California","zip":"94040","country":"United States","geoPoint":{"lat":37.38605,"lon":-122.08385}},{"facility":"Retinal Consultants Medical Group","city":"Sacramento","state":"California","zip":"95825","country":"United States","geoPoint":{"lat":38.58157,"lon":-121.4944}},{"facility":"Macula Retina Vitreous Research Institute","city":"Torrance","state":"California","zip":"90503","country":"United States","geoPoint":{"lat":33.83585,"lon":-118.34063}},{"facility":"Bay Area Retina Associates","city":"Walnut Creek","state":"California","zip":"94598","country":"United States","geoPoint":{"lat":37.90631,"lon":-122.06496}},{"facility":"Retina Consultants of Southern Colorado PC","city":"Colorado Springs","state":"Colorado","zip":"80909","country":"United States","geoPoint":{"lat":38.83388,"lon":-104.82136}},{"facility":"RSC Research, LLC","city":"Denver","state":"Colorado","zip":"80222","country":"United States","geoPoint":{"lat":39.73915,"lon":-104.9847}},{"facility":"Rand Eye Institute","city":"Deerfield Beach","state":"Florida","zip":"33064","country":"United States","geoPoint":{"lat":26.31841,"lon":-80.09977}},{"facility":"National Ophthalmic Research Institute","city":"Fort Myers","state":"Florida","zip":"33912","country":"United States","geoPoint":{"lat":26.62168,"lon":-81.84059}},{"facility":"Florida Retina Institute","city":"Orlando","state":"Florida","zip":"32806","country":"United States","geoPoint":{"lat":28.53834,"lon":-81.37924}},{"facility":"Fort Lauderdale Eye Institute","city":"Plantation","state":"Florida","zip":"33324","country":"United States","geoPoint":{"lat":26.13421,"lon":-80.23184}},{"facility":"Retina Group of Florida","city":"Sarasota","state":"Florida","zip":"34233","country":"United States","geoPoint":{"lat":27.33643,"lon":-82.53065}},{"facility":"Retina Vitreous Associates of Florida","city":"St. Petersburg","state":"Florida","zip":"33711","country":"United States","geoPoint":{"lat":27.77086,"lon":-82.67927}},{"facility":"East Florida Eye Institute","city":"Stuart","state":"Florida","zip":"34994","country":"United States","geoPoint":{"lat":27.19755,"lon":-80.25283}},{"facility":"Georgia Retina PC","city":"Marietta","state":"Georgia","zip":"30060","country":"United States","geoPoint":{"lat":33.9526,"lon":-84.54993}},{"facility":"Retina Consultants of Hawaii","city":"‘Aiea","state":"Hawaii","zip":"96701","country":"United States","geoPoint":{"lat":21.38222,"lon":-157.93361}},{"facility":"Retina Associates - Elmhurst Location","city":"Elmhurst","state":"Illinois","zip":"60126","country":"United States","geoPoint":{"lat":41.89947,"lon":-87.94034}},{"facility":"University Retina","city":"Oak Forest","state":"Illinois","zip":"60452","country":"United States","geoPoint":{"lat":41.60281,"lon":-87.74394}},{"facility":"Springfield Clinic LLP","city":"Springfield","state":"Illinois","zip":"62703","country":"United States","geoPoint":{"lat":39.80172,"lon":-89.64371}},{"facility":"Wolfe Eye Clinic","city":"West Des Moines","state":"Iowa","zip":"50266","country":"United States","geoPoint":{"lat":41.57721,"lon":-93.71133}},{"facility":"Maine Eye Center","city":"Portland","state":"Maine","zip":"04101","country":"United States","geoPoint":{"lat":43.65737,"lon":-70.2589}},{"facility":"Retina Group of Washington","city":"Chevy Chase","state":"Maryland","zip":"20815","country":"United States","geoPoint":{"lat":39.00287,"lon":-77.07115}},{"facility":"Cumberland Valley Retina Consultants","city":"Hagerstown","state":"Maryland","zip":"21740","country":"United States","geoPoint":{"lat":39.64176,"lon":-77.71999}},{"facility":"Mid Atlantic Retina Specialists","city":"Hagerstown","state":"Maryland","zip":"21740","country":"United States","geoPoint":{"lat":39.64176,"lon":-77.71999}},{"facility":"Ophthalmic Consultants of Boston","city":"Boston","state":"Massachusetts","zip":"02114","country":"United States","geoPoint":{"lat":42.35843,"lon":-71.05977}},{"facility":"Retina Research Institute at New England Retina Consultants","city":"Springfield","state":"Massachusetts","zip":"01107","country":"United States","geoPoint":{"lat":42.10148,"lon":-72.58981}},{"facility":"Retina Consultants of Minnesota","city":"Saint Louis Park","state":"Minnesota","zip":"55416","country":"United States","geoPoint":{"lat":44.9483,"lon":-93.34801}},{"facility":"Sierra Eye Associates","city":"Reno","state":"Nevada","zip":"89502","country":"United States","geoPoint":{"lat":39.52963,"lon":-119.8138}},{"facility":"Envision Ocular, LLC","city":"Bloomfield","state":"New Jersey","zip":"07003","country":"United States","geoPoint":{"lat":40.80677,"lon":-74.18542}},{"facility":"Mid Atlantic Retina","city":"Cherry Hill","state":"New Jersey","zip":"08034","country":"United States","geoPoint":{"lat":39.93484,"lon":-75.03073}},{"facility":"Vision Research Center Eye Associates of New Mexico","city":"Albuquerque","state":"New Mexico","zip":"87109","country":"United States","geoPoint":{"lat":35.08449,"lon":-106.65114}},{"facility":"Long Island Vitreoretinal Consultants","city":"Hauppauge","state":"New York","zip":"11788","country":"United States","geoPoint":{"lat":40.82565,"lon":-73.20261}},{"facility":"Asheville Eye Associates - Retina Division","city":"Asheville","state":"North Carolina","zip":"28803","country":"United States","geoPoint":{"lat":35.60095,"lon":-82.55402}},{"facility":"North Carolina Retina Associates","city":"Cary","state":"North Carolina","zip":"27511","country":"United States","geoPoint":{"lat":35.79154,"lon":-78.78112}},{"facility":"North Carolina Retina Associates","city":"Wake Forest","state":"North Carolina","zip":"27587","country":"United States","geoPoint":{"lat":35.97987,"lon":-78.50972}},{"facility":"Piedmont Retina Specialists - Winston Salem Office","city":"Winston-Salem","state":"North Carolina","zip":"27103","country":"United States","geoPoint":{"lat":36.09986,"lon":-80.24422}},{"facility":"University Hospitals Cleveland Medical Center","city":"Cleveland","state":"Ohio","zip":"44106","country":"United States","geoPoint":{"lat":41.4995,"lon":-81.69541}},{"facility":"Retina Vitreous Center","city":"Edmond","state":"Oklahoma","zip":"73013","country":"United States","geoPoint":{"lat":35.65283,"lon":-97.4781}},{"facility":"Tulsa Retina Consultants","city":"Tulsa","state":"Oklahoma","zip":"74114","country":"United States","geoPoint":{"lat":36.15398,"lon":-95.99277}},{"facility":"Verum Research, LLC","city":"Eugene","state":"Oregon","zip":"97401","country":"United States","geoPoint":{"lat":44.05207,"lon":-123.08675}},{"facility":"Eyehealth Northwest Portland","city":"Portland","state":"Oregon","zip":"97209","country":"United States","geoPoint":{"lat":45.52345,"lon":-122.67621}},{"facility":"Cascade Medical Research Institute","city":"Springfield","state":"Oregon","zip":"97477","country":"United States","geoPoint":{"lat":44.04624,"lon":-123.02203}},{"facility":"Erie Retina Research, LLC","city":"Erie","state":"Pennsylvania","zip":"16507","country":"United States","geoPoint":{"lat":42.12922,"lon":-80.08506}},{"facility":"Eye Care Specialists","city":"Kingston","state":"Pennsylvania","zip":"18704","country":"United States","geoPoint":{"lat":41.26175,"lon":-75.89686}},{"facility":"Palmetto Retina Center","city":"Aiken","state":"South Carolina","zip":"29801","country":"United States","geoPoint":{"lat":33.56042,"lon":-81.71955}},{"facility":"ReƟna Consultants of Charleston","city":"Beaufort","state":"South Carolina","zip":"29901","country":"United States","geoPoint":{"lat":32.4317,"lon":-80.66993}},{"facility":"Charleston Neuroscience Center","city":"Charleston","state":"South Carolina","zip":"29414","country":"United States","geoPoint":{"lat":32.77632,"lon":-79.93275}},{"facility":"Southeastern Retina","city":"Chattanooga","state":"Tennessee","zip":"37604","country":"United States","geoPoint":{"lat":35.04563,"lon":-85.30968}},{"facility":"Retina Research Institute of Texas","city":"Abilene","state":"Texas","zip":"79606","country":"United States","geoPoint":{"lat":32.44874,"lon":-99.73314}},{"facility":"Southwest Retina Specialists","city":"Amarillo","state":"Texas","zip":"79106","country":"United States","geoPoint":{"lat":35.222,"lon":-101.8313}},{"facility":"Texas Retina Associates- Arlington","city":"Arlington","state":"Texas","zip":"76012","country":"United States","geoPoint":{"lat":32.73569,"lon":-97.10807}},{"facility":"Austin Research Center for Retina","city":"Austin","state":"Texas","zip":"78705","country":"United States","geoPoint":{"lat":30.26715,"lon":-97.74306}},{"facility":"Austin Retina Associates","city":"Austin","state":"Texas","zip":"78705","country":"United States","geoPoint":{"lat":30.26715,"lon":-97.74306}},{"facility":"Austin Clinical Research, LLC","city":"Austin","state":"Texas","zip":"78750","country":"United States","geoPoint":{"lat":30.26715,"lon":-97.74306}},{"facility":"Retina Consultants of Texas","city":"Bellaire","state":"Texas","zip":"77401","country":"United States","geoPoint":{"lat":29.70579,"lon":-95.45883}},{"facility":"Retina Foundation of the Southwest","city":"Dallas","state":"Texas","zip":"75231","country":"United States","geoPoint":{"lat":32.78306,"lon":-96.80667}},{"facility":"Texas Retina Associates - Plano","city":"Dallas","state":"Texas","zip":"75231","country":"United States","geoPoint":{"lat":32.78306,"lon":-96.80667}},{"facility":"Texas Retina Associates","city":"Fort Worth","state":"Texas","zip":"76104","country":"United States","geoPoint":{"lat":32.72541,"lon":-97.32085}},{"facility":"Retina Consultants of Texas","city":"Katy","state":"Texas","zip":"77494","country":"United States","geoPoint":{"lat":29.78579,"lon":-95.8244}},{"facility":"Tennessee Retina PC","city":"Nashville","state":"Texas","zip":"37203","country":"United States","geoPoint":{"lat":30.82583,"lon":-96.65278}},{"facility":"Retina Consultants of Texas San Antonio","city":"San Antonio","state":"Texas","zip":"78240","country":"United States","geoPoint":{"lat":29.42412,"lon":-98.49363}},{"facility":"Retina Consultants of Texas","city":"The Woodlands","state":"Texas","zip":"77384","country":"United States","geoPoint":{"lat":30.15799,"lon":-95.48938}},{"facility":"Strategic Clinical Research Group, LLC","city":"Willow Park","state":"Texas","zip":"76087","country":"United States","geoPoint":{"lat":32.76263,"lon":-97.65058}},{"facility":"Rocky Mountain Retina Consultants","city":"Salt Lake City","state":"Utah","zip":"84107","country":"United States","geoPoint":{"lat":40.76078,"lon":-111.89105}},{"facility":"Piedmont Eye Center","city":"Lynchburg","state":"Virginia","zip":"24502","country":"United States","geoPoint":{"lat":37.41375,"lon":-79.14225}},{"facility":"Eye Clinic of Wisconsin","city":"Wausau","state":"Wisconsin","zip":"54403","country":"United States","geoPoint":{"lat":44.95914,"lon":-89.63012}},{"facility":"Eye Clinic Albury Wodonga","city":"Albury","state":"New South Wales","zip":"2640","country":"Australia","geoPoint":{"lat":-36.07482,"lon":146.92401}},{"facility":"Strathfield Retina Clinic","city":"Melbourne","state":"New South Wales","zip":"2135","country":"Australia"},{"facility":"Marsden Eye Specialists","city":"Parramatta","state":"New South Wales","zip":"2150","country":"Australia","geoPoint":{"lat":-33.8178,"lon":151.00348}},{"facility":"Sydney Eye Hospital","city":"Sydney","state":"New South Wales","zip":"2000","country":"Australia","geoPoint":{"lat":-33.86785,"lon":151.20732}},{"facility":"Sydney Retina Clinic and Day Surgery","city":"Sydney","state":"New South Wales","zip":"2000","country":"Australia","geoPoint":{"lat":-33.86785,"lon":151.20732}},{"facility":"Klinikum Klagenfurt am Wörthersee","city":"Klagenfurt","zip":"9020","country":"Austria","geoPoint":{"lat":46.62472,"lon":14.30528}},{"facility":"Kepler Universitätsklinikum","city":"Linz","zip":"4020","country":"Austria","geoPoint":{"lat":48.30639,"lon":14.28611}},{"facility":"Calgary Retina Consultants","city":"Calgary","state":"Alberta","zip":"T2H 0C8","country":"Canada","geoPoint":{"lat":51.05011,"lon":-114.08529}},{"facility":"Alberta Retina Consultants","city":"Edmonton","state":"Alberta","zip":"T5H 0X5","country":"Canada","geoPoint":{"lat":53.55014,"lon":-113.46871}},{"facility":"Ivey Eye Institute","city":"London","state":"Ontario","zip":"N6A 4V2","country":"Canada","geoPoint":{"lat":42.98339,"lon":-81.23304}},{"facility":"Retina Centre of Ottawa","city":"Ottawa","state":"Ontario","zip":"K2B 7E9","country":"Canada","geoPoint":{"lat":45.41117,"lon":-75.69812}},{"facility":"Fakultní nemocnice Královské Vinohrady","city":"Prague","zip":"100 34","country":"Czechia","geoPoint":{"lat":50.08804,"lon":14.42076}},{"facility":"Všeobecná fakultní nemocnice V Praze","city":"Prague","zip":"128 08","country":"Czechia","geoPoint":{"lat":50.08804,"lon":14.42076}},{"facility":"Axon Clinical, s.r.o. Ocni Klinika","city":"Prague","zip":"150 00","country":"Czechia","geoPoint":{"lat":50.08804,"lon":14.42076}},{"facility":"Groupe Hospitalier Pellegrin - CHU de Bordeaux","city":"Bordeaux","zip":"33076","country":"France","geoPoint":{"lat":44.84124,"lon":-0.58046}},{"facility":"Service d'Ophtalmologie Centre Hospitalier Intercommunal de Créteil","city":"Créteil","zip":"94000","country":"France","geoPoint":{"lat":48.79266,"lon":2.46569}},{"facility":"CHU Dijon Bourgogne - Hôpital François Mitterrand","city":"Dijon","zip":"21079","country":"France","geoPoint":{"lat":47.31344,"lon":5.01391}},{"facility":"Centre Ophtalmologique Pôle Vision Val d'Ouest","city":"Écully","country":"France","geoPoint":{"lat":45.77437,"lon":4.77758}},{"facility":"Centre Monticelli Paradis d'Ophtalmologie","city":"Marseille","country":"France","geoPoint":{"lat":43.29695,"lon":5.38107}},{"facility":"Centre Hospitalier Universitaire de Nice","city":"Nice","zip":"06001","country":"France","geoPoint":{"lat":43.70313,"lon":7.26608}},{"facility":"Hôpital Lariboisière - Service d'ophtalmologie","city":"Paris","zip":"75010","country":"France","geoPoint":{"lat":48.85341,"lon":2.3488}},{"facility":"Centre Ophtalmologique Maison Rouge","city":"Strasbourg","zip":"67000","country":"France","geoPoint":{"lat":48.58392,"lon":7.74553}},{"facility":"Dietrich Bonhoeffer Klinikum Klinik für Augenheilkunde","city":"Neubrandenburg","state":"Mecklenburg-Vorpommern","zip":"17036","country":"Germany","geoPoint":{"lat":53.55735,"lon":13.26105}},{"facility":"Augenzentrum am St. Franziskus-Hospital","city":"Münster","state":"North Rhine-Westphalia","zip":"48145","country":"Germany","geoPoint":{"lat":51.96236,"lon":7.62571}},{"facility":"Uni-Augenklinik Bonn","city":"Bonn","zip":"53127","country":"Germany","geoPoint":{"lat":50.73438,"lon":7.09549}},{"facility":"Universitätsklinikum Heidelberg","city":"Heidelberg","zip":"69120","country":"Germany","geoPoint":{"lat":49.40768,"lon":8.69079}},{"facility":"Universitätsklinikum Tübingen, Department für Augenheilkunde","city":"Tübingen","zip":"72076","country":"Germany","geoPoint":{"lat":48.52266,"lon":9.05222}},{"facility":"Semmelweis Egyetem","city":"Budapest","zip":"1085","country":"Hungary","geoPoint":{"lat":47.49835,"lon":19.04045}},{"facility":"Budapest Retina Associates","city":"Budapest","zip":"1133","country":"Hungary","geoPoint":{"lat":47.49835,"lon":19.04045}},{"facility":"Debreceni Egyetem Klinikai Kozpont Nagyerdei Campus","city":"Debrecen","zip":"4032","country":"Hungary","geoPoint":{"lat":47.53167,"lon":21.62444}},{"facility":"Ganglion Medical Center","city":"Pécs","zip":"7681","country":"Hungary","geoPoint":{"lat":46.07617,"lon":18.22814}},{"facility":"Azienda Ospedaliera Universitaria Careggi","city":"Florence","zip":"50134","country":"Italy","geoPoint":{"lat":43.77925,"lon":11.24626}},{"facility":"IRCCS MultiMedica","city":"Milan","zip":"20123","country":"Italy","geoPoint":{"lat":45.46427,"lon":9.18951}},{"facility":"ASST Fatebenefratelli Sacco","city":"Milan","zip":"20157","country":"Italy","geoPoint":{"lat":45.46427,"lon":9.18951}},{"facility":"Fondazione IRCCS Cà Granda Ospedale Maggiore Policlinico","city":"Milan","zip":"20122","country":"Italy","geoPoint":{"lat":42.78235,"lon":12.59836}},{"facility":"IRCCS Ospedale San Raffaele","city":"Milan","zip":"20132","country":"Italy","geoPoint":{"lat":42.78235,"lon":12.59836}},{"facility":"Fondazione G.B. Bietti Per Lo Sudio E La Ricerca In Oftalmologia - Presidio","city":"Roma","zip":"00184","country":"Italy","geoPoint":{"lat":44.99364,"lon":11.10642}},{"facility":"Fondazione PTV Policlinico Tor Vergata","city":"Rome","zip":"00133","country":"Italy","geoPoint":{"lat":41.89193,"lon":12.51133}},{"facility":"Fondazione Policlinico Agostino Gemelli","city":"Rome","zip":"00168","country":"Italy","geoPoint":{"lat":41.89193,"lon":12.51133}},{"facility":"Elisabeth Hospital (ETZ) - location TweeSteden ziekenhuis","city":"Tilburg","zip":"5042 AD","country":"Netherlands","geoPoint":{"lat":51.55551,"lon":5.0913}},{"facility":"Southern Eye Specialists","city":"Christchurch","state":"Canterbury","zip":"8013","country":"New Zealand","geoPoint":{"lat":-43.53333,"lon":172.63333}},{"facility":"Capital Eye Specialists","city":"Te Aro","state":"Wellington Region","zip":"6011","country":"New Zealand","geoPoint":{"lat":-41.294,"lon":174.77727}},{"facility":"Oftalmika Sp.Zo.O.","city":"Bydgoszcz","zip":"85-631","country":"Poland","geoPoint":{"lat":53.1235,"lon":18.00762}},{"facility":"Centrum Diagnostyki I Mikrochirurgii Oka Lens Sp. Z O.O.","city":"Olsztyn","zip":"10-424","country":"Poland","geoPoint":{"lat":53.78376,"lon":20.49272}},{"facility":"Ośrodek Chirurgii Oka Prof. Zagórskiego Sp. Z o.o.","city":"Rzeszów","zip":"35-017","country":"Poland","geoPoint":{"lat":50.04132,"lon":21.99901}},{"facility":"Caminomed Sp. Z O.O.","city":"Tarnowskie Góry","zip":"42-600","country":"Poland","geoPoint":{"lat":50.44548,"lon":18.86147}},{"facility":"Warszawski Szpital Okulistyczny","city":"Warsaw","zip":"01-258","country":"Poland","geoPoint":{"lat":52.22977,"lon":21.01178}},{"facility":"Oftalvist IMED Burjassot","city":"Valencia","state":"Burjasso","zip":"46100","country":"Spain","geoPoint":{"lat":39.47391,"lon":-0.37966}},{"facility":"Institut Català de Retina","city":"Barcelona","zip":"08017","country":"Spain","geoPoint":{"lat":41.38879,"lon":2.15899}},{"facility":"Hospital Universitari Vall d'Hebron","city":"Barcelona","zip":"08035","country":"Spain","geoPoint":{"lat":41.38879,"lon":2.15899}},{"facility":"Hospital de la Arruzafa - Metavisión Arruzafa","city":"Córdoba","zip":"14012","country":"Spain","geoPoint":{"lat":37.89155,"lon":-4.77275}},{"facility":"Clínica Baviera","city":"Madrid","zip":"28046","country":"Spain","geoPoint":{"lat":40.4165,"lon":-3.70256}},{"facility":"Hospital Universitario Puerta de Hierro - Majadahonda","city":"Majadahonda","zip":"28222","country":"Spain","geoPoint":{"lat":40.47353,"lon":-3.87182}},{"facility":"Hospital Universitari General de Catalunya - Grupo Quironsalud","city":"Sant Cugat del Vallès","zip":"08195","country":"Spain","geoPoint":{"lat":41.47063,"lon":2.08611}},{"facility":"Hospital Clinico Universitario de Santiago","city":"Santiago de Compostela","zip":"15706","country":"Spain","geoPoint":{"lat":42.88052,"lon":-8.54569}},{"facility":"Hospital Universitario Virgen Macarena","city":"Seville","zip":"41009","country":"Spain","geoPoint":{"lat":37.38283,"lon":-5.97317}},{"facility":"Hospital Universitario Miguel Servet","city":"Zaragoza","zip":"50009","country":"Spain","geoPoint":{"lat":41.65606,"lon":-0.87734}},{"facility":"Moorfields Eye Hospital NHS foundation Trust","city":"London","zip":"EC1V 2PD","country":"United Kingdom","geoPoint":{"lat":51.50853,"lon":-0.12574}},{"facility":"King's College Hospital","city":"London","zip":"SE5 9RS","country":"United Kingdom","geoPoint":{"lat":51.50853,"lon":-0.12574}},{"facility":"The Retina Clinic","city":"London","zip":"W1G 9AX","country":"United Kingdom","geoPoint":{"lat":51.50853,"lon":-0.12574}}]},"ipdSharingStatementModule":{"ipdSharing":"NO"}},"derivedSection":{"miscInfoModule":{"versionHolder":"2026-02-25"},"conditionBrowseModule":{"meshes":[{"id":"D057092","term":"Geographic Atrophy"}],"ancestors":[{"id":"D008268","term":"Macular Degeneration"},{"id":"D012162","term":"Retinal Degeneration"},{"id":"D012164","term":"Retinal Diseases"},{"id":"D005128","term":"Eye Diseases"}]}},"hasResults":false}