{"protocolSection":{"identificationModule":{"nctId":"NCT06691113","orgStudyIdInfo":{"id":"ACT18421"},"secondaryIdInfos":[{"id":"2024-515576-12","type":"REGISTRY","domain":"CTIS"},{"id":"U1111-1306-6643","type":"REGISTRY","domain":"ICTRP"}],"organization":{"fullName":"Sanofi","class":"INDUSTRY"},"briefTitle":"A Proof-of-Concept Study to Assess the Efficacy, Safety and Tolerability of Itepekimab (Anti--IL-33 mAb) in Participants With Chronic Rhinosinusitis Without Nasal Polyps","officialTitle":"A Randomized, Double-blind, Placebo-controlled, Proof-of-Concept (PoC) Study to Assess the Efficacy, Safety and Tolerability of Itepekimab in Participants With Inadequately Controlled Chronic Rhinosinusitis Without Nasal Polyps"},"statusModule":{"statusVerifiedDate":"2025-11","overallStatus":"ACTIVE_NOT_RECRUITING","expandedAccessInfo":{"hasExpandedAccess":false},"startDateStruct":{"date":"2024-12-16","type":"ACTUAL"},"primaryCompletionDateStruct":{"date":"2026-08-07","type":"ESTIMATED"},"completionDateStruct":{"date":"2027-02-09","type":"ESTIMATED"},"studyFirstSubmitDate":"2024-11-12","studyFirstSubmitQcDate":"2024-11-13","studyFirstPostDateStruct":{"date":"2024-11-15","type":"ACTUAL"},"lastUpdateSubmitDate":"2025-11-09","lastUpdatePostDateStruct":{"date":"2025-11-12","type":"ACTUAL"}},"sponsorCollaboratorsModule":{"responsibleParty":{"type":"SPONSOR"},"leadSponsor":{"name":"Sanofi","class":"INDUSTRY"},"collaborators":[{"name":"Regeneron Pharmaceuticals","class":"INDUSTRY"}]},"oversightModule":{"oversightHasDmc":true,"isFdaRegulatedDrug":true,"isFdaRegulatedDevice":false},"descriptionModule":{"briefSummary":"ACT18421 is a multinational, randomized, double-blind, placebo-controlled, parallel-group, Phase 2 study with 3 treatment groups. The purpose of the study is to evaluate the efficacy, safety and tolerability of 2 dosing regimens of itepekimab compared to placebo in male and female participants with chronic rhinosinusitis without nasal polyps (CRSsNP) aged 18 years of age and older.\n\nStudy details include:\n\n* The study duration (4-week screening, 24--week intervention, 20--week safety followup) will be 48 weeks.\n* The intervention duration will be 24 weeks.\n* The number of visits will be 7 site visits and 8 phone/remote visits."},"conditionsModule":{"conditions":["Chronic Rhinosinusitis Without Nasal Polyps"]},"designModule":{"studyType":"INTERVENTIONAL","phases":["PHASE2"],"designInfo":{"allocation":"RANDOMIZED","interventionModel":"PARALLEL","primaryPurpose":"TREATMENT","maskingInfo":{"masking":"QUADRUPLE","whoMasked":["PARTICIPANT","CARE_PROVIDER","INVESTIGATOR","OUTCOMES_ASSESSOR"]}},"enrollmentInfo":{"count":60,"type":"ESTIMATED"}},"armsInterventionsModule":{"armGroups":[{"label":"Itepekimab high dose","type":"EXPERIMENTAL","description":"Subcutaneous (SC) administration of Itepekimab high dose for 24 weeks","interventionNames":["Drug: Itepekimab (SAR440340)","Drug: Mometasone furoate nasal spray (MFNS)"]},{"label":"Itepekimab low dose","type":"EXPERIMENTAL","description":"SC administration of Itepekimab low dose for 24 weeks","interventionNames":["Drug: Itepekimab (SAR440340)","Drug: Placebo","Drug: Mometasone furoate nasal spray (MFNS)"]},{"label":"Placebo","type":"PLACEBO_COMPARATOR","description":"SC administration of matching placebo for 24 weeks","interventionNames":["Drug: Placebo","Drug: Mometasone furoate nasal spray (MFNS)"]}],"interventions":[{"type":"DRUG","name":"Itepekimab (SAR440340)","description":"Pharmaceutical form: Solution for injection in prefilled syringe. Route of administration: Subcutaneous","armGroupLabels":["Itepekimab high dose","Itepekimab low dose"],"otherNames":["REGN3500"]},{"type":"DRUG","name":"Placebo","description":"Pharmaceutical form: Solution for injection in prefilled syringe. Route of administration: Subcutaneous","armGroupLabels":["Itepekimab low dose","Placebo"]},{"type":"DRUG","name":"Mometasone furoate nasal spray (MFNS)","description":"Pharmaceutical form: Solution for administration via spray pump. Route of administration: Intranasal spray","armGroupLabels":["Itepekimab high dose","Itepekimab low dose","Placebo"]}]},"outcomesModule":{"primaryOutcomes":[{"measure":"Change from baseline in sinus (maxillary, ethmoid) percent opacification volume assessed by CT scan","description":"Change from baseline in sinus inflammation as assessed by Computerized Tomography (CT) scan of the sinuses in the itepekimab-- compared to placebo-- treated study participants on the background of intranasal corticosteroid (INCS).","timeFrame":"Baseline to End of Treatment (EOT) (Week 24)"}],"secondaryOutcomes":[{"measure":"Change from baseline in the sTSS","description":"The CRSsNP sinus Total Symptom Score (sTSS) is a composite score derived from nasal congestion (NC), anterior/posterior rhinorrhea, and facial pain/pressure. The total score ranges from 0 to 9 with higher scores indicating greater overall symptom severity.","timeFrame":"Baseline to EOT (Week 24)"},{"measure":"Change from baseline in nasal congestion (NC) severity score using the CRSsNP daily ediary","description":"The CRSsNP sinonasal symptom diary is designed to assess the severity of CRS sinonasal symptoms on daily basis. These symptoms include NC/obstruction, anterior rhinorrhea and posterior rhinorrhea, facial pain/pressure, loss of smell, and headache. Each of the individual items of the diary are scored from 0 (\"No symptoms\") to 3 (\"Severe symptoms - symptoms that are hard to tolerate, cause interference with activities or daily living\"). Higher scores on the items of the individual symptoms denote greater symptom severity.","timeFrame":"Baseline to EOT (Week 24)"},{"measure":"Change from baseline in anterior/posterior rhinorrhea severity score using the CRSsNP daily ediary","description":"The CRSsNP sinonasal symptom diary is designed to assess the severity of CRS sinonasal symptoms on daily basis. These symptoms include NC/obstruction, anterior rhinorrhea and posterior rhinorrhea, facial pain/pressure, loss of smell, and headache. Each of the individual items of the diary are scored from 0 (\"No symptoms\") to 3 (\"Severe symptoms - symptoms that are hard to tolerate, cause interference with activities or daily living\"). Higher scores on the items of the individual symptoms denote greater symptom severity.","timeFrame":"Baseline to EOT (Week 24)"},{"measure":"Change from baseline in facial pain/pressure severity score using the CRSsNP daily ediary","description":"The CRSsNP sinonasal symptom diary is designed to assess the severity of CRS sinonasal symptoms on daily basis. These symptoms include NC/obstruction, anterior rhinorrhea and posterior rhinorrhea, facial pain/pressure, loss of smell, and headache. Each of the individual items of the diary are scored from 0 (\"No symptoms\") to 3 (\"Severe symptoms - symptoms that are hard to tolerate, cause interference with activities or daily living\"). Higher scores on the items of the individual symptoms denote greater symptom severity.","timeFrame":"Baseline to EOT (Week 24)"},{"measure":"Change from baseline in loss of smell severity score using the CRSsNP daily ediary","description":"The CRSsNP sinonasal symptom diary is designed to assess the severity of CRS sinonasal symptoms on daily basis. These symptoms include NC/obstruction, anterior rhinorrhea and posterior rhinorrhea, facial pain/pressure, loss of smell, and headache. Each of the individual items of the diary are scored from 0 (\"No symptoms\") to 3 (\"Severe symptoms - symptoms that are hard to tolerate, cause interference with activities or daily living\"). Higher scores on the items of the individual symptoms denote greater symptom severity.","timeFrame":"Baseline to EOT (Week 24)"},{"measure":"Change from baseline in SNOT-22 total score","description":"The Sino-Nasal Outcome Test-22-Items (SNOT-22) is a patient-reported outcome questionnaire designed to assess the impact of chronic rhinosinusitis (CRS) on patients' Health-Related Quality of Life (HRQoL). It has 22 items covering symptoms, social/emotional impact, productivity, and sleep consequences of CRS. A global score ranges from 0 to 110 with higher score indicating greater rhinosinusitis-related health burden.","timeFrame":"Baseline to EOT (Week 24)"},{"measure":"Change from baseline in sinus opacification as measured by the Lund-Mackay (LMK) score and the modified LMK score","description":"The LMK and the modified LMK scoring systems are based on points given for degree of opacification, which are applied to the maxillary, anterior ethmoid, posterior ethmoid, sphenoid, frontal sinus on each side. The osteomeatal complex is graded as 0 = not occluded, or 2 = occluded, deriving a maximum score of 12 per side.","timeFrame":"Baseline to EOT (Week 24)"},{"measure":"Incidence of treatment-emergent adverse events (TEAEs), treatment-emergent adverse events of special interest (TEAESIs), treatment emergent serious adverse events (TESAEs), and TEAEs leading to intervention discontinuation","timeFrame":"Baseline up to End of Study (EOS) (Week 44)"},{"measure":"Itepekimab concentration in serum","timeFrame":"Baseline to EOS (Week 44)"},{"measure":"Incidence of treatment-emergent (TE) anti-itepekimab antibodies responses","timeFrame":"Baseline to EOS (Week 44)"}]},"eligibilityModule":{"eligibilityCriteria":"Inclusion Criteria:\n\n* Participant must be 18 years of age or older.\n* Participants must have ongoing symptoms of nasal congestion/obstruction at least 12 consecutive weeks before Visit 1 and a Nasal Congestion Score (NCS) ≥2 at Visit 1 (day score) and Visit 2 (weekly average score).\n* Participants must have sinus Total Symptom Score (sTSS) (NC, rhinorrhea, facial pain/pressure) ≥5 at Visit 1 (day score) and Visit 2 (weekly average score).\n* Participants must have at least one of the following features:\n\n  * Prior sinonasal surgery (as protocol defined) for chronic rhinosinusitis (CRS).\n  * Treatment with systemic corticosteroid(s) (SCS) within the prior 2 years before Screening (Visit 1)\n  * Worsening symptoms of CRS in the past 2 years which would have required treatment with SCS, however participant is intolerant or has a contraindication to SCS.\n* Participants must have bilateral inflammation of paranasal sinuses with bilateral ethmoid and maxillary opacification on screening CT scan. Participants must have ≥25% opacification of the ethmoid sinuses and ≥25% opacification of at least 1 maxillary sinus by central reading of CT scan.\n* Participants must have a Sino-Nasal Outcome Test-22-Items (SNOT-22) score of ≥20 at Visit 1 and Visit 2.\n* Participants who have received a stable dose of mometasone furoate nasal spray (MFNS) for at least 3 weeks before Visit 2.\n* A female participant is eligible to participate if she is not pregnant or breastfeeding, and at least 1 of the following conditions applies:\n\n  * Is not a women of childbearing potential (WOCBP). OR\n  * Is a WOCBP and agrees to use a contraceptive method that is highly effective, with a failure rate of \\<1% during the study (at a minimum until 20 weeks after the last dose of study intervention).\n\nExclusion Criteria:\n\nParticipants are excluded from the study if any of the following criteria apply:\n\n* Participants with conditions/concomitant diseases making them non-evaluable at Visit 1 or for the primary efficacy endpoint.\n* Participants with nasal cavity malignant tumor and benign tumors (eg, papilloma, blood boil).\n* Radiological suspicion or confirmed invasive or expansive fungal rhinosinusitis.\n* Have any clinically significant diseases or disorders (eg, cardiovascular, pulmonary, gastrointestinal, liver, kidney, neurological, musculoskeletal, endocrine, metabolic, psychiatric, physical impairment) that, in the opinion of the Investigator, may put the subject at risk by participating in the study, or interfere with the subject's intervention, assessment, or influence the results of the study, or have compliance issues with the study.\n* Sinus surgery within 6 months before Screening (Visit 1)\n* Participants who received SCS 1 month prior to Screening (Visit 1) or during the screening period (between Visit 1 and Visit 2).\n* Participants treated with other intranasal corticosteroid(s) (INCS) (only study provided AxMP \\[MFNS\\] is permitted), intranasal emitting devices/stents, nasal spray using exhalation delivery system such as Xhance™ during the screening period.\n* Participants with a history of severe systemic hypersensitivity reaction to mAb.\n* Known allergy to itepekimab or to its excipients. Any drug or other allergy that, in the opinion of the Investigator, contraindicates participation in the study.\n\nThe above information is not intended to contain all considerations relevant to a patient's potential participation in a clinical trial.","healthyVolunteers":false,"sex":"ALL","minimumAge":"18 Years","stdAges":["ADULT","OLDER_ADULT"]},"contactsLocationsModule":{"overallOfficials":[{"name":"Clinical Sciences & Operations","affiliation":"Sanofi","role":"STUDY_DIRECTOR"}],"locations":[{"facility":"Allervie Clinical Research - Birmingham- Site Number : 8400006","city":"Birmingham","state":"Alabama","zip":"35209","country":"United States","geoPoint":{"lat":33.52066,"lon":-86.80249}},{"facility":"Modena Allergy + Asthma- Site Number : 8400005","city":"La Jolla","state":"California","zip":"92037","country":"United States","geoPoint":{"lat":32.84727,"lon":-117.2742}},{"facility":"United Medical Doctors - Murrieta- Site Number : 8400001","city":"Murrieta","state":"California","zip":"92563","country":"United States","geoPoint":{"lat":33.55391,"lon":-117.21392}},{"facility":"Sacramento Ear Nose & Throat - Roseville- Site Number : 8400008","city":"Roseville","state":"California","zip":"95661","country":"United States","geoPoint":{"lat":38.75212,"lon":-121.28801}},{"facility":"Western States Clinical Research- Site Number : 8400009","city":"Wheat Ridge","state":"Colorado","zip":"80033","country":"United States","geoPoint":{"lat":39.7661,"lon":-105.07721}},{"facility":"Advanced Research Associates (ARA) Professionals- Site Number : 8400002","city":"Miami","state":"Florida","zip":"33176","country":"United States","geoPoint":{"lat":25.77427,"lon":-80.19366}},{"facility":"Treasure Valley Medical Research- Site Number : 8400022","city":"Boise","state":"Idaho","zip":"83706","country":"United States","geoPoint":{"lat":43.6135,"lon":-116.20345}},{"facility":"ENT Associates of Texas - McKinne- Site Number : 8400013","city":"McKinney","state":"Texas","zip":"75070","country":"United States","geoPoint":{"lat":33.19762,"lon":-96.61527}},{"facility":"Alamo ENT Associates- Site Number : 8400026","city":"San Antonio","state":"Texas","zip":"78258","country":"United States","geoPoint":{"lat":29.42412,"lon":-98.49363}},{"facility":"Eastern Virginia Medical School (EVMS) Medical Group- Site Number : 8400007","city":"Norfolk","state":"Virginia","zip":"23510","country":"United States","geoPoint":{"lat":36.84681,"lon":-76.28522}},{"facility":"Investigational Site Number : 0320003","city":"San Miguel de Tucumán","state":"Tucumán Province","zip":"4000","country":"Argentina","geoPoint":{"lat":-26.81601,"lon":-65.21051}},{"facility":"Investigational Site Number : 0320001","city":"Buenos Aires","zip":"1425","country":"Argentina","geoPoint":{"lat":-34.61315,"lon":-58.37723}},{"facility":"Investigational Site Number : 0320004","city":"Corrientes","zip":"3400","country":"Argentina","geoPoint":{"lat":-27.46784,"lon":-58.8344}},{"facility":"Investigational Site Number : 0560003","city":"Brussels","zip":"1200","country":"Belgium","geoPoint":{"lat":50.85045,"lon":4.34878}},{"facility":"Investigational Site Number : 0560004","city":"Gesves","zip":"5340","country":"Belgium","geoPoint":{"lat":50.40146,"lon":5.07457}},{"facility":"Investigational Site Number : 0560002","city":"Ghent","zip":"9000","country":"Belgium","geoPoint":{"lat":51.05,"lon":3.71667}},{"facility":"Investigational Site Number : 0560001","city":"Leuven","zip":"3000","country":"Belgium","geoPoint":{"lat":50.87959,"lon":4.70093}},{"facility":"Investigational Site Number : 1240005","city":"London","state":"Ontario","zip":"N6A 4V2","country":"Canada","geoPoint":{"lat":42.98339,"lon":-81.23304}},{"facility":"Investigational Site Number : 1240002","city":"Montreal","state":"Quebec","zip":"H4A 3J1","country":"Canada","geoPoint":{"lat":45.50884,"lon":-73.58781}},{"facility":"Investigational Site Number : 1240001","city":"Québec","state":"Quebec","zip":"G1V 4G5","country":"Canada","geoPoint":{"lat":46.81228,"lon":-71.21454}},{"facility":"Investigational Site Number : 1240003","city":"Québec","state":"Quebec","zip":"G1V 4W2","country":"Canada","geoPoint":{"lat":46.81228,"lon":-71.21454}},{"facility":"Investigational Site Number : 1240012","city":"Québec","state":"Quebec","zip":"G2J 0C4","country":"Canada","geoPoint":{"lat":46.81228,"lon":-71.21454}},{"facility":"Investigational Site Number : 1240009","city":"Trois-Rivières","state":"Quebec","zip":"G8T 7A1","country":"Canada","geoPoint":{"lat":46.34515,"lon":-72.5477}},{"facility":"Investigational Site Number : 1520001","city":"Santiago","state":"Reg Metropolitana de Santiago","zip":"7500505","country":"Chile","geoPoint":{"lat":-33.45694,"lon":-70.64827}},{"facility":"Investigational Site Number : 1520003","city":"Santiago","state":"Reg Metropolitana de Santiago","zip":"7500692","country":"Chile","geoPoint":{"lat":-33.45694,"lon":-70.64827}},{"facility":"Investigational Site Number : 1520002","city":"Concepción","state":"Región del Biobío","zip":"4070094","country":"Chile","geoPoint":{"lat":-36.82699,"lon":-73.04977}},{"facility":"Investigational Site Number : 1560004","city":"Baotou","zip":"014040","country":"China","geoPoint":{"lat":40.6516,"lon":109.84389}},{"facility":"Investigational Site Number : 1560001","city":"Beijing","zip":"100730","country":"China","geoPoint":{"lat":39.9075,"lon":116.39723}},{"facility":"Investigational Site Number : 1560002","city":"Shanghai","zip":"200127","country":"China","geoPoint":{"lat":31.22222,"lon":121.45806}},{"facility":"Investigational Site Number : 1560003","city":"Zibo","zip":"255036","country":"China","geoPoint":{"lat":36.79056,"lon":118.06333}},{"facility":"Investigational Site Number : 2500012","city":"La Rochelle","zip":"17019","country":"France","geoPoint":{"lat":46.16308,"lon":-1.15222}},{"facility":"Investigational Site Number : 2500004","city":"Marseille","zip":"13005","country":"France","geoPoint":{"lat":43.29695,"lon":5.38107}},{"facility":"Investigational Site Number : 2500005","city":"Montpellier","zip":"34295","country":"France","geoPoint":{"lat":43.61093,"lon":3.87635}},{"facility":"Investigational Site Number : 2500010","city":"Poitiers","zip":"86021","country":"France","geoPoint":{"lat":46.58261,"lon":0.34348}},{"facility":"Fondazione Policlinico Universitario Campus Bio-Medico-Site Number : 3800002","city":"Rome","state":"Roma","zip":"00128","country":"Italy","geoPoint":{"lat":41.89193,"lon":12.51133}},{"facility":"Fondazione Policlinico Universitario Agostino Gemelli IRCCS-Site Number : 3800001","city":"Rome","state":"Roma","zip":"00168","country":"Italy","geoPoint":{"lat":41.89193,"lon":12.51133}},{"facility":"Azienda Ospedaliero-Universitaria Pisana-Site Number : 3800003","city":"Pisa","zip":"56124","country":"Italy","geoPoint":{"lat":43.70853,"lon":10.4036}},{"facility":"Investigational Site Number : 6160002","city":"Poznan","state":"Greater Poland Voivodeship","zip":"60-693","country":"Poland","geoPoint":{"lat":52.40692,"lon":16.92993}},{"facility":"Investigational Site Number : 6160006","city":"Krakow","state":"Lesser Poland Voivodeship","zip":"31-513","country":"Poland","geoPoint":{"lat":50.06143,"lon":19.93658}},{"facility":"Investigational Site Number : 6160008","city":"Lodz","state":"Lódzkie","zip":"90-302","country":"Poland","geoPoint":{"lat":51.77058,"lon":19.47395}},{"facility":"Investigational Site Number : 6160001","city":"Warsaw","state":"Masovian Voivodeship","zip":"00-909","country":"Poland","geoPoint":{"lat":52.22977,"lon":21.01178}},{"facility":"Investigational Site Number : 6160004","city":"Bielsko-Biala","state":"Silesian Voivodeship","zip":"43-300","country":"Poland","geoPoint":{"lat":49.82245,"lon":19.04686}},{"facility":"Investigational Site Number : 6200001","city":"Guimarães","zip":"4800-055","country":"Portugal","geoPoint":{"lat":41.44443,"lon":-8.29619}},{"facility":"Investigational Site Number : 6200002","city":"Porto","zip":"3814-501","country":"Portugal","geoPoint":{"lat":41.1485,"lon":-8.61097}},{"facility":"Investigational Site Number : 6420001","city":"Brasov","zip":"500283","country":"Romania","geoPoint":{"lat":45.64861,"lon":25.60613}},{"facility":"Investigational Site Number : 6420002","city":"Bucharest","zip":"022328","country":"Romania","geoPoint":{"lat":44.43225,"lon":26.10626}},{"facility":"Investigational Site Number : 4100005","city":"Cheonan-si","state":"Chungcheongnam-do","zip":"31116","country":"South Korea"},{"facility":"Investigational Site Number : 4100003","city":"Seoul","state":"Seoul-teukbyeolsi","zip":"03080","country":"South Korea","geoPoint":{"lat":37.566,"lon":126.9784}},{"facility":"Investigational Site Number : 4100004","city":"Seoul","state":"Seoul-teukbyeolsi","zip":"03722","country":"South Korea","geoPoint":{"lat":37.566,"lon":126.9784}},{"facility":"Investigational Site Number : 4100002","city":"Seoul","state":"Seoul-teukbyeolsi","zip":"06351","country":"South Korea","geoPoint":{"lat":37.566,"lon":126.9784}},{"facility":"Investigational Site Number : 4100001","city":"Seoul","state":"Seoul-teukbyeolsi","zip":"07061","country":"South Korea","geoPoint":{"lat":37.566,"lon":126.9784}},{"facility":"Investigational Site Number : 7240003","city":"Barcelona","state":"Barcelona [Barcelona]","zip":"08003","country":"Spain","geoPoint":{"lat":41.38879,"lon":2.15899}},{"facility":"Investigational Site Number : 7240002","city":"L'Hospitalet de Llobregat","state":"Catalunya [Cataluña]","zip":"08907","country":"Spain","geoPoint":{"lat":41.35967,"lon":2.10028}},{"facility":"Investigational Site Number : 7240004","city":"Jerez de la Frontera","state":"Cádiz","zip":"11407","country":"Spain","geoPoint":{"lat":36.68645,"lon":-6.13606}},{"facility":"Investigational Site Number : 7240005","city":"Pamplona","state":"Navarre","zip":"31008","country":"Spain","geoPoint":{"lat":42.81687,"lon":-1.64323}},{"facility":"Investigational Site Number : 7240001","city":"Seville","state":"Sevilla","zip":"41009","country":"Spain","geoPoint":{"lat":37.38283,"lon":-5.97317}},{"facility":"Investigational Site Number : 7240006","city":"Madrid","zip":"28040","country":"Spain","geoPoint":{"lat":40.4165,"lon":-3.70256}}]},"referencesModule":{"seeAlsoLinks":[{"label":"ACT18421 Plain Language Results Summary","url":"https://www.trialsummaries.com/Study/StudyDetails?id=26272&tenant=MT_SNY_9011"}]},"ipdSharingStatementModule":{"ipdSharing":"YES","description":"Qualified researchers may request access to patient level data and related study documents including the clinical study report, study protocol with any amendments, blank case report form, statistical analysis plan, and dataset specifications. Patient level data will be anonymized and study documents will be redacted to protect the privacy of trial participants. Further details on Sanofi's data sharing criteria, eligible studies, and process for requesting access can be found at: https://vivli.org"}},"derivedSection":{"miscInfoModule":{"versionHolder":"2026-02-25"},"interventionBrowseModule":{"meshes":[{"id":"C000720033","term":"itepekimab"}]}},"hasResults":false}