{"totalCount":1,"studies":[
{"protocolSection":{"identificationModule":{"nctId":"NCT05501886","orgStudyIdInfo":{"id":"CELC-G-301"},"secondaryIdInfos":[{"id":"2021-005235-24","type":"EUDRACT_NUMBER"}],"organization":{"fullName":"Celcuity Inc","class":"INDUSTRY"},"briefTitle":"Gedatolisib Plus Fulvestrant With or Without Palbociclib vs Standard-of-Care for the Treatment of Patients With Advanced or Metastatic HR+/HER2- Breast Cancer (VIKTORIA-1)","officialTitle":"Phase 3, Open-Label, Randomized, Study Comparing Gedatolisib Combined With Fulvestrant & With or Without Palbociclib to Standard-of-Care Therapies in Patients With HR-Positive, HER2-Negative Advanced Breast Cancer Previously Treated With a CDK4/6 Inhibitor in Combination w/Non-Steroidal Aromatase Inhibitor Therapy","acronym":"VIKTORIA-1"},"statusModule":{"statusVerifiedDate":"2026-02","overallStatus":"ACTIVE_NOT_RECRUITING","expandedAccessInfo":{"hasExpandedAccess":false},"startDateStruct":{"date":"2022-12-08","type":"ACTUAL"},"primaryCompletionDateStruct":{"date":"2026-06-30","type":"ESTIMATED"},"completionDateStruct":{"date":"2026-12-31","type":"ESTIMATED"},"studyFirstSubmitDate":"2022-08-12","studyFirstSubmitQcDate":"2022-08-12","studyFirstPostDateStruct":{"date":"2022-08-16","type":"ACTUAL"},"lastUpdateSubmitDate":"2026-02-06","lastUpdatePostDateStruct":{"date":"2026-02-10","type":"ACTUAL"}},"sponsorCollaboratorsModule":{"responsibleParty":{"type":"SPONSOR"},"leadSponsor":{"name":"Celcuity Inc","class":"INDUSTRY"}},"oversightModule":{"oversightHasDmc":true,"isFdaRegulatedDrug":true,"isFdaRegulatedDevice":false},"descriptionModule":{"briefSummary":"This is a Phase 3, open-label, randomized, clinical trial evaluating the efficacy and safety of gedatolisib plus fulvestrant with or without palbociclib for the treatment of patients with locally advanced or metastatic HR+/HER2- breast cancer following progression on or after CDK4/6 and aromatase inhibitor therapy.","detailedDescription":"This is a Phase 3, open-label, randomized clinical trial evaluating the efficacy and safety of gedatolisib plus fulvestrant with or without palbociclib for the treatment of patients with advanced (inoperable) or metastatic Hormone Receptor Positive, Human Epidermal Growth Factor Receptor 2 Negative (HR+/HER2-) breast cancer following progression on or after CDK4/6 and aromatase inhibitor therapy. Gedatolisib is an intravenously administered pan-PI3K/mTOR inhibitor. Palbociclib is a CDK4/6 inhibitor. Fulvestrant is a selective estrogen receptor degrader (SERD). Subjects will be assessed for PIK3CA status and then randomized to treatment arms according to their confirmed PIK3CA mutation status."},"conditionsModule":{"conditions":["Breast Cancer"],"keywords":["Breast Cancer, Advanced or Metastatic","gedatolisib","HR Positive","ER Positive","HER2 Negative","PIK3CA MT","PI3K"]},"designModule":{"studyType":"INTERVENTIONAL","phases":["PHASE3"],"designInfo":{"allocation":"RANDOMIZED","interventionModel":"PARALLEL","primaryPurpose":"TREATMENT","maskingInfo":{"masking":"NONE"}},"enrollmentInfo":{"count":701,"type":"ESTIMATED"}},"armsInterventionsModule":{"armGroups":[{"label":"Arm A - Patients Lacking PIK3CA Mutations (WT)","type":"EXPERIMENTAL","description":"Gedatolisib + Palbociclib + Fulvestrant","interventionNames":["Drug: Gedatolisib","Drug: Palbociclib","Drug: Fulvestrant"]},{"label":"Arm B - Patients Lacking PIK3CA Mutations (WT)","type":"EXPERIMENTAL","description":"Gedatolisib + Fulvestrant","interventionNames":["Drug: Gedatolisib","Drug: Fulvestrant"]},{"label":"Arm C - Patients Lacking PIK3CA Mutations (WT)","type":"ACTIVE_COMPARATOR","description":"Fulvestrant","interventionNames":["Drug: Fulvestrant"]},{"label":"Arm D - Patients with PIK3CA Mutation (MT)","type":"EXPERIMENTAL","description":"Gedatolisib + Palbociclib + Fulvestrant","interventionNames":["Drug: Gedatolisib","Drug: Palbociclib","Drug: Fulvestrant"]},{"label":"Arm E - Patients with PIK3CA Mutation (MT)","type":"ACTIVE_COMPARATOR","description":"Alpelisib + Fulvestrant","interventionNames":["Drug: Fulvestrant","Drug: Alpelisib"]},{"label":"Arm F - Patients with PIK3CA Mutation (MT)","type":"EXPERIMENTAL","description":"Gedatolisib + Fulvestrant","interventionNames":["Drug: Gedatolisib","Drug: Fulvestrant"]}],"interventions":[{"type":"DRUG","name":"Gedatolisib","description":"Gedatolisib 180 mg IV given weekly for 3 weeks (Days 1, 8, 15) followed by 1 week off","armGroupLabels":["Arm A - Patients Lacking PIK3CA Mutations (WT)","Arm B - Patients Lacking PIK3CA Mutations (WT)","Arm D - Patients with PIK3CA Mutation (MT)","Arm F - Patients with PIK3CA Mutation (MT)"],"otherNames":["PF-05212384","PKI-587"]},{"type":"DRUG","name":"Palbociclib","description":"Palbociclib 125 mg PO given daily for 3 weeks (21 days), followed by 1 week off","armGroupLabels":["Arm A - Patients Lacking PIK3CA Mutations (WT)","Arm D - Patients with PIK3CA Mutation (MT)"],"otherNames":["IBRANCE","PD-0332991"]},{"type":"DRUG","name":"Fulvestrant","description":"Fulvestrant 500 mg IM (2 × 5 mL injections) given every 2 weeks during Cycle 1 (Days 1 and 15), then every 4 weeks beginning with Cycle 2 Day 1","armGroupLabels":["Arm A - Patients Lacking PIK3CA Mutations (WT)","Arm B - Patients Lacking PIK3CA Mutations (WT)","Arm C - Patients Lacking PIK3CA Mutations (WT)","Arm D - Patients with PIK3CA Mutation (MT)","Arm E - Patients with PIK3CA Mutation (MT)","Arm F - Patients with PIK3CA Mutation (MT)"],"otherNames":["Faslodex"]},{"type":"DRUG","name":"Alpelisib","description":"Alpelisib 300 mg PO (2 × 150 mg tablets) given daily for 4 weeks (28 days)","armGroupLabels":["Arm E - Patients with PIK3CA Mutation (MT)"],"otherNames":["Piqray","Vijoice","BYL719"]}]},"outcomesModule":{"primaryOutcomes":[{"measure":"Progression Free Survival (PFS) in Patients with PIK3CA WT and PIK3CA MT Breast Cancer","description":"PFS is defined as the time from randomization to death or the first documented progression, whichever occurs first, confirmed by Response Evaluation Criteria in Solid Tumors (RECIST) v1.1 criteria, as determined based on blinded independent central review (BICR)","timeFrame":"Approximately 48 months"}],"secondaryOutcomes":[{"measure":"Overall Survival (OS) in Patients with PIK3CA WT and PIK3CA MT Breast Cancer","description":"OS is defined as the length of time from randomization until the date of death from any cause method, where PFS is defined as the time from randomization to death or the first documented progression, whichever occurs first, confirmed by Response Evaluation Criteria in Solid Tumors (RECIST) v1.1 criteria, as determined based on blinded independent central review (BICR)","timeFrame":"From date of randomization to the date of death due to any cause, up to approximately 48 months"},{"measure":"Overall Response Rate (ORR) in Patients with PIK3CA WT and PIK3CA MT Breast Cancer","description":"Percentage of subjects who achieved an objective response according to RECIST v1.1 criteria (complete response \\[CR\\] or partial response \\[PR\\]) as assessed by BICR)","timeFrame":"Up to approximately 48 months"},{"measure":"Duration of Response (DOR) in Patients with PIK3CA WT and PIK3CA MT Breast Cancer","description":"Time from the assessment of initial response (PR or better) to death or first documented disease progression as assessed by BICR, whichever occurs first","timeFrame":"Up to approximately 48 months"},{"measure":"Time to Response (TTR) in Patients with PIK3CA WT and PIK3CA MT Breast Cancer","description":"Time form randomization to the first assessment of PR or better as assessed by BICR, whichever comes first","timeFrame":"Up to approximately 48 months"},{"measure":"Clinical Benefit Rate (CBR) in Patients with PIK3CA WT and PIK3CA MT Breast Cancer","description":"Percentage of subjects with CR, PR, or stable disease (SD) \\>24 weeks as assessed by BICR","timeFrame":"Up to approximately 48 months"},{"measure":"Quality of Life (QOL)Functional Assessment of Cancer Therapy - Breast Trial Outcome Index (FACT-B TOI) Questions in Patients with PIK3CA WT and PIK3CA MT Breast Cancer","description":"The FACT-B TOI is an abbreviated (24-item) version of the full FACT-B which focuses only on the patient's Physical Well-being (PWB), Functional Well-being (FWB), and Breast Cancer Subscale (BCS) components using a 5-level scale, (Not at all, A little bit, Some-what, Quite a bit, Very much).","timeFrame":"From baseline to 30 Day Safety Follow-up"},{"measure":"Quality of Life (QOL) NCCN-FACT Breast Symptom Index -16 (NFBSI-16) in Patients with PIK3CA WT and PIK3CA MT Breast Cancer","description":"NCCN-FACT is derived from the FACT-B and only 4 additional items will be administered to enable optional scoring of the NFBSI subscales and total score using a 5-level scale (Not at all, A little bit, Some-what, Quite a bit, Very much).","timeFrame":"From baseline to 30 Day Safety Follow-up"},{"measure":"Patient-Reported Outcomes in Patients with PIK3CA WT and PIK3CA MT Breast Cancer","description":"Patient-Reported Outcomes Measurement Information System (PROMIS®) Short Form v2.0 - Physical Function 8c using a 5-level scale (Without any difficulty, With a little difficulty, With some difficulty, With much difficulty, Unable to do)","timeFrame":"From baseline to 30 Day Safety Follow-up"},{"measure":"EuroQol 5 in Patients with PIK3CA WT and PIK3CA MT Breast Cancer","description":"EuroQol 5 Dimension 5 Level (EQ-5D-5L) - This is a 5 question, self-administered visual analog scale (VAS) where patients use 0 (worst health) to 100 (best health) to indicate how they view their health.","timeFrame":"From baseline to 30 Day Safety Follow-up"},{"measure":"Adverse Events","description":"Safety and tolerability will be evaluated by review of type, incidence, severity (as graded by the National Cancer Institute Common Terminology Criteria for Adverse Events \\[NCI CTCAE\\] v5.0), seriousness, and relationship to study medications of adverse events (AEs) and any laboratory abnormalities","timeFrame":"Up to approximately 48 months"}]},"eligibilityModule":{"eligibilityCriteria":"Inclusion Criteria:\n\n1. Histologically or cytologically confirmed diagnosis of metastatic or locally advanced breast cancer Adult females, pre- and/or post-menopausal, and adult males. Pre-menopausal (and peri-menopausal) women can be enrolled if amenable to treatment with an LHRH agonist. Patients are to have commenced concomitant treatment with LHRH agonist prior to or on Cycle 1, Day 1 and must be willing to continue on it for the duration of the study.\n2. Negative pregnancy test for women of childbearing potential. Female subjects of childbearing potential must use an effective and/or acceptable contraceptive method from screening until 1 year after the last dose of study treatment\n3. Confirmed diagnosis of estrogen receptor positive and/or progesterone receptor positive, as per American Society of Clinical Oncology/College of American Pathologists (ASCO-CAP) guidelines (2020), based on most recent tumor biopsy utilizing an assay consistent with local standards\n4. Documented HER2 immunohistochemistry (IHC) negative as per ASCO-CAP 2018 guidance\n5. Adequate archival or fresh tumor tissue for the analysis of PIK3CA mutational status\n6. Subject must have documentation of radiological disease progression on or after the last prior treatment and also have radiologically evaluable disease (measurable and/or non-measurable) according to RECIST v1.1, per local assessment. Subjects with bone only disease must have lytic or mixed lytic/blastic lesions that can be accurately assessed; bone only blastic lesions with no soft tissue component is not allowed.\n7. Eastern Cooperative Oncology Group (ECOG) performance status of 0-1\n8. Life expectancy of at least 3 months\n9. Progressed during or after CDK4/6 inhibitor combination treatment with non-steroidal aromatase inhibitor (AI)\n10. Adequate bone marrow, hepatic, renal and coagulation function\n\nExclusion Criteria:\n\n1. History of malignancies other than adequately treated non-melanoma skin cancer, curatively treated in situ cancer of the cervix, or other solid tumors curatively treated with no evidence of disease for ≥3 years\n2. Prior treatment with a phosphoinositide 3-kinase (PI3K) inhibitor, a protein kinase B (Akt) inhibitor, or a mechanistic target of rapamycin (mTOR) inhibitor\n3. Prior treatment with chemotherapy and antibody drug conjugates for advanced disease is not permitted (prior adjuvant or neoadjuvant chemotherapy is permitted)\n4. More than 2 lines of prior endocrine therapy treatment\n5. Bone only disease that is only blastic with no soft tissue component\n6. Subjects with type 1 diabetes or uncontrolled type 2 diabetes\n7. Known and untreated, or active, brain or leptomeningeal metastases\n\n   a. Subjects with previously treated central nervous system (CNS) metastases may be enrolled in the study if they meet the following criteria: do not require supportive therapy with steroids; do not have seizures and do not exhibit uncontrolled neurological symptoms; stable disease confirmed by radiographic assessment within at least 4 weeks prior to enrollment\n8. Patients with advanced, symptomatic, visceral spread that are at risk of life-threatening complication in the short-term\n9. History of clinically significant cardiovascular abnormalities such as: Congestive heart failure (New York Heart Association (NYHA) classification ≥ II within 6 months of study entry\n\n   1. Myocardial infarction within 12 months of study entry\n   2. History of any uncontrolled (or untreated) clinically significant cardiac arrhythmias, (e.g., ventricular tachycardia), complete left bundle branch block, high grade AV block (e.g., bifascicular block, Mobitz type II and third degree AV block), supraventricular, nodal arrhythmias, or conduction abnormality in the previous 12 months\n   3. Uncontrolled hypertension defined by systolic blood pressure (SBP) ≥160 mmHg and/or diastolic blood pressure (DBP) ≥100 mmHg, with or without antihypertensive medication (initiation or adjustment of antihypertensive medication\\[s\\] is allowed prior to screening)\n   4. Long QT syndrome, family history of idiopathic sudden death or congenital long QT syndrome, or any of the following:\n\n      * i. Risk factors for Torsades de Pointes (TdP) including uncorrected hypokalemia or hypomagnesemia, or history of clinically significant/symptomatic bradycardia\n      * ii. On screening, inability to determine the corrected QT interval using Fridericia's formula (QTcF) on the ECG (i.e., unreadable or not interpretable) or QTcF \\>480 msec (determined by mean of triplicate ECGs at screening)\n10. Known hypersensitivity to the study drugs or their components\n11. Pregnant or breast-feeding women\n12. Concurrent participation in another interventional clinical trial\n\n    1. Subjects must agree not to participate in another clinical trial (other than observational) at any time during participation in VIKTORIA-1.","healthyVolunteers":false,"sex":"ALL","minimumAge":"18 Years","stdAges":["ADULT","OLDER_ADULT"]},"contactsLocationsModule":{"overallOfficials":[{"name":"Nadene Zack","affiliation":"Celcuity Inc","role":"STUDY_DIRECTOR"}],"locations":[{"facility":"University of Alabama at Birmingham","city":"Birmingham","state":"Alabama","zip":"35294","country":"United States","geoPoint":{"lat":33.52066,"lon":-86.80249}},{"facility":"Arizona Oncology (US Oncology/McKesson) - Goodyear","city":"Goodyear","state":"Arizona","zip":"85395","country":"United States","geoPoint":{"lat":33.43532,"lon":-112.35821}},{"facility":"St. Bernards Medical Center","city":"Jonesboro","state":"Arkansas","zip":"72401","country":"United States","geoPoint":{"lat":35.8423,"lon":-90.70428}},{"facility":"CARTI Cancer Center","city":"Little Rock","state":"Arkansas","zip":"72205","country":"United States","geoPoint":{"lat":34.74648,"lon":-92.28959}},{"facility":"Pacific Cancer Medical Center Inc","city":"Anaheim","state":"California","zip":"92801","country":"United States","geoPoint":{"lat":33.83529,"lon":-117.9145}},{"facility":"Kaiser Permanente South Bay Medical Center","city":"Harbor City","state":"California","zip":"90710","country":"United States","geoPoint":{"lat":33.79002,"lon":-118.29785}},{"facility":"Cancer and Blood Specialty Clinic","city":"Los Alamitos","state":"California","zip":"90720","country":"United States","geoPoint":{"lat":33.80307,"lon":-118.07256}},{"facility":"Pacific Cancer Care","city":"Monterey","state":"California","zip":"93940","country":"United States","geoPoint":{"lat":36.60024,"lon":-121.89468}},{"facility":"University of California, Irvine Medical Center","city":"Orange","state":"California","zip":"92868","country":"United States","geoPoint":{"lat":33.78779,"lon":-117.85311}},{"facility":"Ventura County Hematology Oncology Specialists","city":"Oxnard","state":"California","zip":"93030","country":"United States","geoPoint":{"lat":34.1975,"lon":-119.17705}},{"facility":"Redlands Hematology Oncology","city":"Redlands","state":"California","zip":"92373","country":"United States","geoPoint":{"lat":34.05557,"lon":-117.18254}},{"facility":"UCLA Hematology/Oncology-Santa Monica","city":"Santa Monica","state":"California","zip":"90904","country":"United States","geoPoint":{"lat":34.01949,"lon":-118.49138}},{"facility":"Torrance Memorial Physician Network - Cancer Care","city":"Torrance","state":"California","zip":"90505","country":"United States","geoPoint":{"lat":33.83585,"lon":-118.34063}},{"facility":"Kaiser Permanente Medical Center - Vallejo","city":"Vallejo","state":"California","zip":"94589","country":"United States","geoPoint":{"lat":38.10409,"lon":-122.25664}},{"facility":"PIH Health Hospital Whittier","city":"Whittier","state":"California","zip":"90602-1006","country":"United States","geoPoint":{"lat":33.97918,"lon":-118.03284}},{"facility":"Yale Cancer Center - New Haven","city":"New Haven","state":"Connecticut","zip":"06520-8028","country":"United States","geoPoint":{"lat":41.30815,"lon":-72.92816}},{"facility":"South Broward Hospital District d/b/a Memorial Healthcare System","city":"Hollywood","state":"Florida","zip":"33021","country":"United States","geoPoint":{"lat":26.0112,"lon":-80.14949}},{"facility":"Cancer Specialists of North Florida - Jacksonville","city":"Jacksonville","state":"Florida","zip":"32256","country":"United States","geoPoint":{"lat":30.33218,"lon":-81.65565}},{"facility":"H. Lee Moffitt Cancer Center & Research Institute","city":"Tampa","state":"Florida","zip":"33612","country":"United States","geoPoint":{"lat":27.94752,"lon":-82.45843}},{"facility":"Bond & Steele Clinic, P.A. d/b/a Bond Clinic, P.A.","city":"Winter Haven","state":"Florida","zip":"33881","country":"United States","geoPoint":{"lat":28.02224,"lon":-81.73286}},{"facility":"John D. Archbold Memorial Hospital","city":"Thomasville","state":"Georgia","zip":"31792","country":"United States","geoPoint":{"lat":30.83658,"lon":-83.97878}},{"facility":"Illinois Cancer Specialists - Arlington Heights","city":"Arlington Heights","state":"Illinois","zip":"60005","country":"United States","geoPoint":{"lat":42.08836,"lon":-87.98063}},{"facility":"Fort Wayne Medical Oncology and Hematology","city":"Fort Wayne","state":"Indiana","zip":"46845","country":"United States","geoPoint":{"lat":41.1306,"lon":-85.12886}},{"facility":"University of Kansas Cancer Center","city":"Westwood","state":"Kansas","zip":"66205","country":"United States","geoPoint":{"lat":39.04056,"lon":-94.6169}},{"facility":"University of Kentucky Medical Center","city":"Lexington","state":"Kentucky","zip":"40536-0293","country":"United States","geoPoint":{"lat":37.98869,"lon":-84.47772}},{"facility":"Mercy Health - Paducah","city":"Paducah","state":"Kentucky","zip":"42003","country":"United States","geoPoint":{"lat":37.08339,"lon":-88.60005}},{"facility":"American Oncology Partners of Maryland, PA","city":"Bethesda","state":"Maryland","zip":"20817-7847","country":"United States","geoPoint":{"lat":38.98067,"lon":-77.10026}},{"facility":"Maryland Oncology Hematology, P.A. - Rockville","city":"Rockville","state":"Maryland","zip":"20850","country":"United States","geoPoint":{"lat":39.084,"lon":-77.15276}},{"facility":"Dana Farber Cancer Institute","city":"Boston","state":"Massachusetts","zip":"02215-5450","country":"United States","geoPoint":{"lat":42.35843,"lon":-71.05977}},{"facility":"Beth Israel Deaconess Medical Center","city":"Boston","state":"Massachusetts","zip":"02215","country":"United States","geoPoint":{"lat":42.35843,"lon":-71.05977}},{"facility":"Henry Ford Hospital","city":"Detroit","state":"Michigan","zip":"48202","country":"United States","geoPoint":{"lat":42.33143,"lon":-83.04575}},{"facility":"Nebraska Hematology - Oncology, P.C.","city":"Lincoln","state":"Nebraska","zip":"68506","country":"United States","geoPoint":{"lat":40.8,"lon":-96.66696}},{"facility":"Oncology Hematology West PC dba Nebraska Cancer Specialists","city":"Omaha","state":"Nebraska","zip":"68130","country":"United States","geoPoint":{"lat":41.25626,"lon":-95.94043}},{"facility":"University of Nebraska Medical Center","city":"Omaha","state":"Nebraska","zip":"68198","country":"United States","geoPoint":{"lat":41.25626,"lon":-95.94043}},{"facility":"New York Oncology Hematology, P.C. - Albany","city":"Albany","state":"New York","zip":"12206","country":"United States","geoPoint":{"lat":42.65258,"lon":-73.75623}},{"facility":"Queens Hospital Cancer Center","city":"Jamaica","state":"New York","zip":"11432","country":"United States","geoPoint":{"lat":40.69149,"lon":-73.80569}},{"facility":"Coleman, Pasmantier & Decter, MDs","city":"New York","state":"New York","zip":"10021-5302","country":"United States","geoPoint":{"lat":40.71427,"lon":-74.00597}},{"facility":"Weill Cornell Medicine/New York-Presbyterian Hospital","city":"New York","state":"New York","zip":"10021","country":"United States","geoPoint":{"lat":40.71427,"lon":-74.00597}},{"facility":"University of Rochester Medical Center","city":"Rochester","state":"New York","zip":"14642","country":"United States","geoPoint":{"lat":43.15478,"lon":-77.61556}},{"facility":"Hematology/Oncology Associates of Central New York","city":"Syracuse","state":"New York","zip":"13057","country":"United States","geoPoint":{"lat":43.04812,"lon":-76.14742}},{"facility":"Montefiore Medical Center","city":"The Bronx","state":"New York","zip":"10467","country":"United States","geoPoint":{"lat":40.84985,"lon":-73.86641}},{"facility":"White Plains Hospital","city":"White Plains","state":"New York","zip":"10601","country":"United States","geoPoint":{"lat":41.03399,"lon":-73.76291}},{"facility":"Cone Health Cancer Center at Alamance Regional, Hematology/Oncology","city":"Greensboro","state":"North Carolina","zip":"27403","country":"United States","geoPoint":{"lat":36.07264,"lon":-79.79198}},{"facility":"Southeast Regional Cancer Center","city":"Lumberton","state":"North Carolina","zip":"28359","country":"United States","geoPoint":{"lat":34.61834,"lon":-79.01045}},{"facility":"Sanford Health- Fargo","city":"Fargo","state":"North Dakota","zip":"58102","country":"United States","geoPoint":{"lat":46.87719,"lon":-96.7898}},{"facility":"University Hospitals Cleveland Medical Center","city":"Cleveland","state":"Ohio","zip":"44106-1716","country":"United States","geoPoint":{"lat":41.4995,"lon":-81.69541}},{"facility":"The James Cancer Hospital and Solove Research Institute","city":"Columbus","state":"Ohio","zip":"43210","country":"United States","geoPoint":{"lat":39.96118,"lon":-82.99879}},{"facility":"OU Health Stephenson Cancer Center","city":"Oklahoma City","state":"Oklahoma","zip":"73104","country":"United States","geoPoint":{"lat":35.46756,"lon":-97.51643}},{"facility":"Oregon Oncology Specialists","city":"Salem","state":"Oregon","zip":"97301","country":"United States","geoPoint":{"lat":44.9429,"lon":-123.0351}},{"facility":"Northwest Cancer Specialists, PC - Tigard","city":"Tigard","state":"Oregon","zip":"97223","country":"United States","geoPoint":{"lat":45.43123,"lon":-122.77149}},{"facility":"Consultants In Medical Oncology and Hematology, P.C.","city":"Broomall","state":"Pennsylvania","zip":"19008","country":"United States","geoPoint":{"lat":39.9815,"lon":-75.35658}},{"facility":"Alliance Cancer Specialists PC","city":"Horsham","state":"Pennsylvania","zip":"19044","country":"United States","geoPoint":{"lat":40.17844,"lon":-75.12851}},{"facility":"Cancer Care Associates of York","city":"York","state":"Pennsylvania","zip":"17403","country":"United States","geoPoint":{"lat":39.9626,"lon":-76.72774}},{"facility":"Sanford Gynecologic Oncology Clinic","city":"Sioux Falls","state":"South Dakota","zip":"57104","country":"United States","geoPoint":{"lat":43.54369,"lon":-96.72796}},{"facility":"Texas Oncology - Austin","city":"Austin","state":"Texas","zip":"78745","country":"United States","geoPoint":{"lat":30.26715,"lon":-97.74306}},{"facility":"Texas Oncology P.A. - Dallas","city":"Dallas","state":"Texas","zip":"75230","country":"United States","geoPoint":{"lat":32.78306,"lon":-96.80667}},{"facility":"Texas Oncology - Baylor Charles A. Sammons Cancer Center","city":"Dallas","state":"Texas","zip":"75246","country":"United States","geoPoint":{"lat":32.78306,"lon":-96.80667}},{"facility":"William Beaumont Army Medical Center","city":"El Paso","state":"Texas","zip":"79920","country":"United States","geoPoint":{"lat":31.75872,"lon":-106.48693}},{"facility":"Oncology Consultants","city":"Houston","state":"Texas","zip":"77030","country":"United States","geoPoint":{"lat":29.76328,"lon":-95.36327}},{"facility":"University of Texas MD Anderson Cancer Center","city":"Houston","state":"Texas","zip":"77030","country":"United States","geoPoint":{"lat":29.76328,"lon":-95.36327}},{"facility":"Brooke Army Medical Center","city":"Houston","state":"Texas","zip":"78234","country":"United States","geoPoint":{"lat":29.76328,"lon":-95.36327}},{"facility":"Texas Oncology - McKinney","city":"McKinney","state":"Texas","zip":"75071","country":"United States","geoPoint":{"lat":33.19762,"lon":-96.61527}},{"facility":"Texas Oncology - Gulf Coast","city":"Sugar Land","state":"Texas","zip":"77479","country":"United States","geoPoint":{"lat":29.61968,"lon":-95.63495}},{"facility":"Texas Oncology - Tyler","city":"Tyler","state":"Texas","zip":"75702","country":"United States","geoPoint":{"lat":32.35126,"lon":-95.30106}},{"facility":"Fort Belvoir Community Hospital","city":"Fort Belvoir","state":"Virginia","zip":"22060","country":"United States","geoPoint":{"lat":38.7119,"lon":-77.14589}},{"facility":"Bon Secours St. Francis Medical Oncology Center","city":"Midlothian","state":"Virginia","zip":"23114","country":"United States","geoPoint":{"lat":37.50598,"lon":-77.64916}},{"facility":"Virginia Oncology Associates - Newport News","city":"Newport News","state":"Virginia","zip":"23502","country":"United States","geoPoint":{"lat":36.98038,"lon":-76.42975}},{"facility":"VCU Massey Cancer Center","city":"Richmond","state":"Virginia","zip":"23219","country":"United States","geoPoint":{"lat":37.55376,"lon":-77.46026}},{"facility":"Oncology & Hematology Associates of Southwest Virginia, Inc., DBA Blue Ridge Cancer Care - Roanoke","city":"Roanoke","state":"Virginia","zip":"24014","country":"United States","geoPoint":{"lat":37.27097,"lon":-79.94143}},{"facility":"Fred Hutchinson Cancer Center","city":"Seattle","state":"Washington","zip":"98109-1023","country":"United States","geoPoint":{"lat":47.60621,"lon":-122.33207}},{"facility":"Northwest Medical Specialties, PLLC - Tacoma","city":"Tacoma","state":"Washington","zip":"98405","country":"United States","geoPoint":{"lat":47.25288,"lon":-122.44429}},{"facility":"CENIT Foundation","city":"Buenos Aires","zip":"C1113","country":"Argentina","geoPoint":{"lat":-34.61315,"lon":-58.37723}},{"facility":"Alexander Fleming Institute","city":"Buenos Aires","country":"Argentina","geoPoint":{"lat":-34.61315,"lon":-58.37723}},{"facility":"Buenos Aires British Hospital","city":"Buenos Aires","country":"Argentina","geoPoint":{"lat":-34.61315,"lon":-58.37723}},{"facility":"Center for Medical Education and Clinical Research (CEMIC)","city":"Buenos Aires","country":"Argentina","geoPoint":{"lat":-34.61315,"lon":-58.37723}},{"facility":"Fleischer Medical Center","city":"Buenos Aires","country":"Argentina","geoPoint":{"lat":-34.61315,"lon":-58.37723}},{"facility":"Medical Center Austral","city":"Buenos Aires","country":"Argentina","geoPoint":{"lat":-34.61315,"lon":-58.37723}},{"facility":"Pergamino Clinic","city":"Buenos Aires","country":"Argentina","geoPoint":{"lat":-34.61315,"lon":-58.37723}},{"facility":"Cordoba Oncology Institute (IONC)","city":"Córdoba","country":"Argentina","geoPoint":{"lat":-31.40648,"lon":-64.18853}},{"facility":"Center of Nuclear and Molecular Medicine of Entre Rios (CEMENER)","city":"Paraná","country":"Argentina","geoPoint":{"lat":-31.73271,"lon":-60.52897}},{"facility":"CEDIT Diagnostic and treatment center","city":"Salta","country":"Argentina","geoPoint":{"lat":-24.80645,"lon":-65.41999}},{"facility":"CER San Juan","city":"San Juan","country":"Argentina","geoPoint":{"lat":-31.53726,"lon":-68.52568}},{"facility":"9 of July Sanatorium","city":"San Miguel de Tucumán","country":"Argentina","geoPoint":{"lat":-26.81601,"lon":-65.21051}},{"facility":"Rosario's Oncology Institute and Medical Specialities (IOR)","city":"Santa Fe","country":"Argentina","geoPoint":{"lat":-31.64881,"lon":-60.70868}},{"facility":"Adelaide Oncology & Haematology","city":"Adelaide","country":"Australia","geoPoint":{"lat":-34.92866,"lon":138.59863}},{"facility":"St Vincent's Hospital (Melbourne) Ltd","city":"Fitzroy","country":"Australia","geoPoint":{"lat":-37.79839,"lon":144.97833}},{"facility":"Peninsula & South Eastern Hematology and Oncology Group (PSEHOG)","city":"Frankston","country":"Australia","geoPoint":{"lat":-38.14458,"lon":145.12291}},{"facility":"Hollywood Private Hospital, Breast Cancer Research Centre","city":"Nedlands","country":"Australia","geoPoint":{"lat":-31.98184,"lon":115.8073}},{"facility":"Mater Hospital Brisbane, Mater Cancer Care Centre","city":"South Brisbane","country":"Australia","geoPoint":{"lat":-27.48034,"lon":153.02049}},{"facility":"Icon Cancer Centre- Southport","city":"Southport","country":"Australia","geoPoint":{"lat":-27.96724,"lon":153.39796}},{"facility":"Sydney Adventist Hospital","city":"Wahroonga","country":"Australia","geoPoint":{"lat":-33.71816,"lon":151.11561}},{"facility":"The Queen Elizabeth Hospital","city":"Woodville","country":"Australia","geoPoint":{"lat":-34.877,"lon":138.54291}},{"facility":"University Hospital Graz, Department of Gynecology and Obstetrics","city":"Graz","country":"Austria","geoPoint":{"lat":47.06733,"lon":15.44197}},{"facility":"University Hospital Innsbruck - Tyrolean Hospital, Department of Gynaecology and Obstetrics","city":"Innsbruck","country":"Austria","geoPoint":{"lat":47.26266,"lon":11.39454}},{"facility":"Order Hospital Linz Ltd. - Hospital of Sisters of Mercy, Department of Internal Medicine I","city":"Linz","country":"Austria","geoPoint":{"lat":48.30639,"lon":14.28611}},{"facility":"Salzburg Regional Hospital, Department of Internal Medicine III","city":"Salzburg","country":"Austria","geoPoint":{"lat":47.79941,"lon":13.04399}},{"facility":"University Hospital St. Poelten, Department of Internal Medicine I","city":"Sankt Pölten","country":"Austria","geoPoint":{"lat":48.20762,"lon":15.63725}},{"facility":"Hospital Hietzing, Department of Gynecology","city":"Vienna","country":"Austria","geoPoint":{"lat":48.20849,"lon":16.37208}},{"facility":"Medical University Vienna, Department of Gynecology and Obstetrics","city":"Vienna","country":"Austria","geoPoint":{"lat":48.20849,"lon":16.37208}},{"facility":"Hospital Wels-Grieskirchen, Internal Medicine Department IV","city":"Wels","zip":"4600","country":"Austria","geoPoint":{"lat":48.16667,"lon":14.03333}},{"facility":"Saint Luc University Hospital","city":"Brussels","country":"Belgium","geoPoint":{"lat":50.85045,"lon":4.34878}},{"facility":"Charleroi Grand Hospital (GHDC)","city":"Charleroi","country":"Belgium","geoPoint":{"lat":50.41136,"lon":4.44448}},{"facility":"University Hospital Antwerp (UZA)","city":"Edegem","country":"Belgium","geoPoint":{"lat":51.15662,"lon":4.44504}},{"facility":"AZ Groeninge","city":"Kortrijk","country":"Belgium","geoPoint":{"lat":50.82803,"lon":3.26487}},{"facility":"University Hospitals Leuven, Campus Gasthuisberg","city":"Leuven","country":"Belgium","geoPoint":{"lat":50.87959,"lon":4.70093}},{"facility":"Citadelle Regional Hospital Center","city":"Liège","country":"Belgium","geoPoint":{"lat":50.63373,"lon":5.56749}},{"facility":"VITAZ","city":"Sint-Niklaas","country":"Belgium","geoPoint":{"lat":51.16509,"lon":4.1437}},{"facility":"Centre Hospitalier Peltzer-la-Tourelle","city":"Verviers","country":"Belgium","geoPoint":{"lat":50.58907,"lon":5.86241}},{"facility":"UCL Mont-Godinne University Hospitals","city":"Yvoir","country":"Belgium","geoPoint":{"lat":50.3279,"lon":4.88059}},{"facility":"Oncology Treatment Center","city":"Belém","state":"Pará","country":"Brazil","geoPoint":{"lat":-1.45583,"lon":-48.50444}},{"facility":"Catarina Clinical Research","city":"Itajaí","state":"Santa Catarina","zip":"88301","country":"Brazil","geoPoint":{"lat":-26.90778,"lon":-48.66194}},{"facility":"Pronutrir","city":"Fortaleza","country":"Brazil","geoPoint":{"lat":-3.71722,"lon":-38.54306}},{"facility":"ONCOSITE - Clinical Research Center in Oncology","city":"Ijuí","country":"Brazil","geoPoint":{"lat":-28.38778,"lon":-53.91472}},{"facility":"Juiz de Fora Eurolatino Research Center","city":"Minas Gerais","country":"Brazil","geoPoint":{"lat":-8.96667,"lon":-72.78333}},{"facility":"Bahia Oncology Center","city":"Salvador","country":"Brazil","geoPoint":{"lat":-12.97563,"lon":-38.49096}},{"facility":"Portuguese Sao Paulo Charity / Sao Jose Hospital","city":"São Paulo","zip":"01323","country":"Brazil","geoPoint":{"lat":-23.5475,"lon":-46.63611}},{"facility":"D'OR Institute","city":"São Paulo","country":"Brazil","geoPoint":{"lat":-23.5475,"lon":-46.63611}},{"facility":"Hospital A.C.Camargo","city":"São Paulo","country":"Brazil","geoPoint":{"lat":-23.5475,"lon":-46.63611}},{"facility":"Multiprofile Hospital for Active Treatment - Uni Hospital, Panagyurishte","city":"Panagyurishte","country":"Bulgaria","geoPoint":{"lat":42.49518,"lon":24.19021}},{"facility":"MHAT for Women's Health \"Nadezhda\"","city":"Sofia","country":"Bulgaria","geoPoint":{"lat":42.69751,"lon":23.32415}},{"facility":"Multiprofile Hospital for Active Treatment \"Serdika\", Sofia","city":"Sofia","country":"Bulgaria","geoPoint":{"lat":42.69751,"lon":23.32415}},{"facility":"Specialized Hospital for Active Treatment in Oncology, Clinic of Medicial Oncology (Chemotherapy)","city":"Sofia","country":"Bulgaria","geoPoint":{"lat":42.69751,"lon":23.32415}},{"facility":"University Multiprofile Hospital for Active Treatment \"Sveta Marina\"","city":"Varna","country":"Bulgaria","geoPoint":{"lat":43.21912,"lon":27.91024}},{"facility":"BC Cancer - Vancouver, Medical Oncology","city":"Vancouver","state":"British Columbia","country":"Canada","geoPoint":{"lat":49.24966,"lon":-123.11934}},{"facility":"Walker Family Cancer Center","city":"St. Catharines","state":"Ontario","zip":"L2S 0A9","country":"Canada","geoPoint":{"lat":43.17126,"lon":-79.24267}},{"facility":"CIUSSS du Saguenay Lac St-Jean","city":"Chicoutimi","state":"Quebec","country":"Canada","geoPoint":{"lat":48.41963,"lon":-71.06369}},{"facility":"Hospital Notre-Dame","city":"Montreal","state":"Quebec","country":"Canada","geoPoint":{"lat":45.50884,"lon":-73.58781}},{"facility":"Maisonneuve-Rosemont Hospital","city":"Montreal","state":"Quebec","country":"Canada","geoPoint":{"lat":45.50884,"lon":-73.58781}},{"facility":"University Hospital Olomouc, Clinic of Oncology","city":"Olomouc","country":"Czechia","geoPoint":{"lat":49.59552,"lon":17.25175}},{"facility":"Thomayer University Hospital, Clinic of Oncology","city":"Prague","country":"Czechia","geoPoint":{"lat":50.08804,"lon":14.42076}},{"facility":"University Hospital Bulovka, Institute of Radiation Oncology","city":"Prague","country":"Czechia","geoPoint":{"lat":50.08804,"lon":14.42076}},{"facility":"University Hospital Motol, Clinic of Oncology","city":"Prague","country":"Czechia","geoPoint":{"lat":50.08804,"lon":14.42076}},{"facility":"Bergonie Institute","city":"Bordeaux","country":"France","geoPoint":{"lat":44.84124,"lon":-0.58046}},{"facility":"Francois Baclesse Center","city":"Caen","zip":"14076","country":"France","geoPoint":{"lat":49.18585,"lon":-0.35912}},{"facility":"La Roche-sur-Yon Hospital","city":"La Roche-sur-Yon","zip":"85925","country":"France","geoPoint":{"lat":46.66974,"lon":-1.42757}},{"facility":"CHU La Timone - La Timone Children's Hospital","city":"Marseille","country":"France","geoPoint":{"lat":43.29695,"lon":5.38107}},{"facility":"University Hospital Center of Poitiers","city":"Poitiers","country":"France","geoPoint":{"lat":46.58261,"lon":0.34348}},{"facility":"Saint Anne Clinic","city":"Strasbourg","country":"France","geoPoint":{"lat":48.58392,"lon":7.74553}},{"facility":"Gustave Roussy","city":"Villejuif","country":"France","geoPoint":{"lat":48.7939,"lon":2.35992}},{"facility":"Hospital Bayreuth","city":"Bayreuth","country":"Germany","geoPoint":{"lat":49.94782,"lon":11.57893}},{"facility":"Vivantes Hospital Am Urban","city":"Berlin","country":"Germany","geoPoint":{"lat":52.52437,"lon":13.41053}},{"facility":"Hospital Suedstadt Rostock","city":"Dorf Mecklenburg","country":"Germany","geoPoint":{"lat":53.84301,"lon":11.46321}},{"facility":"Private Practice with Focus on Oncology","city":"Lübeck","country":"Germany","geoPoint":{"lat":53.86893,"lon":10.68729}},{"facility":"University Hospital Johannes Gutenberg - University of Mainz","city":"Mainz","country":"Germany","geoPoint":{"lat":49.98185,"lon":8.28008}},{"facility":"University Hospital Muenster","city":"Münster","country":"Germany","geoPoint":{"lat":51.96236,"lon":7.62571}},{"facility":"Caritas Klinikum","city":"Saarbrücken","country":"Germany","geoPoint":{"lat":49.23262,"lon":7.00982}},{"facility":"Helios Clinic Wuppertal","city":"Wuppertal","country":"Germany","geoPoint":{"lat":51.25627,"lon":7.14816}},{"facility":"Metropolitan General Hospital","city":"Athens","zip":"15562","country":"Greece","geoPoint":{"lat":37.98376,"lon":23.72784}},{"facility":"Alexandra General Hospital","city":"Athens","country":"Greece","geoPoint":{"lat":37.98376,"lon":23.72784}},{"facility":"University General Hospital of Ioannina","city":"Ioannina","country":"Greece","geoPoint":{"lat":39.66341,"lon":20.85187}},{"facility":"University General Hospital of Larissa","city":"Larissa","zip":"41110","country":"Greece","geoPoint":{"lat":39.62847,"lon":22.42112}},{"facility":"IASO Thessaly SA","city":"Larissa","country":"Greece","geoPoint":{"lat":39.62847,"lon":22.42112}},{"facility":"Metropolitan Hospital","city":"Piraeus","zip":"18547","country":"Greece","geoPoint":{"lat":37.94203,"lon":23.64619}},{"facility":"Bioclinic Thessalonikis S.A.","city":"Thessaloniki","zip":"546 22","country":"Greece","geoPoint":{"lat":40.64072,"lon":22.93493}},{"facility":"European Interbalkan Medical Center of Thessaloniki","city":"Thessaloniki","zip":"57001","country":"Greece","geoPoint":{"lat":40.64072,"lon":22.93493}},{"facility":"EUROMEDICA General Clinic of Thessaloniki","city":"Thessaloniki","country":"Greece","geoPoint":{"lat":40.64072,"lon":22.93493}},{"facility":"Theageneio Anticancer Hospital of Thessaloniki","city":"Thessaloniki","country":"Greece","geoPoint":{"lat":40.64072,"lon":22.93493}},{"facility":"University of Debrecen Clinical Center, Institute of Oncology","city":"Debrecen","country":"Hungary","geoPoint":{"lat":47.53167,"lon":21.62444}},{"facility":"Bacs-Kiskun County Hospital, Center for Oncoradiology","city":"Kecskemét","country":"Hungary","geoPoint":{"lat":46.90618,"lon":19.69128}},{"facility":"Szabolcs-Szatmar-Bereg County Hospitals and University Teaching Hospital, Department of Oncology","city":"Nyíregyháza","country":"Hungary","geoPoint":{"lat":47.95539,"lon":21.71671}},{"facility":"Shri Ram Cancer Centre, Mahatma Gandhi Medical College & Hospital","city":"Jaipur","state":"Rajasthan","zip":"302022","country":"India","geoPoint":{"lat":26.91962,"lon":75.78781}},{"facility":"HCG Cancer Centre","city":"Bangalore","country":"India","geoPoint":{"lat":12.97194,"lon":77.59369}},{"facility":"Postgraduate Institute of Medical Education and Research (PGIMER)","city":"Chandigarh","country":"India","geoPoint":{"lat":30.73629,"lon":76.7884}},{"facility":"Tata Medical Center","city":"Kolkata","country":"India","geoPoint":{"lat":22.56263,"lon":88.36304}},{"facility":"Tata Memorial Hospital","city":"Navi Mumbai","country":"India","geoPoint":{"lat":19.03681,"lon":73.01582}},{"facility":"Christian Medical College, Department of Medical Oncology","city":"Vellore","country":"India","geoPoint":{"lat":12.9184,"lon":79.13255}},{"facility":"European Institute of Oncology (IEO), IRCCS","city":"Milan","country":"Italy","geoPoint":{"lat":45.46427,"lon":9.18951}},{"facility":"University Polyclinic Hospital of Modena","city":"Modena","country":"Italy","geoPoint":{"lat":44.64783,"lon":10.92539}},{"facility":"Local Healthcare Company of Monza (ASST Monza)","city":"Monza","country":"Italy","geoPoint":{"lat":45.58005,"lon":9.27246}},{"facility":"University Hospital of Parma","city":"Parma","country":"Italy","geoPoint":{"lat":44.79935,"lon":10.32618}},{"facility":"New Hospital of Prato (NOP)","city":"Prato","country":"Italy","geoPoint":{"lat":43.8805,"lon":11.09699}},{"facility":"University Hospital Campus Bio-Medico","city":"Rome","country":"Italy","geoPoint":{"lat":41.89193,"lon":12.51133}},{"facility":"University Polyclinic Foundation \"Agostino Gemelli\" - IRCCS","city":"Rome","country":"Italy","geoPoint":{"lat":41.89193,"lon":12.51133}},{"facility":"Santa Maria della Misericordia University Hospital of Udine","city":"Udine","country":"Italy","geoPoint":{"lat":46.0693,"lon":13.23715}},{"facility":"Clinical Research Center Chapultepec Mexico City","city":"Mexico City","country":"Mexico","geoPoint":{"lat":19.42847,"lon":-99.12766}},{"facility":"CRYPTEX","city":"Mexico City","country":"Mexico","geoPoint":{"lat":19.42847,"lon":-99.12766}},{"facility":"ProcliniQ Clinical Research","city":"Mexico City","country":"Mexico","geoPoint":{"lat":19.42847,"lon":-99.12766}},{"facility":"Filios High Medicine","city":"Monterrey","zip":"64460","country":"Mexico","geoPoint":{"lat":25.68435,"lon":-100.31721}},{"facility":"Administrative Society of Health Services, SC","city":"Morelia","country":"Mexico","geoPoint":{"lat":19.70078,"lon":-101.18443}},{"facility":"Avix Clinical Research","city":"Nuevo León","country":"Mexico","geoPoint":{"lat":32.4095,"lon":-115.18896}},{"facility":"Zambrano Hellion Medical Center","city":"Nuevo León","country":"Mexico","geoPoint":{"lat":32.4095,"lon":-115.18896}},{"facility":"Inbiomedyc","city":"Querétaro","country":"Mexico","geoPoint":{"lat":15.83752,"lon":-92.75774}},{"facility":"ONCOR Life Medical Center","city":"Saltillo","country":"Mexico","geoPoint":{"lat":25.42595,"lon":-100.97963}},{"facility":"Prof. Franciszek Lukaszczyk Oncology Center in Bydgoszcz, Chemotherapy Outpatient Clinic","city":"Bydgoszcz","country":"Poland","geoPoint":{"lat":53.1235,"lon":18.00762}},{"facility":"Medical Clinic \"Komed\"","city":"Konin","country":"Poland","geoPoint":{"lat":52.22338,"lon":18.25121}},{"facility":"Maria Sklodowska-Curie Institute of Oncology, Branch in Krakow","city":"Krakow","country":"Poland","geoPoint":{"lat":50.06143,"lon":19.93658}},{"facility":"Polish Mother's Memorial Hospital-Research Institute","city":"Lodz","country":"Poland","geoPoint":{"lat":51.77058,"lon":19.47395}},{"facility":"Independent Public Healthcare Facility Prof. Tadeusz Koszarowski Opole Oncology Center in Opole, Clinical Oncology Department and Day Hospitalization Unit","city":"Opole","country":"Poland","geoPoint":{"lat":50.67119,"lon":17.92604}},{"facility":"St. John Paul 2nd Mazovian Provincial Hospital in Siedlce Limited Liability Company, Siedlce Oncology Centre","city":"Siedlce","country":"Poland","geoPoint":{"lat":52.16772,"lon":22.29006}},{"facility":"West Pomeranian Oncology Center","city":"Szczecin","country":"Poland","geoPoint":{"lat":53.42894,"lon":14.55302}},{"facility":"LUX MED Oncology LLC, Szamocka Hospital, Department of Clinical Oncology/Chemotherapy","city":"Warsaw","country":"Poland","geoPoint":{"lat":52.22977,"lon":21.01178}},{"facility":"Maria Sklodowska-Curie - National Research Institute of Oncology","city":"Warsaw","country":"Poland","geoPoint":{"lat":52.22977,"lon":21.01178}},{"facility":"Provincial Specialist Hospital in Wroclaw, Department of Chemotherapy","city":"Wroclaw","country":"Poland","geoPoint":{"lat":51.10286,"lon":17.03006}},{"facility":"S.C. Oncopremium-Team SRL","city":"Baia Mare","country":"Romania","geoPoint":{"lat":47.65729,"lon":23.56808}},{"facility":"Prof. Dr. Alexandru Trestioreanu Institute of Oncology","city":"Bucharest","country":"Romania","geoPoint":{"lat":44.43225,"lon":26.10626}},{"facility":"\"Prof. Dr. Ion Chiricuta\" Institute of Oncology, Radiotherapy Department I","city":"Cluj-Napoca","zip":"400015","country":"Romania","geoPoint":{"lat":46.76667,"lon":23.6}},{"facility":"Prof. Dr. Ion Chiricuta Institute of Oncology","city":"Cluj-Napoca","country":"Romania","geoPoint":{"lat":46.76667,"lon":23.6}},{"facility":"Onco Clinic Consult S.A.","city":"Craiova","country":"Romania","geoPoint":{"lat":44.31667,"lon":23.8}},{"facility":"Oncology Center \"Sf. Nectarie\"","city":"Craiova","country":"Romania","geoPoint":{"lat":44.31667,"lon":23.8}},{"facility":"S.C. Radiotherapy Center Cluj SRL, Department of Medical Oncology","city":"Floreşti","zip":"407280","country":"Romania","geoPoint":{"lat":45.05,"lon":25.78333}},{"facility":"S.C. Topmed Medical Center SRL","city":"Târgu Mureş","country":"Romania","geoPoint":{"lat":46.54245,"lon":24.55747}},{"facility":"Curie Oncology","city":"Singapore","country":"Singapore","geoPoint":{"lat":1.28967,"lon":103.85007}},{"facility":"ICON SOC Farrer Park Medical Clinic","city":"Singapore","country":"Singapore","geoPoint":{"lat":1.28967,"lon":103.85007}},{"facility":"OncoCare Cancer Centre","city":"Singapore","country":"Singapore","geoPoint":{"lat":1.28967,"lon":103.85007}},{"facility":"Raffles Hospital","city":"Singapore","country":"Singapore","geoPoint":{"lat":1.28967,"lon":103.85007}},{"facility":"Tan Tock Seng Hospital","city":"Singapore","country":"Singapore","geoPoint":{"lat":1.28967,"lon":103.85007}},{"facility":"Asan Medical Center","city":"Seoul","country":"South Korea","geoPoint":{"lat":37.566,"lon":126.9784}},{"facility":"Gangnam Severance Hospital","city":"Soeul","country":"South Korea","geoPoint":{"lat":36.9168,"lon":126.7319}},{"facility":"Korea University Anam Hospital","city":"Soeul","country":"South Korea","geoPoint":{"lat":36.9168,"lon":126.7319}},{"facility":"Samsung Medical Center","city":"Soeul","country":"South Korea","geoPoint":{"lat":36.9168,"lon":126.7319}},{"facility":"Severance Hospital, Yonsei University Health System","city":"Soeul","country":"South Korea","geoPoint":{"lat":36.9168,"lon":126.7319}},{"facility":"Ulsan University Hospital","city":"Ulsan","country":"South Korea","geoPoint":{"lat":35.53722,"lon":129.31667}},{"facility":"University Hospital Ramon y Cajal","city":"Madrid","state":"Madrid","zip":"28034","country":"Spain","geoPoint":{"lat":40.4165,"lon":-3.70256}},{"facility":"Infanta Cristina Hospital","city":"Badajoz","country":"Spain","geoPoint":{"lat":38.87789,"lon":-6.97061}},{"facility":"Catalan Institute of Oncology, Hospital Duran i Reynals","city":"Barcelona","country":"Spain","geoPoint":{"lat":41.38879,"lon":2.15899}},{"facility":"Caceres Hospital Complex - San Pedro de Alcantara General Hospital","city":"Cáceres","country":"Spain","geoPoint":{"lat":39.47649,"lon":-6.37224}},{"facility":"Hospital Ruber Internacional","city":"Madrid","country":"Spain","geoPoint":{"lat":40.4165,"lon":-3.70256}},{"facility":"University Hospital Foundation Jimenez Diaz","city":"Madrid","country":"Spain","geoPoint":{"lat":40.4165,"lon":-3.70256}},{"facility":"University Clinical Hospital Virgen de la Arrixaca, Department of Oncology","city":"Murcia","country":"Spain","geoPoint":{"lat":37.98704,"lon":-1.13004}},{"facility":"University Hospital Complex of Santiago (CHUS), Department of Oncology","city":"Santiago de Compostela","country":"Spain","geoPoint":{"lat":42.88052,"lon":-8.54569}},{"facility":"Changhua Christian Hospital","city":"Changhua","zip":"500209","country":"Taiwan","geoPoint":{"lat":24.0692,"lon":120.5512}},{"facility":"Kaohsiung Medical University Chung-Ho Memorial Hospital","city":"Kaohsiung City","country":"Taiwan","geoPoint":{"lat":22.61626,"lon":120.31333}},{"facility":"Taipei Medical University - Shuang Ho Hospital","city":"New Taipei City","country":"Taiwan","geoPoint":{"lat":25.06199,"lon":121.45703}},{"facility":"China Medical University Hospital","city":"Taichung","country":"Taiwan","geoPoint":{"lat":24.1469,"lon":120.6839}},{"facility":"National Cheng Kung University Hospital","city":"Tainan","country":"Taiwan","geoPoint":{"lat":22.99083,"lon":120.21333}},{"facility":"National Taiwan University Hospital","city":"Taipei","country":"Taiwan","geoPoint":{"lat":25.05306,"lon":121.52639}},{"facility":"Taipei Veterans General Hospital","city":"Taipei","country":"Taiwan","geoPoint":{"lat":25.05306,"lon":121.52639}},{"facility":"National Taiwan University Hospital - Yunlin Branch (Huwei District)","city":"Yuanlin","zip":"632","country":"Taiwan","geoPoint":{"lat":23.95671,"lon":120.57608}},{"facility":"Royal United Hospital, Department of Oncology/Hematology","city":"Bath","country":"United Kingdom","geoPoint":{"lat":51.3751,"lon":-2.36172}},{"facility":"Velindre Cancer Centre","city":"Cardiff","country":"United Kingdom","geoPoint":{"lat":51.48,"lon":-3.18}},{"facility":"Guy's Hospital","city":"London","country":"United Kingdom","geoPoint":{"lat":51.50853,"lon":-0.12574}},{"facility":"Royal Marsden Hospital - London, Department of Medical Oncology","city":"London","country":"United Kingdom","geoPoint":{"lat":51.50853,"lon":-0.12574}},{"facility":"The Christie NHS Foundation Trust","city":"Manchester","country":"United Kingdom","geoPoint":{"lat":53.48095,"lon":-2.23743}},{"facility":"Nottingham City Hospital","city":"Nottingham","country":"United Kingdom","geoPoint":{"lat":52.9536,"lon":-1.15047}},{"facility":"Royal Marsden Hospital - Sutton","city":"Sutton","zip":"SM2 5PT","country":"United Kingdom","geoPoint":{"lat":51.35,"lon":-0.2}}]}},"derivedSection":{"miscInfoModule":{"versionHolder":"2026-02-25"},"conditionBrowseModule":{"meshes":[{"id":"D001943","term":"Breast Neoplasms"},{"id":"D009362","term":"Neoplasm Metastasis"}],"ancestors":[{"id":"D009371","term":"Neoplasms by Site"},{"id":"D009369","term":"Neoplasms"},{"id":"D001941","term":"Breast Diseases"},{"id":"D012871","term":"Skin Diseases"},{"id":"D017437","term":"Skin and Connective Tissue Diseases"},{"id":"D009385","term":"Neoplastic Processes"},{"id":"D010335","term":"Pathologic Processes"},{"id":"D013568","term":"Pathological Conditions, Signs and Symptoms"}]},"interventionBrowseModule":{"meshes":[{"id":"C549060","term":"gedatolisib"},{"id":"C500026","term":"palbociclib"},{"id":"D000077267","term":"Fulvestrant"},{"id":"C585539","term":"Alpelisib"}],"ancestors":[{"id":"D004958","term":"Estradiol"},{"id":"D004963","term":"Estrenes"},{"id":"D004962","term":"Estranes"},{"id":"D013256","term":"Steroids"},{"id":"D000072473","term":"Fused-Ring Compounds"},{"id":"D011083","term":"Polycyclic Compounds"},{"id":"D045166","term":"Estradiol Congeners"},{"id":"D012739","term":"Gonadal Steroid Hormones"},{"id":"D042341","term":"Gonadal Hormones"},{"id":"D006728","term":"Hormones"},{"id":"D006730","term":"Hormones, Hormone Substitutes, and Hormone Antagonists"}]}},"hasResults":false}
]}