{"totalCount":1,"studies":[
{"protocolSection":{"identificationModule":{"nctId":"NCT06987513","orgStudyIdInfo":{"id":"ALT-801-231"},"organization":{"fullName":"Altimmune, Inc.","class":"INDUSTRY"},"briefTitle":"RECLAIM STUDY: A Phase 2 Evaluating the Efficacy and Safety of Pemvidutide in the Treatment of Alcohol Use Disorder (AUD) in Subjects With Obesity or Overweight","officialTitle":"RECLAIM STUDY: A Phase 2, Multicenter, Randomized, Double-blind, Placebo-controlled Study Evaluating the Efficacy and Safety of Pemvidutide in the Treatment of Alcohol Use Disorder (AUD) in Subjects With Obesity or Overweight"},"statusModule":{"statusVerifiedDate":"2025-11","overallStatus":"ACTIVE_NOT_RECRUITING","startDateStruct":{"date":"2025-05-15","type":"ACTUAL"},"primaryCompletionDateStruct":{"date":"2026-05","type":"ESTIMATED"},"completionDateStruct":{"date":"2026-06","type":"ESTIMATED"},"studyFirstSubmitDate":"2025-05-16","studyFirstSubmitQcDate":"2025-05-16","studyFirstPostDateStruct":{"date":"2025-05-23","type":"ACTUAL"},"lastUpdateSubmitDate":"2025-11-18","lastUpdatePostDateStruct":{"date":"2025-11-19","type":"ACTUAL"}},"sponsorCollaboratorsModule":{"responsibleParty":{"type":"SPONSOR"},"leadSponsor":{"name":"Altimmune, Inc.","class":"INDUSTRY"}},"oversightModule":{"oversightHasDmc":false,"isFdaRegulatedDrug":true,"isFdaRegulatedDevice":false},"descriptionModule":{"briefSummary":"This is a Phase 2, multicenter, randomized, double-blind, placebo-controlled study to evaluate the efficacy and safety of pemvidutide in the treatment of AUD in subjects with obesity or overweight. After signing the informed consent form, subjects will be screened and if eligible randomized 1:1 to 1 of the following 2 treatment arms:\n\n* Pemvidutide: 2.4 mg SC once weekly\n* Placebo: Placebo SC once weekly"},"conditionsModule":{"conditions":["Alcohol Use Disorder (AUD)"],"keywords":["Pemvidutide","GLP-1 receptor agonist","Alcohol Use Disorder","Obesity","Overweight","AUD treatment","Phase 2"]},"designModule":{"studyType":"INTERVENTIONAL","phases":["PHASE2"],"designInfo":{"allocation":"RANDOMIZED","interventionModel":"PARALLEL","primaryPurpose":"TREATMENT","maskingInfo":{"masking":"QUADRUPLE","whoMasked":["PARTICIPANT","CARE_PROVIDER","INVESTIGATOR","OUTCOMES_ASSESSOR"]}},"enrollmentInfo":{"count":100,"type":"ACTUAL"}},"armsInterventionsModule":{"armGroups":[{"label":"Pemvidutide 2.4mg (Active)","type":"EXPERIMENTAL","description":"Subcutaneous injection","interventionNames":["Drug: Pemvidutide"]},{"label":"Placebo","type":"PLACEBO_COMPARATOR","description":"Subcutaneous injection","interventionNames":["Other: Placebo"]}],"interventions":[{"type":"DRUG","name":"Pemvidutide","description":"Pemvidutide 2.4mg","armGroupLabels":["Pemvidutide 2.4mg (Active)"]},{"type":"OTHER","name":"Placebo","description":"Subcutaneous injection","armGroupLabels":["Placebo"]}]},"outcomesModule":{"primaryOutcomes":[{"measure":"Change from baseline in the average number of heavy drinking days per week, with a heavy drinking day defined as 5 or more drinks in the day for men and 4 or more drinks in the day for women, using the TLFB method","timeFrame":"Week 24"}],"secondaryOutcomes":[{"measure":"Proportion of subjects achieving a 2-level reduction in WHO risk drinking level using the TLFB method for the 4-week period comprising Weeks 21 through 24.","timeFrame":"Week 24"},{"measure":"Absolute change from baseline in average phosphatidylethanol (PEth) levels at Week 24","timeFrame":"24 Weeks"}]},"eligibilityModule":{"eligibilityCriteria":"Inclusion Criteria:\n\n1. Written informed consent signed prior to performance of any study procedures\n2. Male or female ages 18 to 75 years, inclusive\n3. Diagnosis of current AUD of moderate or greater severity according to DSM-5 criteria\n4. Reported drinking at least 28 drinks per week if male or 21 drinks per week if female in the 28 days prior to signing the informed consent. This should include at least 3 heavy drinking days per week (defined as ≥ 5 drinks per day for men and ≥ 4 drinks per day for women) Note: Baseline heavy drinking days will be determined by the TFLB method (28-day recall) drinking pattern collected at the initial screening visit\n5. Overweight or obesity, defined as BMI ≥ 25 kg/m2\n\nExclusion Criteria:\n\n1. Presence of clinically significant alcohol withdrawal symptoms, as defined as CIWA-Ar score ≥ 10 at screening and/or prior to randomization\n2. History of hospitalization for alcohol intoxication or alcohol withdrawal\n3. History of alcohol-related disorders including seizures related to alcohol, MalloryWeiss Syndrome, and alcoholic ketoacidosis\n4. History and/or current DSM-5 diagnosis of schizophrenia, bipolar disorder, psychotic disorder or other severe psychiatric disorders, unless documented as well-controlled by the Investigator and cleared by the Medical Monitor\n5. C-SSRS score indicative of active suicidal thoughts (answering \"yes\" to any of Questions 2 through 5 on the C-SSRS) in the past 6 months","healthyVolunteers":false,"sex":"ALL","minimumAge":"18 Years","maximumAge":"75 Years","stdAges":["ADULT","OLDER_ADULT"]},"contactsLocationsModule":{"locations":[{"facility":"Altimmune Clinical Study Site","city":"Los Angeles","state":"California","zip":"90038","country":"United States","geoPoint":{"lat":34.05223,"lon":-118.24368}},{"facility":"Altimmune Clinical Study Site","city":"Aurora","state":"Colorado","zip":"80045","country":"United States","geoPoint":{"lat":39.72943,"lon":-104.83192}},{"facility":"Altimmune Clinical Study Site","city":"New Haven","state":"Connecticut","zip":"06511","country":"United States","geoPoint":{"lat":41.30815,"lon":-72.92816}},{"facility":"Altimmune Clinical Study Site","city":"Fort Myers","state":"Florida","zip":"33912","country":"United States","geoPoint":{"lat":26.62168,"lon":-81.84059}},{"facility":"Altimmune Clinical Study Site","city":"University Park","state":"Florida","zip":"34201","country":"United States","geoPoint":{"lat":25.74649,"lon":-80.36755}},{"facility":"Altimmune Clinical Study Site","city":"North Canton","state":"Ohio","zip":"44720","country":"United States","geoPoint":{"lat":40.87589,"lon":-81.40234}},{"facility":"Altimmune Clinical Study Site","city":"Tulsa","state":"Oklahoma","zip":"74136","country":"United States","geoPoint":{"lat":36.15398,"lon":-95.99277}},{"facility":"Altimmune Clinical Study Site","city":"Philadelphia","state":"Pennsylvania","zip":"19104","country":"United States","geoPoint":{"lat":39.95238,"lon":-75.16362}},{"facility":"Altimmune Clinical Study Site","city":"Providence","state":"Rhode Island","zip":"02923","country":"United States","geoPoint":{"lat":41.82399,"lon":-71.41283}},{"facility":"Altimmune Clinical Study Site","city":"Charleston","state":"South Carolina","zip":"29425","country":"United States","geoPoint":{"lat":32.77632,"lon":-79.93275}},{"facility":"Altimmune Clinical Study Site","city":"Charlottesville","state":"Virginia","zip":"22903","country":"United States","geoPoint":{"lat":38.02931,"lon":-78.47668}},{"facility":"Altimmune Clinical Study Site","city":"Richmond","state":"Virginia","zip":"23298","country":"United States","geoPoint":{"lat":37.55376,"lon":-77.46026}}]},"ipdSharingStatementModule":{"ipdSharing":"YES","description":"It is anticipated that the results of this study will be presented at scientific meetings and/or published in a peer reviewed scientific or medical journal. A Publications Committee, comprised of the Investigators participating in the study and representatives from the Sponsor, as appropriate, will be formed to oversee the publication of the study results, which will reflect the experience of all participating study centers. Subsequently, individual Investigators may publish results from the study in compliance with their agreement with the Sponsor."}},"derivedSection":{"miscInfoModule":{"versionHolder":"2026-02-25"},"conditionBrowseModule":{"meshes":[{"id":"D000437","term":"Alcoholism"},{"id":"D009765","term":"Obesity"},{"id":"D050177","term":"Overweight"}],"ancestors":[{"id":"D019973","term":"Alcohol-Related Disorders"},{"id":"D019966","term":"Substance-Related Disorders"},{"id":"D064419","term":"Chemically-Induced Disorders"},{"id":"D001523","term":"Mental Disorders"},{"id":"D044343","term":"Overnutrition"},{"id":"D009748","term":"Nutrition Disorders"},{"id":"D009750","term":"Nutritional and Metabolic Diseases"},{"id":"D001835","term":"Body Weight"},{"id":"D012816","term":"Signs and Symptoms"},{"id":"D013568","term":"Pathological Conditions, Signs and Symptoms"}]}},"hasResults":false}
]}