{"totalCount":8,"studies":[
{"protocolSection":{"identificationModule":{"nctId":"NCT06980649","orgStudyIdInfo":{"id":"BHV1300-202"},"organization":{"fullName":"Biohaven Pharmaceuticals, Inc.","class":"INDUSTRY"},"briefTitle":"Study of BHV-1300 in Graves' Disease","officialTitle":"An Open-Label Biomarker Study of BHV-1300 in Graves' Disease"},"statusModule":{"statusVerifiedDate":"2025-11","overallStatus":"RECRUITING","expandedAccessInfo":{"hasExpandedAccess":false},"startDateStruct":{"date":"2025-08-21","type":"ACTUAL"},"primaryCompletionDateStruct":{"date":"2026-03","type":"ESTIMATED"},"completionDateStruct":{"date":"2026-03","type":"ESTIMATED"},"studyFirstSubmitDate":"2025-05-12","studyFirstSubmitQcDate":"2025-05-12","studyFirstPostDateStruct":{"date":"2025-05-20","type":"ACTUAL"},"lastUpdateSubmitDate":"2025-11-21","lastUpdatePostDateStruct":{"date":"2025-11-24","type":"ACTUAL"}},"sponsorCollaboratorsModule":{"responsibleParty":{"type":"SPONSOR"},"leadSponsor":{"name":"Biohaven Therapeutics Ltd.","class":"INDUSTRY"}},"oversightModule":{"isFdaRegulatedDrug":true,"isFdaRegulatedDevice":false,"isUsExport":false},"descriptionModule":{"briefSummary":"The purpose of this study is to determine if BHV-1300 is a safe treatment in participants with Graves' Disease and to explore its effect on disease-specific biomarkers."},"conditionsModule":{"conditions":["Graves Disease"],"keywords":["Autoimmune thyroid disease","hyperthyroidism","anti thyroid drug","thyroid disease","autoimmune diseases","endocrine system diseases"]},"designModule":{"studyType":"INTERVENTIONAL","phases":["PHASE1"],"designInfo":{"allocation":"NA","interventionModel":"SINGLE_GROUP","primaryPurpose":"TREATMENT","maskingInfo":{"masking":"NONE"}},"enrollmentInfo":{"count":15,"type":"ESTIMATED"}},"armsInterventionsModule":{"armGroups":[{"label":"BHV-1300","type":"EXPERIMENTAL","interventionNames":["Drug: BHV-1300"]}],"interventions":[{"type":"DRUG","name":"BHV-1300","description":"BHV-1300 is delivered subcutaneously (SC)","armGroupLabels":["BHV-1300"]}]},"outcomesModule":{"primaryOutcomes":[{"measure":"Number of participants with Serious AEs (SAEs), AEs leading to discontinuation, deaths","description":"To assess the safety and tolerability of BHV-1300. This objective will be measured by assessing the number of unique subjects with SAEs, AEs leading to discontinuation or deaths that are observed during the Open-label Treatment Phase (up to 12 weeks).","timeFrame":"Baseline to Week 12"},{"measure":"Number of participants with Grade 3-4 (CTCAE/DAIDS) treatment-emergent laboratory abnormalities","description":"To assess the safety and tolerability of BHV-1300. This objective will be measured by assessing the number of unique subjects with Grade 3 or 4 treatment-emergent laboratory abnormalities.","timeFrame":"Baseline to Week 12"}]},"eligibilityModule":{"eligibilityCriteria":"Key Inclusion Criteria:\n\n1\\. Participants must have serologically confirmed Graves' Disease.\n\nKey Exclusion Criteria:\n\n1. History of hyperthyroidism not caused by Graves' Disease (e.g., toxic adenoma or toxic multinodular goiter) and/or history of thyroid storm within six weeks of the Baseline visit.\n2. History of treatment with radioactive iodine or thyroid surgery.","healthyVolunteers":false,"sex":"ALL","minimumAge":"18 Years","maximumAge":"65 Years","stdAges":["ADULT","OLDER_ADULT"]},"contactsLocationsModule":{"centralContacts":[{"name":"Chief Medical Officer","role":"CONTACT","phone":"203-404-0410","email":"clinicaltrials@biohavenpharma.com"}],"locations":[{"facility":"Site-103","status":"RECRUITING","city":"South Gate","state":"California","zip":"90280","country":"United States","geoPoint":{"lat":33.95474,"lon":-118.21202}},{"facility":"Site-100","status":"RECRUITING","city":"Miami","state":"Florida","zip":"33126","country":"United States","geoPoint":{"lat":25.77427,"lon":-80.19366}},{"facility":"Site-104","status":"RECRUITING","city":"Columbus","state":"Georgia","zip":"31904","country":"United States","geoPoint":{"lat":32.46098,"lon":-84.98771}},{"facility":"Site-106","status":"RECRUITING","city":"Houston","state":"Texas","zip":"77054","country":"United States","geoPoint":{"lat":29.76328,"lon":-95.36327}},{"facility":"Site-101","status":"RECRUITING","city":"Houston","state":"Texas","zip":"77095","country":"United States","geoPoint":{"lat":29.76328,"lon":-95.36327}},{"facility":"Site-105","status":"RECRUITING","city":"Shavano Park","state":"Texas","zip":"78231","country":"United States","geoPoint":{"lat":29.58495,"lon":-98.55252}},{"facility":"Site-004","status":"RECRUITING","city":"Fitzroy","zip":"3065","country":"Australia","geoPoint":{"lat":-37.79839,"lon":144.97833}},{"facility":"Site-001","status":"RECRUITING","city":"Kotara","zip":"2289","country":"Australia","geoPoint":{"lat":-32.94282,"lon":151.69585}},{"facility":"Site-003","status":"RECRUITING","city":"Melbourne","zip":"3128","country":"Australia","geoPoint":{"lat":-37.814,"lon":144.96332}},{"facility":"Site-008","status":"RECRUITING","city":"Parkville","zip":"3050","country":"Australia","geoPoint":{"lat":-37.78333,"lon":144.95}},{"facility":"Site-006","status":"RECRUITING","city":"St Leonards","zip":"2065","country":"Australia","geoPoint":{"lat":-33.82344,"lon":151.19836}},{"facility":"Site-002","status":"RECRUITING","city":"Torquay","zip":"3228","country":"Australia","geoPoint":{"lat":-38.33085,"lon":144.32638}}]}},"derivedSection":{"miscInfoModule":{"versionHolder":"2026-02-25"},"conditionBrowseModule":{"meshes":[{"id":"D006111","term":"Graves Disease"},{"id":"D006980","term":"Hyperthyroidism"},{"id":"D013959","term":"Thyroid Diseases"},{"id":"D001327","term":"Autoimmune Diseases"},{"id":"D004700","term":"Endocrine System Diseases"}],"ancestors":[{"id":"D005094","term":"Exophthalmos"},{"id":"D009916","term":"Orbital Diseases"},{"id":"D005128","term":"Eye Diseases"},{"id":"D006042","term":"Goiter"},{"id":"D007154","term":"Immune System Diseases"}]}},"hasResults":false},
{"protocolSection":{"identificationModule":{"nctId":"NCT06425159","orgStudyIdInfo":{"id":"BHV7000-304"},"secondaryIdInfos":[{"id":"2023-508812-45-00","type":"OTHER","domain":"EU CTR"}],"organization":{"fullName":"Biohaven Pharmaceuticals, Inc.","class":"INDUSTRY"},"briefTitle":"A Study to Determine if BHV-7000 is Effective and Safe in Adults With Idiopathic Generalized Epilepsy With Generalized Tonic-clonic Seizures","officialTitle":"A Phase 2/3 Multicenter, Randomized, Double-blind, Placebo-controlled Study to Evaluate the Efficacy, Safety, and Tolerability of BHV-7000 as Adjunctive Therapy in Subjects With Idiopathic Generalized Epilepsy With Generalized Tonic-clonic Seizures, With Open-label Extension","acronym":"SHINE"},"statusModule":{"statusVerifiedDate":"2026-01","overallStatus":"ACTIVE_NOT_RECRUITING","expandedAccessInfo":{"hasExpandedAccess":false},"startDateStruct":{"date":"2024-06-20","type":"ACTUAL"},"primaryCompletionDateStruct":{"date":"2026-07","type":"ESTIMATED"},"completionDateStruct":{"date":"2027-07","type":"ESTIMATED"},"studyFirstSubmitDate":"2024-05-17","studyFirstSubmitQcDate":"2024-05-17","studyFirstPostDateStruct":{"date":"2024-05-22","type":"ACTUAL"},"lastUpdateSubmitDate":"2026-01-16","lastUpdatePostDateStruct":{"date":"2026-01-20","type":"ACTUAL"}},"sponsorCollaboratorsModule":{"responsibleParty":{"type":"SPONSOR"},"leadSponsor":{"name":"Biohaven Therapeutics Ltd.","class":"INDUSTRY"}},"oversightModule":{"oversightHasDmc":true,"isFdaRegulatedDrug":true,"isFdaRegulatedDevice":false},"descriptionModule":{"briefSummary":"The purpose of this study is to determine whether BHV-7000 is effective in the treatment of idiopathic generalized epilepsy with generalized tonic-clonic seizures and includes an additional open-label extension (OLE) phase."},"conditionsModule":{"conditions":["Generalized Epilepsy"],"keywords":["Idiopathic Generalized Epilepsy","Generalized","Epilepsy","tonic-clonic","generalized tonic-clonic","tonic","clonic","seizure","refractory epilepsy","generalized tonic-clonic alone","juvenile myoclonic epilepsy","juvenile absence epilepsy"]},"designModule":{"studyType":"INTERVENTIONAL","phases":["PHASE2","PHASE3"],"designInfo":{"allocation":"RANDOMIZED","interventionModel":"PARALLEL","primaryPurpose":"TREATMENT","maskingInfo":{"masking":"QUADRUPLE","whoMasked":["PARTICIPANT","CARE_PROVIDER","INVESTIGATOR","OUTCOMES_ASSESSOR"]}},"enrollmentInfo":{"count":242,"type":"ESTIMATED"}},"armsInterventionsModule":{"armGroups":[{"label":"BHV-7000 75 mg","type":"ACTIVE_COMPARATOR","interventionNames":["Drug: BHV-7000"]},{"label":"Placebo","type":"PLACEBO_COMPARATOR","interventionNames":["Drug: Placebo"]}],"interventions":[{"type":"DRUG","name":"BHV-7000","description":"BHV-7000 75mg. Participants will take blinded investigational product (IP) once daily","armGroupLabels":["BHV-7000 75 mg"]},{"type":"DRUG","name":"Placebo","description":"Matching placebo taken once daily","armGroupLabels":["Placebo"]}]},"outcomesModule":{"primaryOutcomes":[{"measure":"Time to the Second Day with a Generalized Tonic Clonic (GTC) Seizure During the 24- week Double-blind Treatment Period","description":"To compare the efficacy of BHV-7000 to placebo as adjunctive therapy for subjects with idiopathic generalized epilepsy with generalized tonic-clonic (GTC) seizures as measured by the time to the second day with a GTC seizure during the double-blind phase","timeFrame":"Baseline to Week 24 of Double-Blind Treatment Period"}],"secondaryOutcomes":[{"measure":"Percentage of Participants with freedom of GTC seizures during DBT Phase","description":"To compare the efficacy of BHV-7000 to placebo in terms of the proportion of subjects that are free of GTC seizures as measured by the proportion of subjects with GTC seizure freedom during the 24-week DBP, estimated using Kaplan- Meier methods.","timeFrame":"Baseline to Week 24 of Double-Blind Treatment Period"},{"measure":"Number of Participants With Deaths, Serious AEs (SAEs), AEs Leading to Study Drug Discontinuation, and moderate or severe AEs","description":"To assess the safety and tolerability of BHV-7000 as measured by the number of unique subjects with deaths, SAEs, AEs leading to discontinuation, and moderate and severe AEs","timeFrame":"Baseline to Week 24 of Double-Blind Treatment Period"},{"measure":"Number of Participants With Clinically Significant Laboratory Abnormalities","description":"To assess the safety and tolerability of BHV-7000 as measured by the number of unique subjects with grade 3 and grade 4 laboratory abnormalities.","timeFrame":"Baseline to Week 24 of Double-Blind Treatment Period"}]},"eligibilityModule":{"eligibilityCriteria":"Inclusion Criteria:\n\n* Male and Female participants 18 to 75 years of age at time of consent.\n* Diagnosis of Idiopathic Generalized Epilepsy at least 6 months prior to the screening visit, defined by 2017 International League Against Epilepsy (ILAE) Classification and based on requirements of Epilepsy Adjudication criteria.\n\n  1. Subject has probable GTC seizures in the setting of IGE, meaning GTC seizures and either classic 3-4 Hz generalized spike-wave (GSW) or 4-6 Hz polyspike-wave on EEG and no focal abnormality (asymmetric spike-wave fragment is allowed) AND/OR a clear history of absence seizures or myoclonic jerks\n  2. Subjects with possible GTC seizures in the setting of IGE, meaning GTC and either Normal EEG OR Generalized epileptiform EEG abnormality with atypical spike-wave and no focal abnormality (asymmetric spike-wave fragment is allowed).\n* Subject meets the 2009 ILAE definition of drug resistant epilepsy, failure of adequate trials of two tolerated and appropriately chosen and used ASM schedules (whether as monotherapies or in combination) to achieve sustained seizure freedom.\n* Ability of subject or caregiver to keep accurate seizure diaries\n* Current treatment with at least 1 to 3 ASMs as part of no more than 4 epilepsy treatments in total (e.g., each ASM is considered 1 treatment. Other epilepsy therapies including devices and diet therapy are allowed; together these other therapies count as 1 treatment).\n* Accurate history of having at least 3 days with a GTC seizure evenly spread throughout the 16 weeks prior to the screening visit, such that a subject had at least 1 day with a GTC seizure during the first 8 weeks and at least 1 day with a GTC seizure during the second 8 weeks.\n\nExclusion Criteria:\n\n* History of status epilepticus (convulsive status epilepticus for \\> 5 minutes or focal status epilepticus with impaired conscious for \\> 10 minutes) within the last 6 months prior to screening visit that is not consistent with the subject's habitual seizure.\n* History of repetitive/cluster GTC seizures (where individual seizures cannot be counted) within the last 6 months prior to screening visit, or having repetitive/cluster GTC seizures count during the screening phase.\n* Any condition that would interfere with and/or confound the interpretation of safety or efficacy data from the study, as judged by the Investigator","healthyVolunteers":false,"sex":"ALL","minimumAge":"18 Years","maximumAge":"75 Years","stdAges":["ADULT","OLDER_ADULT"]},"contactsLocationsModule":{"locations":[{"facility":"Accel Research","city":"Birmingham","state":"Alabama","zip":"35244","country":"United States","geoPoint":{"lat":33.52066,"lon":-86.80249}},{"facility":"Barrow Neurological Institute","city":"Phoenix","state":"Arizona","zip":"85013","country":"United States","geoPoint":{"lat":33.44838,"lon":-112.07404}},{"facility":"ARENSIA Exploratory Medicine","city":"Phoenix","state":"Arizona","zip":"85015","country":"United States","geoPoint":{"lat":33.44838,"lon":-112.07404}},{"facility":"Center for Neurosciences","city":"Tucson","state":"Arizona","zip":"85718","country":"United States","geoPoint":{"lat":32.22174,"lon":-110.92648}},{"facility":"Profound Research LLC","city":"Pasadena","state":"California","zip":"91105","country":"United States","geoPoint":{"lat":34.14778,"lon":-118.14452}},{"facility":"Medstar Health Research Institute","city":"Washington D.C.","state":"District of Columbia","zip":"20010","country":"United States","geoPoint":{"lat":38.89511,"lon":-77.03637}},{"facility":"Nova Clinical Research, LLC","city":"Bradenton","state":"Florida","zip":"34209","country":"United States","geoPoint":{"lat":27.49893,"lon":-82.57482}},{"facility":"University of Florida (Jacksonville)","city":"Jacksonville","state":"Florida","zip":"32209","country":"United States","geoPoint":{"lat":30.33218,"lon":-81.65565}},{"facility":"Y&L Advance Health Care,Inc d/b/a Elite Clinical Research","city":"Miami","state":"Florida","zip":"33144","country":"United States","geoPoint":{"lat":25.77427,"lon":-80.19366}},{"facility":"Serenity Research Center","city":"Miami","state":"Florida","zip":"33176","country":"United States","geoPoint":{"lat":25.77427,"lon":-80.19366}},{"facility":"Research Institute of Orlando","city":"Orlando","state":"Florida","zip":"32806","country":"United States","geoPoint":{"lat":28.53834,"lon":-81.37924}},{"facility":"Comprehensive Neurology Clinic","city":"Orlando","state":"Florida","zip":"32825","country":"United States","geoPoint":{"lat":28.53834,"lon":-81.37924}},{"facility":"Knight Neurology","city":"Rockledge","state":"Florida","zip":"32955","country":"United States","geoPoint":{"lat":28.35084,"lon":-80.72533}},{"facility":"Santos Research Center","city":"Tampa","state":"Florida","zip":"33615","country":"United States","geoPoint":{"lat":27.94752,"lon":-82.45843}},{"facility":"Encore Medical Research of Weston LLC.","city":"Weston","state":"Florida","zip":"33331","country":"United States","geoPoint":{"lat":26.10037,"lon":-80.39977}},{"facility":"Augusta University","city":"Augusta","state":"Georgia","zip":"30912","country":"United States","geoPoint":{"lat":33.47097,"lon":-81.97484}},{"facility":"Hawaii Pacific Neuroscience","city":"Honolulu","state":"Hawaii","zip":"96817","country":"United States","geoPoint":{"lat":21.30694,"lon":-157.85833}},{"facility":"Consultants in Epilepsy & Neurology, PLLC (CEN)","city":"Boise","state":"Idaho","zip":"83702","country":"United States","geoPoint":{"lat":43.6135,"lon":-116.20345}},{"facility":"Northwestern Medical Group, Department of Neurology","city":"Chicago","state":"Illinois","zip":"60611","country":"United States","geoPoint":{"lat":41.85003,"lon":-87.65005}},{"facility":"Revive Research Institute, Inc.","city":"Elgin","state":"Illinois","zip":"60123","country":"United States","geoPoint":{"lat":42.03725,"lon":-88.28119}},{"facility":"Bluegrass Epilepsy Research","city":"Lexington","state":"Kentucky","zip":"40504","country":"United States","geoPoint":{"lat":37.98869,"lon":-84.47772}},{"facility":"OLOLRMC","city":"Baton Rouge","state":"Louisiana","zip":"70808","country":"United States","geoPoint":{"lat":30.44332,"lon":-91.18747}},{"facility":"University Medical Center New Orleans","city":"New Orleans","state":"Louisiana","zip":"70112","country":"United States","geoPoint":{"lat":29.95465,"lon":-90.07507}},{"facility":"Boston Clinical Trials","city":"Boston","state":"Massachusetts","zip":"02131","country":"United States","geoPoint":{"lat":42.35843,"lon":-71.05977}},{"facility":"Somnos Clinical Research","city":"Lincoln","state":"Nebraska","zip":"68510","country":"United States","geoPoint":{"lat":40.8,"lon":-96.66696}},{"facility":"NEREG","city":"Hackensack","state":"New Jersey","zip":"07601","country":"United States","geoPoint":{"lat":40.88593,"lon":-74.04347}},{"facility":"Institute of Neurology and Neurosurgery","city":"Livingston","state":"New Jersey","zip":"07039","country":"United States","geoPoint":{"lat":40.79593,"lon":-74.31487}},{"facility":"Dent Neurosciences Research Center","city":"Amherst","state":"New York","zip":"14226","country":"United States","geoPoint":{"lat":42.97839,"lon":-78.79976}},{"facility":"Boston Children's Health Physicians (BCHP)","city":"Hawthorne","state":"New York","zip":"10532-1528","country":"United States","geoPoint":{"lat":41.10732,"lon":-73.79597}},{"facility":"Northwell Health Pediatric Neurology","city":"New Hyde Park","state":"New York","zip":"11042","country":"United States","geoPoint":{"lat":40.7351,"lon":-73.68791}},{"facility":"NYU Langone Health","city":"New York","state":"New York","zip":"10016","country":"United States","geoPoint":{"lat":40.71427,"lon":-74.00597}},{"facility":"Montefiore Medical Center","city":"The Bronx","state":"New York","zip":"10467","country":"United States","geoPoint":{"lat":40.84985,"lon":-73.86641}},{"facility":"UPMC","city":"Pittsburgh","state":"Pennsylvania","zip":"15213","country":"United States","geoPoint":{"lat":40.44062,"lon":-79.99589}},{"facility":"WR-ClinSearch","city":"Chattanooga","state":"Tennessee","zip":"37421","country":"United States","geoPoint":{"lat":35.04563,"lon":-85.30968}},{"facility":"Vanderbilt University Medical Center","city":"Nashville","state":"Tennessee","zip":"37232","country":"United States","geoPoint":{"lat":36.16589,"lon":-86.78444}},{"facility":"Neurology Consultants of Dallas, PA","city":"Dallas","state":"Texas","zip":"75243","country":"United States","geoPoint":{"lat":32.78306,"lon":-96.80667}},{"facility":"ANESC Research","city":"El Paso","state":"Texas","zip":"79912","country":"United States","geoPoint":{"lat":31.75872,"lon":-106.48693}},{"facility":"Road Runner Research, Ltd","city":"San Antonio","state":"Texas","zip":"78249","country":"United States","geoPoint":{"lat":29.42412,"lon":-98.49363}},{"facility":"Intermountain Health","city":"Murray","state":"Utah","zip":"84107","country":"United States","geoPoint":{"lat":40.66689,"lon":-111.88799}},{"facility":"Henrico Doctors' Neurology Associates, LLC","city":"Richmond","state":"Virginia","zip":"23235","country":"United States","geoPoint":{"lat":37.55376,"lon":-77.46026}},{"facility":"Westmead Hospital","city":"Westmead","state":"New South Wales","zip":"2145","country":"Australia","geoPoint":{"lat":-33.80383,"lon":150.98768}},{"facility":"Royal Brisbane & Women's Hospital","city":"Herston","state":"Queensland","zip":"4029","country":"Australia","geoPoint":{"lat":-27.44453,"lon":153.01852}},{"facility":"St Vincents Hospital Melbourne - PPDS","city":"Fitzroy","state":"Victoria","zip":"3065","country":"Australia","geoPoint":{"lat":-37.79839,"lon":144.97833}},{"facility":"Austin Hospital","city":"Heidelberg","state":"Victoria","zip":"3084","country":"Australia","geoPoint":{"lat":-37.75,"lon":145.06667}},{"facility":"The Alfred Hospital","city":"Melbourne","state":"Victoria","zip":"3004","country":"Australia","geoPoint":{"lat":-37.814,"lon":144.96332}},{"facility":"Royal Melbourne Hospital","city":"Parkville","state":"Victoria","zip":"3050","country":"Australia","geoPoint":{"lat":-37.78333,"lon":144.95}},{"facility":"Christian Doppler-Klinik - Universitätsklinikum der PMU","city":"Salzburg","zip":"A-5020","country":"Austria","geoPoint":{"lat":47.79941,"lon":13.04399}},{"facility":"Medizinische Universität Wien","city":"Vienna","zip":"1090","country":"Austria","geoPoint":{"lat":48.20849,"lon":16.37208}},{"facility":"UZ Antwerpen","city":"Edegem","state":"Antwerpen","zip":"2650","country":"Belgium","geoPoint":{"lat":51.15662,"lon":4.44504}},{"facility":"CHU UCL Namur - Site Godinne","city":"Yvoir","state":"Namur","zip":"5530","country":"Belgium","geoPoint":{"lat":50.3279,"lon":4.88059}},{"facility":"UZ Gent","city":"Ghent","state":"Oost-Vlaanderen","zip":"9000","country":"Belgium","geoPoint":{"lat":51.05,"lon":3.71667}},{"facility":"Clinical Hospital Dubrava","city":"Zagreb","state":"City of Zagreb","zip":"10000","country":"Croatia","geoPoint":{"lat":45.81444,"lon":15.97798}},{"facility":"Clinical Hospital Sveti Duh","city":"Zagreb","state":"City of Zagreb","zip":"10000","country":"Croatia","geoPoint":{"lat":45.81444,"lon":15.97798}},{"facility":"Helsinki University Hospital","city":"Helsinki","state":"Uusimaa","zip":"00290","country":"Finland","geoPoint":{"lat":60.16952,"lon":24.93545}},{"facility":"CHU de Strasbourg - Hôpital de Hautepierre","city":"Strasbourg","state":"Bas-Rhin","zip":"67000","country":"France","geoPoint":{"lat":48.58392,"lon":7.74553}},{"facility":"CHU Dijon Bourgogne","city":"Dijon","state":"Côte-d'Or","zip":"21000","country":"France","geoPoint":{"lat":47.31344,"lon":5.01391}},{"facility":"CHU de Toulouse-Hôpital Pierre-Paul Riquet-Site de Purpan","city":"Toulouse","state":"Haute-Garonne","zip":"31059","country":"France","geoPoint":{"lat":43.60426,"lon":1.44367}},{"facility":"CHRU Lille","city":"Lille","state":"Nord","zip":"59037","country":"France","geoPoint":{"lat":50.63391,"lon":3.05512}},{"facility":"Hospices Civils de Lyon - 59 Bd Pinel","city":"Bron","state":"Rhône","zip":"69677","country":"France","geoPoint":{"lat":45.73865,"lon":4.91303}},{"facility":"Hôpital Pontchaillou","city":"Rennes","zip":"35033","country":"France","geoPoint":{"lat":48.11109,"lon":-1.67431}},{"facility":"Epilepsiezentrum Kork","city":"Kehl","state":"Baden-Wurttemberg","zip":"77694","country":"Germany","geoPoint":{"lat":48.57297,"lon":7.81523}},{"facility":"Universitätsklinikum Ulm-Oberer Eselsberg 45","city":"Ulm","state":"Baden-Wurttemberg","zip":"89081","country":"Germany","geoPoint":{"lat":48.39841,"lon":9.99155}},{"facility":"Universitätsklinikum Erlangen","city":"Erlangen","state":"Bavaria","zip":"91054","country":"Germany","geoPoint":{"lat":49.59099,"lon":11.00783}},{"facility":"LMU Klinikum der Universität München - Campus Großhadern","city":"München","state":"Bavaria","zip":"81377","country":"Germany","geoPoint":{"lat":48.69668,"lon":13.46314}},{"facility":"Klinikum der Johann-Wolfgang Goethe-Universitat - Schleusenweg 2-16","city":"Frankfurt am Main","state":"Hesse","zip":"60528","country":"Germany","geoPoint":{"lat":50.11552,"lon":8.68417}},{"facility":"Universitätsklinikum Gießen und Marburg GmbH - Standort Marburg","city":"Marburg","state":"Hesse","zip":"35043","country":"Germany","geoPoint":{"lat":50.80904,"lon":8.77069}},{"facility":"Krankenhaus Mara gGmbH","city":"Bielefeld","state":"North Rhine-Westphalia","zip":"33617","country":"Germany","geoPoint":{"lat":52.03333,"lon":8.53333}},{"facility":"Universitätsklinikum Bonn","city":"Bonn","state":"North Rhine-Westphalia","zip":"53127","country":"Germany","geoPoint":{"lat":50.73438,"lon":7.09549}},{"facility":"Kleinwachau Sächsisches Epilepsiezentrum Radeberg Gemeinnützige Gmbh","city":"Radeberg","state":"Saxony","zip":"01454","country":"Germany","geoPoint":{"lat":51.11112,"lon":13.91199}},{"facility":"Vivantes - Humboldt Klinikum","city":"Berlin","zip":"13509","country":"Germany","geoPoint":{"lat":52.52437,"lon":13.41053}},{"facility":"Epilepsie-Zentrum Bodensee","city":"Ravensburg","zip":"88214","country":"Germany","geoPoint":{"lat":47.78198,"lon":9.61062}},{"facility":"Ospedale Policlinico SS Annunziata - Chieti","city":"Chieti","state":"Abruzzo","zip":"66013","country":"Italy","geoPoint":{"lat":42.34827,"lon":14.16494}},{"facility":"Azienda Ospedaliera Universitaria Renato Dulbecco - AO Mater Domini","city":"Catanzaro","state":"Calabria","zip":"88100","country":"Italy","geoPoint":{"lat":38.88247,"lon":16.60086}},{"facility":"AORN Antonio Cardarelli","city":"Napoli","state":"Campania","zip":"80131","country":"Italy","geoPoint":{"lat":40.87618,"lon":14.5195}},{"facility":"AUSL di Bologna - Ospedale Bellaria","city":"Bologna","state":"Emilia-Romagna","zip":"40139","country":"Italy","geoPoint":{"lat":44.49381,"lon":11.33875}},{"facility":"IRCCS Istituto Neurologico Mediterraneo Neuromed","city":"Pozzilli","state":"Isernia","zip":"86077","country":"Italy","geoPoint":{"lat":41.51142,"lon":14.06252}},{"facility":"Fondazione PTV Policlinico Tor Vergata","city":"Rome","state":"Lazio","zip":"00133","country":"Italy","geoPoint":{"lat":41.89193,"lon":12.51133}},{"facility":"IRCCS Ospedale Pediatrico Bambino Gesù - INCIPIT - PIN","city":"Rome","state":"Lazio","zip":"165","country":"Italy","geoPoint":{"lat":41.89193,"lon":12.51133}},{"facility":"Istituto G Gaslini Ospedale Pediatrico IRCCS - INCIPIT - PIN","city":"Genoa","state":"Liguria","zip":"16147","country":"Italy","geoPoint":{"lat":44.40478,"lon":8.94439}},{"facility":"Ospedale San Raffaele S.r.l. - PPDS","city":"Milan","state":"Lombardy","zip":"20132","country":"Italy","geoPoint":{"lat":45.46427,"lon":9.18951}},{"facility":"ASST Santi Paolo e Carlo - Azienda Universitaria-Polo Universitario San Paolo","city":"Milan","state":"Lombardy","zip":"20142","country":"Italy","geoPoint":{"lat":45.46427,"lon":9.18951}},{"facility":"Fondazione Istituto Neurologico Nazionale Casimiro Mondino IRCCS","city":"Pavia","state":"Lombardy","zip":"27100","country":"Italy","geoPoint":{"lat":45.19205,"lon":9.15917}},{"facility":"Azienda Ospedaliero-Universitaria di Modena - Ospedale Civile di Baggiovara","city":"Baggiovara","state":"Modena","zip":"41126","country":"Italy","geoPoint":{"lat":44.60416,"lon":10.86256}},{"facility":"Fondazione Policlinico Universitario A Gemelli - Rome - PPDS","city":"Roma","zip":"168","country":"Italy","geoPoint":{"lat":44.99364,"lon":11.10642}},{"facility":"Azienda Ospedaliera Universitaria Integrata Di Verona","city":"Verona","zip":"37126","country":"Italy","geoPoint":{"lat":45.43854,"lon":10.9938}},{"facility":"Kempenhaeghe - PPDS","city":"Heeze","state":"North Brabant","zip":"5591 VE","country":"Netherlands","geoPoint":{"lat":51.3828,"lon":5.57145}},{"facility":"AES - DRS - Synexus Polska Sp. z o.o. Oddzial w Poznaniu","city":"Poznan","state":"Greater Poland Voivodeship","zip":"60-702","country":"Poland","geoPoint":{"lat":52.40692,"lon":16.92993}},{"facility":"Pratia MCM KrakÛw","city":"Krakow","state":"Lesser Poland Voivodeship","zip":"30-727","country":"Poland","geoPoint":{"lat":50.06143,"lon":19.93658}},{"facility":"Twoja Przychodnia-Centrum Medyczne Nowa Sol","city":"Nowa Sól","state":"Lubusz Voivodeship","zip":"67-100","country":"Poland","geoPoint":{"lat":51.80333,"lon":15.71702}},{"facility":"Santa Familia PTG Lodz","city":"Lódz","state":"Lódzkie","zip":"90-302","country":"Poland"},{"facility":"Centrum Badan Klinicznych PI-House sp. z o.o.","city":"Gdansk","state":"Pomeranian Voivodeship","zip":"80-546","country":"Poland","geoPoint":{"lat":54.35227,"lon":18.64912}},{"facility":"Neurosphera SP. Z O.O Warsaw","city":"Warsaw","zip":"02-829","country":"Poland","geoPoint":{"lat":52.22977,"lon":21.01178}},{"facility":"ULS de Entre Douro e Vouga, EPE - Hospital de São Sebastião","city":"Santa Maria da Feira","state":"Aveiro District","zip":"4520-211","country":"Portugal","geoPoint":{"lat":40.92726,"lon":-8.54839}},{"facility":"ULS de Matosinhos, EPE - Hospital Pedro Hispano","city":"Senhora da Hora","state":"Porto District","zip":"4464-513","country":"Portugal","geoPoint":{"lat":41.18641,"lon":-8.65172}},{"facility":"Centro Clínico Académico, Braga - Hospital de Braga","city":"Braga","zip":"4710-243","country":"Portugal","geoPoint":{"lat":41.5514,"lon":-8.42311}},{"facility":"ULS de Coimbra, EPE - Hospitais da Universidade de Coimbra","city":"Coimbra","zip":"3000-075","country":"Portugal","geoPoint":{"lat":40.20686,"lon":-8.41996}},{"facility":"Hospital da Luz Torres de Lisboa","city":"Lisbon","zip":"1600-209","country":"Portugal","geoPoint":{"lat":38.72509,"lon":-9.1498}},{"facility":"Hospital Universitario Germans Trias i Pujol","city":"Badalona","state":"Barcelona","zip":"8916","country":"Spain","geoPoint":{"lat":41.45004,"lon":2.24741}},{"facility":"Hospital Universitario de Bellvitge","city":"L'Hospitalet de Llobregat","state":"Barcelona","zip":"08907","country":"Spain","geoPoint":{"lat":41.35967,"lon":2.10028}},{"facility":"CHUVI - H.U. Alvaro Cunqueiro","city":"Vigo","state":"Pontevedra","zip":"36312","country":"Spain","geoPoint":{"lat":42.23282,"lon":-8.72264}},{"facility":"Hospital del Mar","city":"Barcelona","zip":"08003","country":"Spain","geoPoint":{"lat":41.38879,"lon":2.15899}},{"facility":"Hospital Regional Universitario de Malaga - Hospital General","city":"Málaga","zip":"29010","country":"Spain","geoPoint":{"lat":36.72016,"lon":-4.42034}},{"facility":"Centro de Neurologia Avanzada","city":"Seville","zip":"41013","country":"Spain","geoPoint":{"lat":37.38283,"lon":-5.97317}},{"facility":"Hospital Clinico Universitario de Valladolid","city":"Valladolid","zip":"47003","country":"Spain","geoPoint":{"lat":41.65541,"lon":-4.72353}},{"facility":"Neuroscience Research Centre","city":"Fazakerley","zip":"L9 7LJ","country":"United Kingdom","geoPoint":{"lat":53.4614,"lon":-2.92863}},{"facility":"University College London Hospitals","city":"London","zip":"WC1N 3HR","country":"United Kingdom","geoPoint":{"lat":51.50853,"lon":-0.12574}},{"facility":"Morriston Hospital","city":"Morriston","zip":"SA6 6NL","country":"United Kingdom","geoPoint":{"lat":51.66995,"lon":-3.92941}},{"facility":"The Royal Victoria Infirmary","city":"Newcastle upon Tyne","zip":"NE1 4LP","country":"United Kingdom","geoPoint":{"lat":54.97328,"lon":-1.61396}},{"facility":"Salford Royal Hospital","city":"Salford","zip":"M6 8HD","country":"United Kingdom","geoPoint":{"lat":53.48771,"lon":-2.29042}}]}},"derivedSection":{"miscInfoModule":{"versionHolder":"2026-02-25"},"conditionBrowseModule":{"meshes":[{"id":"D004829","term":"Epilepsy, Generalized"},{"id":"C562694","term":"Epilepsy, Idiopathic Generalized"},{"id":"D004827","term":"Epilepsy"},{"id":"D012640","term":"Seizures"},{"id":"D000069279","term":"Drug Resistant Epilepsy"},{"id":"D020190","term":"Myoclonic Epilepsy, Juvenile"},{"id":"D004832","term":"Epilepsy, Absence"}],"ancestors":[{"id":"D001927","term":"Brain Diseases"},{"id":"D002493","term":"Central Nervous System Diseases"},{"id":"D009422","term":"Nervous System Diseases"},{"id":"D009461","term":"Neurologic Manifestations"},{"id":"D012816","term":"Signs and Symptoms"},{"id":"D013568","term":"Pathological Conditions, Signs and Symptoms"},{"id":"D004831","term":"Epilepsies, Myoclonic"},{"id":"D000073376","term":"Epileptic Syndromes"}]}},"hasResults":false},
{"protocolSection":{"identificationModule":{"nctId":"NCT07262268","orgStudyIdInfo":{"id":"BHV7000-119"},"organization":{"fullName":"Biohaven Pharmaceuticals, Inc.","class":"INDUSTRY"},"briefTitle":"A Phase 1b Study of BHV-7000 in Participants With Inherited Erythromelalgia","officialTitle":"A Phase 1b, Double-Blind, Crossover Study of BHV-7000 in Patients With Inherited Erythromelalgia (IEM) With NaV1.7 Gain of Function Mutations"},"statusModule":{"statusVerifiedDate":"2026-01","overallStatus":"ENROLLING_BY_INVITATION","expandedAccessInfo":{"hasExpandedAccess":false},"startDateStruct":{"date":"2026-01-15","type":"ACTUAL"},"primaryCompletionDateStruct":{"date":"2026-06","type":"ESTIMATED"},"completionDateStruct":{"date":"2026-07","type":"ESTIMATED"},"studyFirstSubmitDate":"2025-11-17","studyFirstSubmitQcDate":"2025-11-21","studyFirstPostDateStruct":{"date":"2025-12-03","type":"ACTUAL"},"lastUpdateSubmitDate":"2026-01-16","lastUpdatePostDateStruct":{"date":"2026-01-20","type":"ACTUAL"}},"sponsorCollaboratorsModule":{"responsibleParty":{"type":"SPONSOR"},"leadSponsor":{"name":"Biohaven Therapeutics Ltd.","class":"INDUSTRY"}},"oversightModule":{"isFdaRegulatedDrug":true,"isFdaRegulatedDevice":false},"descriptionModule":{"briefSummary":"The purpose of this study is to test the potential benefits of BHV-7000 in reducing chronic pain in participants with IEM with a previously demonstrated gain of function mutation in the SCN9A gene."},"conditionsModule":{"conditions":["Familial Erythromelalgia"],"keywords":["Erythomelalgia","IEM","Primary Erythomelalgia","SCN9A","NaV1.7","Channelopathy","Red Neuralgia","Neuropathic Pain","Inherited Erythomelalgia"]},"designModule":{"studyType":"INTERVENTIONAL","phases":["PHASE1"],"designInfo":{"allocation":"RANDOMIZED","interventionModel":"CROSSOVER","primaryPurpose":"TREATMENT","maskingInfo":{"masking":"QUADRUPLE","whoMasked":["PARTICIPANT","CARE_PROVIDER","INVESTIGATOR","OUTCOMES_ASSESSOR"]}},"enrollmentInfo":{"count":5,"type":"ESTIMATED"}},"armsInterventionsModule":{"armGroups":[{"label":"BHV-7000","type":"EXPERIMENTAL","interventionNames":["Drug: BHV-7000"]},{"label":"Placebo","type":"PLACEBO_COMPARATOR","interventionNames":["Drug: Placebo"]}],"interventions":[{"type":"DRUG","name":"BHV-7000","description":"Participants will take blinded investigational product (IP) orally once daily","armGroupLabels":["BHV-7000"],"otherNames":["opakalim"]},{"type":"DRUG","name":"Placebo","description":"Matching placebo taken orally once daily","armGroupLabels":["Placebo"]}]},"outcomesModule":{"primaryOutcomes":[{"measure":"Mean of the daily average maximum pain intensity scores collected every 2 hours.","description":"Participants will be asked to record peak (worst) pain experienced in the previous 2 hours using an 11-point Likert scale (0-10) where 0=no pain and 10=worst possible pain","timeFrame":"The last 3 weeks of each 4-week crossover treatment period"}],"secondaryOutcomes":[{"measure":"The average weekly frequency of pain attacks on treatment vs. placebo","description":"Participants will be asked to record occurrence of pain attacks","timeFrame":"The last 3 weeks of each 4-week crossover treatment period"},{"measure":"The average duration of pain attacks on treatment vs. placebo","description":"Participants will be asked to record the duration of their pain attacks","timeFrame":"The last 3 weeks of each 4-week crossover treatment period"},{"measure":"The average peak severity of pain attacks on treatment vs. placebo","description":"Participants will be asked to record the maximum severity of their pain attacks using an 11-point Likert scale (0-10) where 0=no pain and 10=worst possible pain.","timeFrame":"The last 3 weeks of each 4-week crossover treatment period"},{"measure":"Safety and tolerability by reporting the frequency of unique participants with SAEs, severe AEs, AEs leading to discontinuation, deaths, and Grade 3-4 (CTCAE/DAIDS) laboratory abnormalities.","description":"Measured by assessing the number of unique participants who experience treatment-emergent serious adverse events, adverse events leading to discontinuation, or moderate and severe adverse events.","timeFrame":"Up to 16 weeks"}]},"eligibilityModule":{"eligibilityCriteria":"Key Inclusion Criteria:\n\n1. Adult men and women between 18 to 75 years of age, inclusive, at time of consent with a diagnosis of inherited erythromelalgia with a previously characterized gain of function NaV1.7 mutation resulting in chronic pain.\n2. Absence of concomitant mutation resulting in Kv7.2/7.3 gain of function.\n3. Ability and willingness to adhere to the study procedures and complete accurate pain diaries\n4. Stable background analgesic regimen for at least 30 days before screening and willingness to maintain the same analgesic regimen during the study period.\n\nKey Exclusion Criteria:\n\n1. Any clinically significant laboratory abnormalities or clinically significant abnormalities on screening physical examination, vital signs, or ECG that, in the judgment of the principal investigator, indicates a medical problem that would preclude study participation.\n2. Any medical condition, based on the judgement of the Investigator, that would confound the ability to adequately assess safety and efficacy outcome measures","healthyVolunteers":false,"sex":"ALL","minimumAge":"18 Years","maximumAge":"75 Years","stdAges":["ADULT","OLDER_ADULT"]},"contactsLocationsModule":{"locations":[{"facility":"Site-001","city":"New Haven","state":"Connecticut","zip":"06520","country":"United States","geoPoint":{"lat":41.30815,"lon":-72.92816}}]}},"derivedSection":{"miscInfoModule":{"versionHolder":"2026-02-25"},"conditionBrowseModule":{"meshes":[{"id":"D004916","term":"Erythromelalgia"},{"id":"C567827","term":"Generalized Epilepsy With Febrile Seizures Plus, 7"},{"id":"D053447","term":"Channelopathies"},{"id":"D009437","term":"Neuralgia"}],"ancestors":[{"id":"D016491","term":"Peripheral Vascular Diseases"},{"id":"D014652","term":"Vascular Diseases"},{"id":"D002318","term":"Cardiovascular Diseases"},{"id":"D010335","term":"Pathologic Processes"},{"id":"D013568","term":"Pathological Conditions, Signs and Symptoms"},{"id":"D010523","term":"Peripheral Nervous System Diseases"},{"id":"D009468","term":"Neuromuscular Diseases"},{"id":"D009422","term":"Nervous System Diseases"},{"id":"D010146","term":"Pain"},{"id":"D009461","term":"Neurologic Manifestations"},{"id":"D012816","term":"Signs and Symptoms"}]}},"hasResults":false},
{"protocolSection":{"identificationModule":{"nctId":"NCT06132893","orgStudyIdInfo":{"id":"BHV7000-302"},"secondaryIdInfos":[{"id":"2023-508539-30","type":"REGISTRY","domain":"EU CTR"}],"organization":{"fullName":"Biohaven Pharmaceuticals, Inc.","class":"INDUSTRY"},"briefTitle":"A Study to Determine if BHV-7000 is Effective and Safe in Adults With Refractory Focal Onset Epilepsy","officialTitle":"A Phase 2/3 Multicenter, Randomized, Double-Blind, Placebo-Controlled, Study to Evaluate the Efficacy, Safety and Tolerability of BHV-7000 in Subjects With Refractory Focal Onset Epilepsy","acronym":"RISE 2"},"statusModule":{"statusVerifiedDate":"2026-01","overallStatus":"RECRUITING","expandedAccessInfo":{"hasExpandedAccess":false},"startDateStruct":{"date":"2024-03-14","type":"ACTUAL"},"primaryCompletionDateStruct":{"date":"2026-12","type":"ESTIMATED"},"completionDateStruct":{"date":"2026-12","type":"ESTIMATED"},"studyFirstSubmitDate":"2023-11-10","studyFirstSubmitQcDate":"2023-11-10","studyFirstPostDateStruct":{"date":"2023-11-15","type":"ACTUAL"},"lastUpdateSubmitDate":"2026-01-30","lastUpdatePostDateStruct":{"date":"2026-02-03","type":"ACTUAL"}},"sponsorCollaboratorsModule":{"responsibleParty":{"type":"SPONSOR"},"leadSponsor":{"name":"Biohaven Therapeutics Ltd.","class":"INDUSTRY"}},"oversightModule":{"oversightHasDmc":true,"isFdaRegulatedDrug":true,"isFdaRegulatedDevice":false},"descriptionModule":{"briefSummary":"The purpose of this study is to determine whether BHV-7000 is effective in the treatment of refractory focal epilepsy.","detailedDescription":"This study has two parts, Part A and Part B. Part A is randomized 1:1:1 25 mg of BHV-7000, 50 mg of BHV-7000 or matching placebo. Part B is randomized 1:1 75mg BHV-7000 or matching placebo. Part B will start after Part A."},"conditionsModule":{"conditions":["Focal Epilepsy"],"keywords":["Focal Epilepsy","Epilepsy","Seizure","Refractory Epilepsy","Partial Epilepsy"]},"designModule":{"studyType":"INTERVENTIONAL","phases":["PHASE2","PHASE3"],"designInfo":{"allocation":"RANDOMIZED","interventionModel":"SEQUENTIAL","primaryPurpose":"TREATMENT","maskingInfo":{"masking":"QUADRUPLE","whoMasked":["PARTICIPANT","CARE_PROVIDER","INVESTIGATOR","OUTCOMES_ASSESSOR"]}},"enrollmentInfo":{"count":390,"type":"ESTIMATED"}},"armsInterventionsModule":{"armGroups":[{"label":"BHV-7000 25 mg Part A","type":"EXPERIMENTAL","interventionNames":["Drug: BHV-7000"]},{"label":"BHV-7000 50 mg Part A","type":"EXPERIMENTAL","interventionNames":["Drug: BHV-7000"]},{"label":"Placebo Part A","type":"PLACEBO_COMPARATOR","interventionNames":["Drug: Placebo"]},{"label":"BHV-7000 75 mg Part B","type":"EXPERIMENTAL","interventionNames":["Drug: BHV-7000"]},{"label":"Placebo Part B","type":"PLACEBO_COMPARATOR","interventionNames":["Drug: Placebo"]}],"interventions":[{"type":"DRUG","name":"BHV-7000","description":"BHV-7000 25 mg. Participants will take blinded investigational product (IP) once daily","armGroupLabels":["BHV-7000 25 mg Part A"]},{"type":"DRUG","name":"BHV-7000","description":"BHV-7000 50 mg. Participants will take blinded investigational product (IP) once daily","armGroupLabels":["BHV-7000 50 mg Part A"]},{"type":"DRUG","name":"Placebo","description":"Matching placebo taken once daily","armGroupLabels":["Placebo Part A"]},{"type":"DRUG","name":"BHV-7000","description":"BHV-7000 75 mg. Participants willtake blinded investigational product(IP) once daily","armGroupLabels":["BHV-7000 75 mg Part B"]},{"type":"DRUG","name":"Placebo","description":"Matching placebo taken once daily","armGroupLabels":["Placebo Part B"]}]},"outcomesModule":{"primaryOutcomes":[{"measure":"Part B: Change from Baseline in 28-day average seizure frequency","description":"To compare the efficacy of each of 2 doses of BHV-7000 to placebo as an adjunctive therapy for refractory focal onset epilepsy as measured by the change from OP (observational phase) in 28-day average seizure frequency. The primary objective will be measured by comparing the observation phase (8 weeks) to the 12-week double-blind treatment phase.","timeFrame":"Baseline, Week 8 to Week 20 of Part B"},{"measure":"Part A: Number of Participants With Deaths, Serious AEs (SAEs), AEs Leading to Study Drug Discontinuation, and moderate or severe AEs","description":"To assess the safety and tolerability of BHV-7000. This objective will be measured by assessing the number of unique subjects with deaths, SAEs, AEs leading to discontinuation, and moderate and severe AEs.","timeFrame":"Week 8 to Week 20 of Part A"},{"measure":"Part A: Number of Participants With Clinically Significant Laboratory Abnormalities","description":"To assess the safety and tolerability of BHV-7000. This objective will be measured by assessing the number of unique subjects with grade 3 and 4 laboratory abnormalities.","timeFrame":"Week 8 to Week 20 of Part A"}],"secondaryOutcomes":[{"measure":"Part B: Percentage of Participants with at at least 50% reduction in seizure frequency per month","description":"To compare the efficacy of 2 dose strengths of BHV-7000 to placebo as adjunctive therapy for refractory focal onset epilepsy as measured by the proportion of subjects that have at least a 50% reduction in seizures per month (28 days). This objective will be measured by comparing the proportion of subjects with at least a 50% reduction in 28-day average seizure frequency over the course of the 12 week double-blind phase to the observation phase.","timeFrame":"Baseline, Week 8 to Week 20 of Part B"},{"measure":"Part B: Change from Baseline in 28-day average seizure frequency during first month of treatment","description":"To compare the efficacy of BHV-7000 to placebo during the first month of treatment. This objective will be measured by the change in log-transformed 28-day adjusted seizure frequency from observation phase over the first month of the double blind phase.","timeFrame":"Baseline, Week 8 to Week 12 of Part B"},{"measure":"Part B: Percentage of Participants with at at least 75% reduction in seizure frequency per month","description":"To compare the efficacy of BHV-7000 to placebo as measured by the proportion of subjects that have at least a 75% reduction in seizures per month (28 days). This objective will be measured by comparing the proportion of subjects with at least a 75% reduction in 28-day average seizure frequency over the course of the double-blind phase compared to the observation phase.","timeFrame":"Baseline, Week 8 to Week 20 of Part B"},{"measure":"Part B: Percentage of Participants with seizure freedom during DB Phase","description":"To compare the efficacy of BHV-7000 to placebo on seizure freedom (100% seizure reduction during the DB phase). This objective will be measured by proportion of subjects that are seizure free during the double-blind phase.","timeFrame":"Week 8 to Week 20 of Part B"},{"measure":"Part B: Change from baseline in 7-day adjusted seizure frequency during first week of treatment","description":"To compare the efficacy of BHV-7000 to placebo during the first week of treatment. This objective will be measured by the change in log-transformed 7-day adjusted seizure frequency from observation phase over the first week of the double-blind phase.","timeFrame":"Baseline, Week 8 to Week 9 of Part B"},{"measure":"Part B: Change from baseline in Patient Global Impression of Change (PGI-C)","description":"To compare the efficacy of BHV-7000 to placebo on the patient global impression of change (PGI-C). This objective will be measured by proportion of subjects at week 12 of double-blind treatment phase with a PGI-C response of \"minimally improved\", \"much improved\" or \"very much improved\". This scale is a 7-point Likert scale with response options of:\n\n(1) \"very much improved\" , (2) \"much improved\", (3) \"minimally improved\", (4) \"no change\", (5) \"minimally worse\", (6) \"much worse\", (7) and \"very much worse\"","timeFrame":"Baseline, Week 20 of Part B"},{"measure":"Part B: Number of Participants With Deaths, Serious AEs (SAEs), AEs Leading to Study Drug Discontinuation, and moderate or severe AEs","description":"To assess the safety and tolerability of BHV-7000. This objective will be measured by assessing the number of unique subjects with deaths, SAEs, AEs leading to discontinuation, and moderate and severe AEs.","timeFrame":"Week 8 to Week 20 of Part B"},{"measure":"Part B: Number of Participants With Clinically Significant Laboratory Abnormalities","description":"To assess the safety and tolerability of BHV-7000. This objective will be measured by assessing the number of unique subjects with grade 3 and 4 laboratory abnormalities.","timeFrame":"Week 8 to Week 20 of Part B"}]},"eligibilityModule":{"eligibilityCriteria":"Key Inclusion Criteria:\n\n1. Male and Female participants 18 to 75 years of age at time of consent.\n2. Diagnosis of Focal Onset Epilepsy at least 1 year prior to screening visit defined by 2017 International League Against Epilepsy (ILAE) Classification and based on requirements of Epilepsy Adjudication criteria.\n\n   a. Focal seizures i. Focal aware seizures with clinically observable signs and/or symptoms ii. Focal impaired awareness seizures iii. Focal to bilateral tonic-clonic seizures\n3. Subject meets the 2009 ILAE definition of drug resistant epilepsy, failure of adequate trials of two tolerated and appropriately chosen and used anti-seizure medication (ASM) schedules (whether as monotherapies or in combination) to achieve sustained seizure freedom.\n4. Ability to keep accurate seizure diaries\n5. Current treatment with at least 1 and up to 3 ASMs and 4 epilepsy treatments in total\n\nKey Exclusion Criteria:\n\n1. History of status epilepticus (convulsive status epilepticus for \\> 5 minutes or focal status epilepticus with impaired consciousness for \\> 10 minutes) within the last 6 months prior to screening visit that is not consistent with the subject's habitual seizure.\n2. History of repetitive/cluster seizures (where individual seizures cannot be counted) within the last 6 months prior to screening visit and during observation phase.\n3. Resection neurosurgery for seizures \\<4 months prior to the screening visit.\n4. Radiosurgery performed \\<2 years prior to the screening visit.\n5. Subjects with only focal aware nonmotor seizures which involve subjective sensory or psychic phenomena only, without impairment of consciousness or awareness (formally called simple partial seizures), with or without ictal EEG correlation with clinical symptoms.\n6. Any condition that would interfere with the subject's ability to comply with study instructions, place the subject at unacceptable risk, and/or confound the interpretation of safety or efficacy data from the study, as judged by the Investigator","healthyVolunteers":false,"sex":"ALL","minimumAge":"18 Years","maximumAge":"75 Years","stdAges":["ADULT","OLDER_ADULT"]},"contactsLocationsModule":{"centralContacts":[{"name":"Chief Medical Officer","role":"CONTACT","phone":"203-404-0410","email":"clinicaltrials@biohavenpharma.com"}],"locations":[{"facility":"Barrow Neurological Institute","status":"RECRUITING","city":"Phoenix","state":"Arizona","zip":"85013","country":"United States","contacts":[{"name":"Caitlin Goodman","role":"CONTACT","phone":"602-406-6262","email":"Caitlin.Goodman@CommonSpirit.org"}],"geoPoint":{"lat":33.44838,"lon":-112.07404}},{"facility":"Center for Neurosciences","status":"RECRUITING","city":"Tucson","state":"Arizona","zip":"85718","country":"United States","contacts":[{"name":"Rudolph Phillips","role":"CONTACT","phone":"520-795-0229","email":"Rphillips@neurotucson.com"}],"geoPoint":{"lat":32.22174,"lon":-110.92648}},{"facility":"Clinical Trials, Inc.","status":"RECRUITING","city":"Little Rock","state":"Arkansas","zip":"72205","country":"United States","contacts":[{"name":"Mark Franks","role":"CONTACT","phone":"501-227-6179","email":"mafranks@clinicaltrialsinc.com"}],"geoPoint":{"lat":34.74648,"lon":-92.28959}},{"facility":"WRN","status":"WITHDRAWN","city":"Rogers","state":"Arkansas","zip":"72758","country":"United States","geoPoint":{"lat":36.33202,"lon":-94.11854}},{"facility":"University of California San Diego","status":"RECRUITING","city":"La Jolla","state":"California","zip":"92041","country":"United States","contacts":[{"name":"Jonathan Rodriguez","role":"CONTACT","email":"jor010@health.ucsd.edu"}],"geoPoint":{"lat":32.84727,"lon":-117.2742}},{"facility":"University of California, Los Angeles","status":"RECRUITING","city":"Los Angeles","state":"California","zip":"90095","country":"United States","contacts":[{"name":"Sucheta Waghmare","role":"CONTACT","phone":"310-794-1195","email":"SWaghmare@mednet.ucla.edu"}],"geoPoint":{"lat":34.05223,"lon":-118.24368}},{"facility":"Stanford Health Care","status":"RECRUITING","city":"Palo Alto","state":"California","zip":"94304","country":"United States","contacts":[{"name":"Jordan Selinger","role":"CONTACT","phone":"650-460-9260","email":"jseliger@stanford.edu"}],"geoPoint":{"lat":37.44188,"lon":-122.14302}},{"facility":"Profound Research LLC","status":"RECRUITING","city":"Pasadena","state":"California","zip":"91105","country":"United States","contacts":[{"name":"Isabel Canas","role":"CONTACT","phone":"213-222-7740","email":"isabel@profoundresearch.io"}],"geoPoint":{"lat":34.14778,"lon":-118.14452}},{"facility":"University of Colorado Anschultz Medical Campus","status":"RECRUITING","city":"Aurora","state":"Colorado","zip":"80045","country":"United States","contacts":[{"name":"Chris Mizenko","role":"CONTACT","phone":"720-848-8621","email":"christopher.mizenko@cuanschutz.edu"}],"geoPoint":{"lat":39.72943,"lon":-104.83192}},{"facility":"Yale School of Medicine - Yale-New Haven Hospital","status":"RECRUITING","city":"New Haven","state":"Connecticut","zip":"06519","country":"United States","geoPoint":{"lat":41.30815,"lon":-72.92816}},{"facility":"EZR Research LLC","status":"RECRUITING","city":"Boca Raton","state":"Florida","zip":"33486","country":"United States","contacts":[{"name":"Olivia Campbell","role":"CONTACT","phone":"561-788-7545","email":"ocampbell@fcneurology.net"}],"geoPoint":{"lat":26.35869,"lon":-80.0831}},{"facility":"Nova Clinical Research, LLC","status":"RECRUITING","city":"Bradenton","state":"Florida","zip":"34209","country":"United States","contacts":[{"name":"Showkat Hossain","role":"CONTACT","phone":"941-792-6564","email":"showkat.hossain@novaclinicalresearch.com"}],"geoPoint":{"lat":27.49893,"lon":-82.57482}},{"facility":"University of Florida (Jacksonville)","status":"RECRUITING","city":"Jacksonville","state":"Florida","zip":"32209","country":"United States","contacts":[{"name":"Yasmeen Shabbir","role":"CONTACT","phone":"904-244-9856","email":"yasmeen.shabbir@jax.ufl.edu"}],"geoPoint":{"lat":30.33218,"lon":-81.65565}},{"facility":"University of Miami","status":"RECRUITING","city":"Miami","state":"Florida","zip":"33136","country":"United States","contacts":[{"name":"Anabela Cieslicki","role":"CONTACT","phone":"305-243-6732","email":"axc1623@med.miami.edu"}],"geoPoint":{"lat":25.77427,"lon":-80.19366}},{"facility":"Floridian Research Institute","status":"WITHDRAWN","city":"Miami","state":"Florida","zip":"33179","country":"United States","geoPoint":{"lat":25.77427,"lon":-80.19366}},{"facility":"AdventHealth Orlando","status":"WITHDRAWN","city":"Orlando","state":"Florida","zip":"32804","country":"United States","geoPoint":{"lat":28.53834,"lon":-81.37924}},{"facility":"Medsol Clinical Research Center","status":"RECRUITING","city":"Port Charlotte","state":"Florida","zip":"33952","country":"United States","contacts":[{"name":"Maria Vasconcelos","role":"CONTACT","phone":"941-623-9744","email":"mvasconcelos@medsolcrc.com"}],"geoPoint":{"lat":26.97617,"lon":-82.09064}},{"facility":"Santos Research Center","status":"RECRUITING","city":"Tampa","state":"Florida","zip":"33615","country":"United States","contacts":[{"name":"Liz Santos","role":"CONTACT","phone":"813-249-9100","email":"santosresearchcenter@gmail.com"}],"geoPoint":{"lat":27.94752,"lon":-82.45843}},{"facility":"Encore Medical Research of Weston LLC.","status":"RECRUITING","city":"Weston","state":"Florida","zip":"33331","country":"United States","contacts":[{"name":"Antonio Barreiro","role":"CONTACT","phone":"954-777-8827","email":"abarreiro@encoremedicalresearch.com"}],"geoPoint":{"lat":26.10037,"lon":-80.39977}},{"facility":"Pediatrix Medical Group of Florida","status":"WITHDRAWN","city":"Winter Park","state":"Florida","zip":"32789","country":"United States","geoPoint":{"lat":28.6,"lon":-81.33924}},{"facility":"Augusta University","status":"RECRUITING","city":"Augusta","state":"Georgia","zip":"30912","country":"United States","contacts":[{"name":"Josh West","role":"CONTACT","phone":"706-721-9680","email":"ctscto@augusta.edu"}],"geoPoint":{"lat":33.47097,"lon":-81.97484}},{"facility":"Hawaii Pacific Neuroscience","status":"RECRUITING","city":"Honolulu","state":"Hawaii","zip":"96817","country":"United States","contacts":[{"name":"Kore Liow","role":"CONTACT","phone":"808-564-6141","email":"kliow@hawaiineuroscience.com"}],"geoPoint":{"lat":21.30694,"lon":-157.85833}},{"facility":"Consultants in Epilepsy & Neurology, PLLC","status":"RECRUITING","city":"Boise","state":"Idaho","zip":"83702","country":"United States","contacts":[{"name":"Lisa Gravett","role":"CONTACT","phone":"208-275-8585","phoneExt":"6","email":"Lisa@Idahoepilepsy.com"}],"geoPoint":{"lat":43.6135,"lon":-116.20345}},{"facility":"Northwestern University","status":"RECRUITING","city":"Chicago","state":"Illinois","zip":"60611","country":"United States","contacts":[{"name":"Elizabeth Cunningham","role":"CONTACT","phone":"312-926-6562","email":"elizabeth.bachman@nm.org"}],"geoPoint":{"lat":41.85003,"lon":-87.65005}},{"facility":"Revive Research Institute, Inc.","status":"RECRUITING","city":"Elgin","state":"Illinois","zip":"60123","country":"United States","contacts":[{"name":"Sikar Grewal","role":"CONTACT","phone":"847-497-0421","email":"Grewal@rev-research.com"}],"geoPoint":{"lat":42.03725,"lon":-88.28119}},{"facility":"Accellacare","status":"WITHDRAWN","city":"Ames","state":"Iowa","zip":"50010","country":"United States","geoPoint":{"lat":42.03471,"lon":-93.61994}},{"facility":"Bluegrass Epilepsy Research","status":"RECRUITING","city":"Lexington","state":"Kentucky","zip":"40504","country":"United States","contacts":[{"name":"Morgan Medley","role":"CONTACT","phone":"859-313-4989","email":"morgan.medley@commonspirit.org"}],"geoPoint":{"lat":37.98869,"lon":-84.47772}},{"facility":"MAESC","status":"RECRUITING","city":"Bethesda","state":"Maryland","zip":"20817","country":"United States","contacts":[{"name":"Salman Hashmi","role":"CONTACT","phone":"301-530-9744","email":"hashmis@epilepsydc.com"}],"geoPoint":{"lat":38.98067,"lon":-77.10026}},{"facility":"Javara","status":"COMPLETED","city":"Silver Spring","state":"Maryland","zip":"20901","country":"United States","geoPoint":{"lat":38.99067,"lon":-77.02609}},{"facility":"Revive Research Institute, Inc.","status":"WITHDRAWN","city":"Rochester Hills","state":"Michigan","zip":"48307","country":"United States","geoPoint":{"lat":42.65837,"lon":-83.14993}},{"facility":"Minnesota Epilepsy Group, P.A.","status":"RECRUITING","city":"Roseville","state":"Minnesota","zip":"55113","country":"United States","contacts":[{"name":"Sarah Ellis","role":"CONTACT","phone":"651-377-8319","email":"sellis@mnepilepsy.net"}],"geoPoint":{"lat":45.00608,"lon":-93.15661}},{"facility":"Washington University School of Medicine","status":"RECRUITING","city":"St Louis","state":"Missouri","zip":"63110","country":"United States","contacts":[{"name":"Patty Schaefer","role":"CONTACT","phone":"314-362-7871","email":"patty.schaefer@wustl.edu"}],"geoPoint":{"lat":38.62727,"lon":-90.19789}},{"facility":"NEREG","status":"RECRUITING","city":"Hackensack","state":"New Jersey","zip":"07601","country":"United States","contacts":[{"name":"Hardik Rana","role":"CONTACT","phone":"551-497-5000","email":"hrana@epilepsygroup.com"}],"geoPoint":{"lat":40.88593,"lon":-74.04347}},{"facility":"Inst of Neurology","status":"RECRUITING","city":"Livingston","state":"New Jersey","zip":"07039","country":"United States","contacts":[{"name":"Malik Munazza","role":"CONTACT","phone":"973-322-7425","email":"mmalik@inst-neuro.com"}],"geoPoint":{"lat":40.79593,"lon":-74.31487}},{"facility":"Dent Neurosciences Research Center","status":"RECRUITING","city":"Amherst","state":"New York","zip":"14226","country":"United States","contacts":[{"name":"Hailley Pearson","role":"CONTACT","phone":"716-250-7002","email":"hpearson@dentinstitute.com"}],"geoPoint":{"lat":42.97839,"lon":-78.79976}},{"facility":"BCHP","status":"RECRUITING","city":"Hawthorne","state":"New York","zip":"10532","country":"United States","contacts":[{"name":"Donika Zogejani","role":"CONTACT","phone":"914-768-8225","email":"dzogejan@nymc.edu"}],"geoPoint":{"lat":41.10732,"lon":-73.79597}},{"facility":"Northwell Health","status":"RECRUITING","city":"New York","state":"New York","zip":"10021","country":"United States","contacts":[{"name":"Ronnie Elsaadany","role":"CONTACT","phone":"201-988-6177","email":"relsaadany@northwell.edu"}],"geoPoint":{"lat":40.71427,"lon":-74.00597}},{"facility":"Icahn School of Medicine at Mt. Sinai","status":"WITHDRAWN","city":"New York","state":"New York","zip":"10029","country":"United States","geoPoint":{"lat":40.71427,"lon":-74.00597}},{"facility":"Stony Brook Medicine","status":"RECRUITING","city":"Stony Brook","state":"New York","zip":"11794","country":"United States","contacts":[{"name":"Christine Pol","role":"CONTACT","phone":"631-444-9083","email":"Christiana.Pol@stonybrookmedicine.edu"}],"geoPoint":{"lat":40.92565,"lon":-73.14094}},{"facility":"Five Towns Neuroscience Research","status":"RECRUITING","city":"Woodmere","state":"New York","zip":"11598","country":"United States","contacts":[{"name":"Eric Garcia","role":"CONTACT","phone":"516-239-1800","phoneExt":"135","email":"egarcia@ftniresearch.com"}],"geoPoint":{"lat":40.63205,"lon":-73.71263}},{"facility":"OnSite Clinical Solutions","status":"WITHDRAWN","city":"Charlotte","state":"North Carolina","zip":"28211","country":"United States","geoPoint":{"lat":35.22709,"lon":-80.84313}},{"facility":"Accellacare","status":"WITHDRAWN","city":"Mooresville","state":"North Carolina","zip":"28117","country":"United States","geoPoint":{"lat":35.58486,"lon":-80.81007}},{"facility":"Wake Forest Baptist","status":"RECRUITING","city":"Winston-Salem","state":"North Carolina","zip":"27157","country":"United States","contacts":[{"name":"Carolyn Hedrick","role":"CONTACT","phone":"336-716-8694","email":"cwhedric@wakehealth.edu"}],"geoPoint":{"lat":36.09986,"lon":-80.24422}},{"facility":"NeuroScience Research Center","status":"RECRUITING","city":"Canton","state":"Ohio","zip":"44718","country":"United States","contacts":[{"name":"Shandell Mooney","role":"CONTACT","phone":"330-244-2542","email":"shandellm@neurocarecenter.com"}],"geoPoint":{"lat":40.79895,"lon":-81.37845}},{"facility":"University of Cincinnati","status":"RECRUITING","city":"Cincinnati","state":"Ohio","zip":"45267","country":"United States","contacts":[{"name":"Lucy Mendoza","role":"CONTACT","phone":"513-558-3020","email":"Lucy.Mendoza@uc.edu"}],"geoPoint":{"lat":39.12711,"lon":-84.51439}},{"facility":"OSU","status":"RECRUITING","city":"Columbus","state":"Ohio","zip":"43214","country":"United States","contacts":[{"name":"Elizabeth Wiley","role":"CONTACT","phone":"614-293-3660","email":"elizabeth.wiley@osumc.edu"}],"geoPoint":{"lat":39.96118,"lon":-82.99879}},{"facility":"University of Pennsylvania","status":"RECRUITING","city":"Philadelphia","state":"Pennsylvania","zip":"19104","country":"United States","contacts":[{"name":"Melissa Johnston Esparza","role":"CONTACT","phone":"215-614-0520","email":"melissa.johnstonesparza@pennmedicine.upenn.edu"}],"geoPoint":{"lat":39.95238,"lon":-75.16362}},{"facility":"Thomas Jefferson University","status":"RECRUITING","city":"Philadelphia","state":"Pennsylvania","zip":"19107","country":"United States","contacts":[{"name":"Emily Patunas","role":"CONTACT","phone":"215-503-3213","email":"emily.patunas@jefferson.edu"}],"geoPoint":{"lat":39.95238,"lon":-75.16362}},{"facility":"UPMC","status":"NOT_YET_RECRUITING","city":"Pittsburgh","state":"Pennsylvania","zip":"15213","country":"United States","geoPoint":{"lat":40.44062,"lon":-79.99589}},{"facility":"Vanderbilt University Medical Center","status":"RECRUITING","city":"Nashville","state":"Tennessee","zip":"37232","country":"United States","contacts":[{"name":"Melissa Osborn","role":"CONTACT","phone":"615-322-8817","email":"melissa.osborn@vumc.org"}],"geoPoint":{"lat":36.16589,"lon":-86.78444}},{"facility":"Clinical Research Solutions LLC","status":"WITHDRAWN","city":"Cypress","state":"Texas","zip":"77433","country":"United States","geoPoint":{"lat":29.96911,"lon":-95.69717}},{"facility":"Neurology Consultants of Dallas, PA","status":"RECRUITING","city":"Dallas","state":"Texas","zip":"75243","country":"United States","contacts":[{"name":"J. Christina Howell","role":"CONTACT","phone":"214-750-9977","phoneExt":"293","email":"jchowell@neurologydallas.com"}],"geoPoint":{"lat":32.78306,"lon":-96.80667}},{"facility":"Tarrant Neurology Consultants","status":"NOT_YET_RECRUITING","city":"Fort Worth","state":"Texas","zip":"76104","country":"United States","contacts":[{"name":"Jamie Hill","role":"CONTACT","phone":"817-336-3968","email":"JHILL@TARRANTNEUROLOGY.COM"}],"geoPoint":{"lat":32.72541,"lon":-97.32085}},{"facility":"Michael E. DeBakey VA Medical Center","status":"WITHDRAWN","city":"Houston","state":"Texas","zip":"77030","country":"United States","geoPoint":{"lat":29.76328,"lon":-95.36327}},{"facility":"UT Health San Antonio","status":"RECRUITING","city":"San Antonio","state":"Texas","zip":"78229","country":"United States","contacts":[{"name":"Samantha Lewis","role":"CONTACT","phone":"210-450-7370","email":"Lewiss11@uthscsa.edu"}],"geoPoint":{"lat":29.42412,"lon":-98.49363}},{"facility":"Road Runner Research, Ltd","status":"RECRUITING","city":"San Antonio","state":"Texas","zip":"78249","country":"United States","contacts":[{"name":"Lori Santana","role":"CONTACT","phone":"210-949-0505","email":"lsantana@rrresearchsa.com"}],"geoPoint":{"lat":29.42412,"lon":-98.49363}},{"facility":"University of Utah","status":"RECRUITING","city":"Salt Lake City","state":"Utah","zip":"84132","country":"United States","contacts":[{"name":"Austin Strebel","role":"CONTACT","phone":"801-585-9266","email":"austin.strebel@hsc.utah.edu"}],"geoPoint":{"lat":40.76078,"lon":-111.89105}},{"facility":"UVM MC","status":"WITHDRAWN","city":"Burlington","state":"Vermont","zip":"05401","country":"United States","geoPoint":{"lat":44.47588,"lon":-73.21207}},{"facility":"University of Virginia","status":"RECRUITING","city":"Charlottesville","state":"Virginia","zip":"22903","country":"United States","contacts":[{"name":"Stacy Thompson","role":"CONTACT","phone":"434-982-4315","email":"src2h@uvahealth.org"}],"geoPoint":{"lat":38.02931,"lon":-78.47668}},{"facility":"Henrico Doctors Neurology Associates, LLC","status":"RECRUITING","city":"Richmond","state":"Virginia","zip":"23235","country":"United States","contacts":[{"name":"Gwendolyn Darby","role":"CONTACT","phone":"804-288-2742","email":"Gwendolyn.Darby@HCAHealthcare.com"}],"geoPoint":{"lat":37.55376,"lon":-77.46026}},{"facility":"Carilion Clinic","status":"RECRUITING","city":"Roanoke","state":"Virginia","zip":"24011","country":"United States","contacts":[{"name":"Kristina Cooper","role":"CONTACT","phone":"540-224-5856","email":"kecooper1@carilionclinic.org"}],"geoPoint":{"lat":37.27097,"lon":-79.94143}},{"facility":"STAT Research S.A.","status":"RECRUITING","city":"Ciudad Autónoma de Buenos Aires","state":"Buenos Aires","zip":"C1013AAB","country":"Argentina"},{"facility":"Hospital General de Agudos Dr. José María Ramos Mejia","status":"RECRUITING","city":"Balvanera","state":"Ciudad Autónoma de BuenosAires","zip":"C1221ADC","country":"Argentina","geoPoint":{"lat":-34.61032,"lon":-58.39766}},{"facility":"Centro de Educación Médica e Investigaciones Clínicas Norberto Quirno CEMIC-Elías Galván 4102","status":"RECRUITING","city":"Buenos Aires","state":"Ciudad Autónoma de BuenosAires","zip":"C1431FWO","country":"Argentina","geoPoint":{"lat":-34.61315,"lon":-58.37723}},{"facility":"Hospital Británico de Buenos Aires","status":"RECRUITING","city":"Buenos Aires","state":"Ciudad Autónoma de BuenosAires","zip":"C1437JCH","country":"Argentina","geoPoint":{"lat":-34.61315,"lon":-58.37723}},{"facility":"Investigaciones Sanatorio Del Sur","status":"RECRUITING","city":"San Miguel de Tucumán","state":"Tucumán Province","zip":"T4000AXL","country":"Argentina","geoPoint":{"lat":-26.81601,"lon":-65.21051}},{"facility":"Sanatorio de la Trinidad - Mitre","status":"RECRUITING","city":"Buenos Aires","zip":"C1039AAO","country":"Argentina","geoPoint":{"lat":-34.61315,"lon":-58.37723}},{"facility":"Hospital Italiano de Buenos Aires","status":"RECRUITING","city":"Buenos Aires","zip":"C1181ACH","country":"Argentina","geoPoint":{"lat":-34.61315,"lon":-58.37723}},{"facility":"Fundación Para La Lucha Contra Las Enfermedades Neurológicas de La Infancia - FLENI","status":"NOT_YET_RECRUITING","city":"Buenos Aires","zip":"C1428AQK","country":"Argentina","geoPoint":{"lat":-34.61315,"lon":-58.37723}},{"facility":"Instituto Privado Kremer","status":"RECRUITING","city":"Córdoba","zip":"X5004AOA","country":"Argentina","geoPoint":{"lat":-31.40648,"lon":-64.18853}},{"facility":"Conci Carpinella - Santa Rosa N° 748","status":"RECRUITING","city":"Córdoba","zip":"X5008HHW","country":"Argentina","geoPoint":{"lat":-31.40648,"lon":-64.18853}},{"facility":"Kepler Universitätsklinikum Linz - Med Campus III","status":"RECRUITING","city":"Linz","state":"Upper Austria","zip":"4020","country":"Austria","geoPoint":{"lat":48.30639,"lon":14.28611}},{"facility":"Christian Doppler-Klinik - Universitätsklinikum der PMU","status":"RECRUITING","city":"Salzburg","zip":"5020","country":"Austria","geoPoint":{"lat":47.79941,"lon":13.04399}},{"facility":"Universitätsklinikum St. Pölten","status":"RECRUITING","city":"Sankt Pölten","zip":"3100","country":"Austria","geoPoint":{"lat":48.20762,"lon":15.63725}},{"facility":"Medizinische Universitat Wien (Medical University of Vienna)","status":"RECRUITING","city":"Vienna","zip":"1090","country":"Austria","geoPoint":{"lat":48.20849,"lon":16.37208}},{"facility":"UZ Antwerpen","status":"RECRUITING","city":"Edegem","state":"Antwerpen","zip":"2650","country":"Belgium","geoPoint":{"lat":51.15662,"lon":4.44504}},{"facility":"Hôpital Erasme","status":"RECRUITING","city":"Anderlecht","state":"Brussels Capital","zip":"1070","country":"Belgium","geoPoint":{"lat":50.83619,"lon":4.31454}},{"facility":"Cliniques Universitaires Saint-Luc","status":"RECRUITING","city":"Brussels","state":"Brussels Capital","zip":"1200","country":"Belgium","geoPoint":{"lat":50.85045,"lon":4.34878}},{"facility":"CHU UCL Namur - Site Godinne","status":"RECRUITING","city":"Yvoir","state":"Namur","zip":"5530","country":"Belgium","geoPoint":{"lat":50.3279,"lon":4.88059}},{"facility":"UZ Gent","status":"RECRUITING","city":"Ghent","state":"Oost-Vlaanderen","zip":"9000","country":"Belgium","geoPoint":{"lat":51.05,"lon":3.71667}},{"facility":"Centro de especialidades médicas Vanguardia","status":"RECRUITING","city":"Temuco","state":"Región de la Araucanía","zip":"4780000","country":"Chile","geoPoint":{"lat":-38.73628,"lon":-72.59738}},{"facility":"Instituto Neurologico Thalamus","status":"RECRUITING","city":"Viña del Mar","state":"Región de Valparaíso","zip":"2520021","country":"Chile","geoPoint":{"lat":-33.02457,"lon":-71.55183}},{"facility":"Hospital Padre Hurtado","status":"RECRUITING","city":"Santiago","state":"Región-MetropolitanadeSantiago","zip":"8260094","country":"Chile","geoPoint":{"lat":-33.45694,"lon":-70.64827}},{"facility":"BIOCINETIC Ltda","status":"RECRUITING","city":"Santiago","state":"Región-MetropolitanadeSantiago","zip":"8320000","country":"Chile","geoPoint":{"lat":-33.45694,"lon":-70.64827}},{"facility":"Centro de Investigacion Clinica UC","status":"RECRUITING","city":"Santiago","state":"Región-MetropolitanadeSantiago","zip":"8320000","country":"Chile","geoPoint":{"lat":-33.45694,"lon":-70.64827}},{"facility":"Clinical Hospital Sveti duh","status":"RECRUITING","city":"Zagreb","state":"City of Zagreb","zip":"10000","country":"Croatia","geoPoint":{"lat":45.81444,"lon":15.97798}},{"facility":"Klinicki bolnicki centar Sestre Milosrdnice - Vinogradska cesta 29","status":"RECRUITING","city":"Zagreb","state":"City of Zagreb","zip":"10000","country":"Croatia","geoPoint":{"lat":45.81444,"lon":15.97798}},{"facility":"Clinical Hospital Center Rijeka - PPDS","status":"RECRUITING","city":"Rijeka","zip":"51000","country":"Croatia","geoPoint":{"lat":45.32673,"lon":14.44241}},{"facility":"Fakultni nemocnice v Motole","status":"RECRUITING","city":"Prague","state":"Praha, Hlavní Mesto","zip":"150 06","country":"Czechia","geoPoint":{"lat":50.08804,"lon":14.42076}},{"facility":"Fakultni nemocnice u sv. Anny v Brne","status":"RECRUITING","city":"Brno","state":"South Moravian","zip":"602 00","country":"Czechia","geoPoint":{"lat":49.19522,"lon":16.60796}},{"facility":"CHU de Strasbourg - Hôpital de Hautepierre","status":"NOT_YET_RECRUITING","city":"Strasbourg","state":"Bas-Rhin","zip":"67000","country":"France","geoPoint":{"lat":48.58392,"lon":7.74553}},{"facility":"CHU Dijon Bourgogne","status":"RECRUITING","city":"Dijon","state":"Côte-d'Or","zip":"21000","country":"France","geoPoint":{"lat":47.31344,"lon":5.01391}},{"facility":"CHU de Toulouse-Hôpital Pierre-Paul Riquet-Site de Purpan","status":"RECRUITING","city":"Toulouse","state":"Haute-Garonne","zip":"31059","country":"France","geoPoint":{"lat":43.60426,"lon":1.44367}},{"facility":"CHU de Montpellier- Hôpital Gui De Chauliac","status":"RECRUITING","city":"Montpellier","state":"Hérault","zip":"34295","country":"France","geoPoint":{"lat":43.61093,"lon":3.87635}},{"facility":"CHRU de Tours - Hôpital Bretonneau","status":"RECRUITING","city":"Tours","state":"Indre-et-Loire","zip":"37000","country":"France","geoPoint":{"lat":47.39484,"lon":0.70398}},{"facility":"CHRU Nancy","status":"RECRUITING","city":"Nancy","state":"Meurthe-et-Moselle","zip":"54000","country":"France","geoPoint":{"lat":48.68439,"lon":6.18496}},{"facility":"CHU de Lille - Hopital Claude Huriez","status":"RECRUITING","city":"Lille","state":"Nord","zip":"59037","country":"France","geoPoint":{"lat":50.63391,"lon":3.05512}},{"facility":"Hospices Civils de Lyon - 59 Bd Pinel","status":"RECRUITING","city":"Lyon","state":"Rhône","zip":"69003","country":"France","geoPoint":{"lat":45.74906,"lon":4.84789}},{"facility":"Hôpital Pontchaillou","status":"RECRUITING","city":"Rennes","zip":"35033","country":"France","geoPoint":{"lat":48.11109,"lon":-1.67431}},{"facility":"Pécsi Tudományegyetem Klinikai Kozpont -Ret u.","status":"RECRUITING","city":"Pécs","state":"Baranya","zip":"7623","country":"Hungary","geoPoint":{"lat":46.07617,"lon":18.22814}},{"facility":"Debreceni Egyetem Klinikai Kozpont Kenezy Gyula Campus","status":"RECRUITING","city":"Debrecen","state":"Hajdú-Bihar","zip":"4031","country":"Hungary","geoPoint":{"lat":47.53167,"lon":21.62444}},{"facility":"Budapesti Bajcsy-Zsilinszky Korhaz es Rendelointezet","status":"RECRUITING","city":"Budapest","zip":"1106","country":"Hungary","geoPoint":{"lat":47.49835,"lon":19.04045}},{"facility":"SE INK Juhasz Pal Epilepszia Központ","status":"NOT_YET_RECRUITING","city":"Budapest","zip":"1145","country":"Hungary","geoPoint":{"lat":47.49835,"lon":19.04045}},{"facility":"Kempenhaeghe - PPDS","status":"RECRUITING","city":"Heeze","state":"North Brabant","zip":"5591 VE","country":"Netherlands","geoPoint":{"lat":51.3828,"lon":5.57145}},{"facility":"Stichting Epilepsie Instellingen Nederland - Heemstede","status":"RECRUITING","city":"Heemstede","state":"North Holland","zip":"2103 SW","country":"Netherlands","geoPoint":{"lat":52.34992,"lon":4.62301}},{"facility":"Stichting Epilepsie Instellingen Nederland - Dokter Denekampweg 20","status":"RECRUITING","city":"Zwolle","state":"Overijssel","zip":"8025 BV","country":"Netherlands","geoPoint":{"lat":52.5125,"lon":6.09444}},{"facility":"AES - DRS - Synexus Polska Sp. z o.o. Oddzial w Poznaniu","status":"RECRUITING","city":"Poznan","state":"Greater Poland Voivodeship","zip":"60-702","country":"Poland","geoPoint":{"lat":52.40692,"lon":16.92993}},{"facility":"Przychodnia VISTAMED","status":"RECRUITING","city":"Wroclaw","state":"Lower Silesian Voivodeship","zip":"53-149","country":"Poland","geoPoint":{"lat":51.10286,"lon":17.03006}},{"facility":"Clinical Best Solutions - Lublin","status":"RECRUITING","city":"Lublin","state":"Lublin Voivodeship","zip":"20-078","country":"Poland","geoPoint":{"lat":51.25058,"lon":22.57009}},{"facility":"NZOZ IGNIS dr med. Alicja Lobinska","status":"RECRUITING","city":"Świdnik","state":"Lublin Voivodeship","zip":"21-040","country":"Poland","geoPoint":{"lat":51.21898,"lon":22.69621}},{"facility":"Twoja Przychodnia Nowosolskie Centrum Medyczne sp. z o.o","status":"RECRUITING","city":"Nowa Sól","state":"Lubusz Voivodeship","zip":"67-100","country":"Poland","geoPoint":{"lat":51.80333,"lon":15.71702}},{"facility":"Santa Familia PTG Lodz","status":"RECRUITING","city":"Lodz","state":"Lódzkie","zip":"90-302","country":"Poland","geoPoint":{"lat":51.77058,"lon":19.47395}},{"facility":"MTZ Clinical Research Powered by PRATIA - PPDS","status":"RECRUITING","city":"Warsaw","state":"Masovian Voivodeship","zip":"02-172","country":"Poland","geoPoint":{"lat":52.22977,"lon":21.01178}},{"facility":"Neurosphera SP. Z O.O","status":"RECRUITING","city":"Warsaw","state":"Masovian Voivodeship","zip":"02-829","country":"Poland","geoPoint":{"lat":52.22977,"lon":21.01178}},{"facility":"Instytut Psychiatrii i Neurologii","status":"RECRUITING","city":"Warsaw","state":"Masovian Voivodeship","zip":"02-957","country":"Poland","geoPoint":{"lat":52.22977,"lon":21.01178}},{"facility":"Centrum Badan Klinicznych PI-House sp. z o.o.","status":"RECRUITING","city":"Gdansk","state":"Pomeranian Voivodeship","zip":"80-546","country":"Poland","geoPoint":{"lat":54.35227,"lon":18.64912}},{"facility":"Copernicus Podmiot Leczniczy Sp. z o.o. - ul. Nowe Ogrody 1-6","status":"RECRUITING","city":"Gdansk","zip":"80-803","country":"Poland","geoPoint":{"lat":54.35227,"lon":18.64912}},{"facility":"Novo-Med Zielinski i wsp. Sp.J. - ul. Brynowska 44","status":"RECRUITING","city":"Katowice","zip":"40-594","country":"Poland","geoPoint":{"lat":50.2597,"lon":19.02173}},{"facility":"Pratia MCM Kraków","status":"RECRUITING","city":"Krakow","zip":"30-727","country":"Poland","geoPoint":{"lat":50.06143,"lon":19.93658}},{"facility":"LANDA Specjalistyczne Gabinety Lekarskie","status":"RECRUITING","city":"Krakow","zip":"31-156","country":"Poland","geoPoint":{"lat":50.06143,"lon":19.93658}},{"facility":"University Clinical Centre Maribor","status":"RECRUITING","city":"Maribor","zip":"2000","country":"Slovenia","geoPoint":{"lat":46.55583,"lon":15.64593}},{"facility":"InnoMed Clinical Trial Centre","status":"RECRUITING","city":"Cape Town","state":"Western Cape","zip":"7530","country":"South Africa","geoPoint":{"lat":-33.92584,"lon":18.42322}},{"facility":"Groote Schuur Hospital","status":"RECRUITING","city":"Cape Town","state":"Western Cape","zip":"7700","country":"South Africa","geoPoint":{"lat":-33.92584,"lon":18.42322}},{"facility":"Klinik Lengg AG","status":"RECRUITING","city":"Zurich","state":"Zürich (de)","zip":"8008","country":"Switzerland","geoPoint":{"lat":47.36667,"lon":8.55}}]}},"derivedSection":{"miscInfoModule":{"versionHolder":"2026-02-25"},"conditionBrowseModule":{"meshes":[{"id":"D004828","term":"Epilepsies, Partial"},{"id":"D004827","term":"Epilepsy"},{"id":"D012640","term":"Seizures"},{"id":"D000069279","term":"Drug Resistant Epilepsy"}],"ancestors":[{"id":"D001927","term":"Brain Diseases"},{"id":"D002493","term":"Central Nervous System Diseases"},{"id":"D009422","term":"Nervous System Diseases"},{"id":"D009461","term":"Neurologic Manifestations"},{"id":"D012816","term":"Signs and Symptoms"},{"id":"D013568","term":"Pathological Conditions, Signs and Symptoms"}]}},"hasResults":false},
{"protocolSection":{"identificationModule":{"nctId":"NCT06419322","orgStudyIdInfo":{"id":"ACE SMA"},"secondaryIdInfos":[{"id":"PID17165","type":"OTHER","domain":"University Oxford Hospitals NHS Foundation Trust"}],"organization":{"fullName":"University of Oxford","class":"OTHER"},"briefTitle":"Acceptability, Feasibility, Safety and Efficacy of a Optimized Rehabilitation Program for Treated Patients With Spinal Muscular Atrophy (SMA).","officialTitle":"A Monocentric, Prospective and Longitudinal Study Investigating the Acceptability, Feasibility, Safety and Efficacy of an Optimized Rehabilitation Program for Treated Patients With SMA Compared to the Current Rehabilitation Program in United Kingdom: ACE SMA.","acronym":"ACE SMA"},"statusModule":{"statusVerifiedDate":"2024-05","overallStatus":"ACTIVE_NOT_RECRUITING","expandedAccessInfo":{"hasExpandedAccess":false},"startDateStruct":{"date":"2024-06-01","type":"ACTUAL"},"primaryCompletionDateStruct":{"date":"2026-06","type":"ESTIMATED"},"completionDateStruct":{"date":"2026-12","type":"ESTIMATED"},"studyFirstSubmitDate":"2024-05-02","studyFirstSubmitQcDate":"2024-05-16","studyFirstPostDateStruct":{"date":"2024-05-17","type":"ACTUAL"},"lastUpdateSubmitDate":"2025-01-30","lastUpdatePostDateStruct":{"date":"2025-02-03","type":"ACTUAL"}},"sponsorCollaboratorsModule":{"responsibleParty":{"type":"SPONSOR"},"leadSponsor":{"name":"University of Oxford","class":"OTHER"},"collaborators":[{"name":"Oxford Brookes University","class":"OTHER"},{"name":"Oxford University Hospitals NHS Trust","class":"OTHER"},{"name":"ACE SMA Charity","class":"UNKNOWN"},{"name":"Roche Products Limited","class":"UNKNOWN"},{"name":"Scholar Rock, Inc.","class":"INDUSTRY"},{"name":"Biohaven Therapeutics Ltd.","class":"INDUSTRY"},{"name":"Rally Round Rupert Charity","class":"UNKNOWN"}]},"oversightModule":{"oversightHasDmc":false,"isFdaRegulatedDrug":false,"isFdaRegulatedDevice":false},"descriptionModule":{"briefSummary":"The goal of this study is to investigate the acceptability, feasibility, safety and efficacy of an optimized rehabilitation program for treated patients with spinal muscular atrophy (SMA) compared to the current rehabilitation program in the United Kingdom. The aim is to provide patients with more hands on physiotherapy and access to rehabilitation devices at home to support parents currently providing rehabilitation on their own.","detailedDescription":"The main study objective is to investigate whether an optimized rehabilitation program would be accepted and is feasible within the SMA patient community.\n\nThe optimized program will comprise of goal orientated rehabilitation with more frequent hands on physiotherapy (every 2 weeks) as well as a SMA approved rehabilitation device used at home on a weekly basis, to provide the most appropriate therapy for each individual patient. All study participants will receive the optimized rehabilitation program over 12 months. An external control group will be used to determine the potential efficacy.\n\nResearch study visits will take place at baseline, month 6 and month 12. At these visits a general physical exam will be undertaken alongside collecting the participant and carer perception, satisfaction and compliancy of the rehabilitation program. Motor function assessments according to age and ambulatory status will be assessed to help evaluate potential therapeutic benefits."},"conditionsModule":{"conditions":["Spinal Muscular Atrophy"],"keywords":["physiotherapy","rehabilitation","SMA","acceptability","feasibility","United Kingdom","physical therapy","prospective","Spinal Muscular Atrophy"]},"designModule":{"studyType":"INTERVENTIONAL","phases":["NA"],"designInfo":{"allocation":"NA","interventionModel":"SINGLE_GROUP","interventionModelDescription":"All participants will receive the optimized rehabilitation program (intervention). An external control group will be used to determine the potential efficacy.","primaryPurpose":"OTHER","maskingInfo":{"masking":"NONE"}},"enrollmentInfo":{"count":14,"type":"ESTIMATED"}},"armsInterventionsModule":{"armGroups":[{"label":"Treated cohort","type":"OTHER","interventionNames":["Other: Optimized rehabilitation program"]}],"interventions":[{"type":"OTHER","name":"Optimized rehabilitation program","description":"Consisting of: goal-oriented rehabilitation, hands on physiotherapy sessions and home use of SMA approved rehabilitation device.","armGroupLabels":["Treated cohort"]}]},"outcomesModule":{"primaryOutcomes":[{"measure":"Acceptability of an optimized rehabilitation program. Measured as number of eligible patients who accepted to participate in the study compared to the number of eligible patients who have refused to participate. Endpoint: 70% of acceptability.","description":"Number of eligible patients who accepted to participate in the study compared to the number of eligible patients who have refused to participate.","timeFrame":"Baseline visit"},{"measure":"Feasibility of an optimized rehabilitation program. Measured as the number of patients who complete the study compared to the number of included patients. Endpoint: 60% of feasibility.","description":"Number of patients who complete the study compared to the number of included patients.","timeFrame":"Month 12 (end of study)"}],"secondaryOutcomes":[{"measure":"Safety of an optimized rehabilitation program. Measured as the number of serious adverse events (SAE) compared to the year before the baseline.","description":"Number of Serious Adverse Events (SAEs).","timeFrame":"From baseline to month 12 (end of study)"},{"measure":"Carer perception and satification measured through the Clinical Global Impression scale - Improvement (CGI I). Comparison of CGI-S score with CGI-I score of the treated group.","description":"Potential effects of the optimized rehabilitation program on patients experience.","timeFrame":"Month 6 and Month 12 (end of study)."},{"measure":"Carer perception and satification measured through the Clinical Global Impression scale - Severity (CGI-S). Comparison of CGI-S score with CGI-I score of the treated group.","description":"Potential effects of the optimized rehabilitation program on patients experience.","timeFrame":"Baseline visit: CGI-S."}],"otherOutcomes":[{"measure":"The Children's Hospital of Philadelphia Infant Test of Neuromuscular Disorders (CHOP INTEND): maximum score is 64 points. Measuring a change in functional total score between the treated study cohort and a control dataset.","description":"Evaluation potential therapeutic benefits through assessment of motor functional scales.","timeFrame":"Baseline, Month 6, Month 12 (end of study)."},{"measure":"The Hammersmith Infant Neurological Examination section 2 (HINE-2): maximum score is 26 points. Measuring a change in functional total score between the treated study cohort and a control dataset.","description":"Evaluation potential therapeutic benefits through assessment of motor functional scales.","timeFrame":"Baseline, Month 6, Month 12 (end of study)."},{"measure":"Revised Hammersmith Scale (RHS). The maximum score for RHS is 69 points. Measuring a change in functional total score between the treated study cohort and a control dataset.","description":"Evaluation potential therapeutic benefits through assessment of motor functional scales.","timeFrame":"Baseline, Month 6, Month 12 (end of study)."},{"measure":"Hammersmith Functional Motor Scale Expanded (HFMSE) combined assessment. The maximum score is 66 points. Measuring a change in functional total score between the treated study cohort and a control dataset.","description":"Evaluation potential therapeutic benefits through assessment of motor functional scales.","timeFrame":"Baseline, Month 6, Month 12 (end of study)."},{"measure":"World Health organization (WHO) developmental milestones: the final result is the highest achievable motor milestone. Measuring a change in functional total score between the treated study cohort and a control dataset.","description":"Evaluation potential therapeutic benefits through assessment of motor functional scales.","timeFrame":"Baseline, Month 6, Month 12 (end of study)."},{"measure":"Revised upper limb module (RULM): from 30 months of age: maximum score is 37 points. Measuring a change in functional total score between the treated study cohort and a control dataset.","description":"Evaluation potential therapeutic benefits through assessment of motor functional scales.","timeFrame":"Baseline, Month 6, Month 12 (end of study)."},{"measure":"6 Minute Walk test (6MWT): from 4 years of age. Measuring a change in functional total score between the treated study cohort and a control dataset.","description":"Evaluation potential therapeutic benefits through assessment of motor functional scales.","timeFrame":"Baseline, Month 6, Month 12 (end of study)."}]},"eligibilityModule":{"eligibilityCriteria":"Patient participant Eligibility Criteria:\n\nInclusion Criteria:\n\n* Genetically confirmed SMA considered as a non-sitter, sitter or walker\n* Post-symptomatically treated and on stable dose for 12 months with any disease-modifying market-approved drug\n* Patients from 1-10 years of age at baseline\n* Parent(s)/legal guardian(s) of patients less than 16 years of age must provide written informed consent prior to the patient's participation in the study\n* Willing and able to comply with all protocol requirements and procedures.\n\nExclusion Criteria:\n\nThe participant may not enter the trial if ANY of the following apply:\n\n* Any acute or chronic condition which, as assessed by the investigator, significantly interferes with the rehabilitation of the patient\n* Need of diurnal and/or invasive ventilation, naps excluded\n* Currently enrolled in a treatment study; or treatment with an experimental therapy\n* Any surgical and/or medical intervention, according to the investigator, 3 months before baseline and/or during the study participation.\n\nCarer (considered as participant) Eligibility Criteria:\n\nInclusion Criteria:\n\n* Willing and able to comply with all protocol requirements and procedures\n* Carer's child has been included in study.\n\nExclusion Criteria:\n\n• No exclusion criteria.","healthyVolunteers":false,"sex":"ALL","minimumAge":"1 Year","maximumAge":"10 Years","stdAges":["CHILD"]},"contactsLocationsModule":{"overallOfficials":[{"name":"Charlotte Lilien","affiliation":"University of Oxford, Department of Paediatrics","role":"PRINCIPAL_INVESTIGATOR"}],"locations":[{"facility":"Oxford Brookes University","city":"Oxford","state":"Oxfordshire","zip":"OX3 0BP","country":"United Kingdom","geoPoint":{"lat":51.75222,"lon":-1.25596}}]},"ipdSharingStatementModule":{"ipdSharing":"NO"}},"derivedSection":{"miscInfoModule":{"versionHolder":"2026-02-25"},"conditionBrowseModule":{"meshes":[{"id":"D009134","term":"Muscular Atrophy, Spinal"}],"ancestors":[{"id":"D013118","term":"Spinal Cord Diseases"},{"id":"D002493","term":"Central Nervous System Diseases"},{"id":"D009422","term":"Nervous System Diseases"},{"id":"D016472","term":"Motor Neuron Disease"},{"id":"D019636","term":"Neurodegenerative Diseases"},{"id":"D009468","term":"Neuromuscular Diseases"}]}},"hasResults":false},
{"protocolSection":{"identificationModule":{"nctId":"NCT07281495","orgStudyIdInfo":{"id":"BHV2000-202"},"organization":{"fullName":"Biohaven Pharmaceuticals, Inc.","class":"INDUSTRY"},"briefTitle":"Taldefgrobep Alfa in Adults With Overweight and Obesity","officialTitle":"A Phase 2b, Multicenter, Randomized, Double-Blind, Placebo-Controlled, Multiple Dose Study With Open-Label Extension to Assess the Efficacy, Safety, and Pharmacokinetics of Subcutaneously Administered Taldefgrobep Alfa in Adults Living With Overweight and Obesity"},"statusModule":{"statusVerifiedDate":"2026-01","overallStatus":"RECRUITING","expandedAccessInfo":{"hasExpandedAccess":false},"startDateStruct":{"date":"2025-11-24","type":"ACTUAL"},"primaryCompletionDateStruct":{"date":"2026-09","type":"ESTIMATED"},"completionDateStruct":{"date":"2026-09","type":"ESTIMATED"},"studyFirstSubmitDate":"2025-12-04","studyFirstSubmitQcDate":"2025-12-04","studyFirstPostDateStruct":{"date":"2025-12-15","type":"ACTUAL"},"lastUpdateSubmitDate":"2026-01-29","lastUpdatePostDateStruct":{"date":"2026-01-30","type":"ACTUAL"}},"sponsorCollaboratorsModule":{"responsibleParty":{"type":"SPONSOR"},"leadSponsor":{"name":"Biohaven Therapeutics Ltd.","class":"INDUSTRY"}},"oversightModule":{"isFdaRegulatedDrug":true,"isFdaRegulatedDevice":false},"descriptionModule":{"briefSummary":"This is a multicenter, randomized, double-blind, placebo-controlled, multiple dose study to evaluate the efficacy, safety, and tolerability of taldefgrobep alfa in adults with overweight and obesity, with an open-label extension."},"conditionsModule":{"conditions":["Obesity","Overweight"],"keywords":["myostatin","activin"]},"designModule":{"studyType":"INTERVENTIONAL","phases":["PHASE2"],"designInfo":{"allocation":"RANDOMIZED","interventionModel":"PARALLEL","primaryPurpose":"TREATMENT","maskingInfo":{"masking":"QUADRUPLE","whoMasked":["PARTICIPANT","CARE_PROVIDER","INVESTIGATOR","OUTCOMES_ASSESSOR"]}},"enrollmentInfo":{"count":150,"type":"ESTIMATED"}},"armsInterventionsModule":{"armGroups":[{"label":"Taldefgrobep Alpha once weekly","type":"EXPERIMENTAL","interventionNames":["Drug: Taldefgrobep Alfa"]},{"label":"Placebo once weekly","type":"PLACEBO_COMPARATOR","interventionNames":["Drug: Placebo"]},{"label":"Taldefgrobep Alpha once every 4 weeks","type":"EXPERIMENTAL","interventionNames":["Drug: Taldefgrobep Alfa"]},{"label":"Placebo once every 4 weeks","type":"PLACEBO_COMPARATOR","interventionNames":["Drug: Placebo"]}],"interventions":[{"type":"DRUG","name":"Taldefgrobep Alfa","description":"Subcutaneous injection administered once each week","armGroupLabels":["Taldefgrobep Alpha once weekly"],"otherNames":["BHV-2000"]},{"type":"DRUG","name":"Placebo","description":"Subcutaneous injection (matching placebo) administered once each week","armGroupLabels":["Placebo once weekly"]},{"type":"DRUG","name":"Taldefgrobep Alfa","description":"Subcutaneous injection administered once every 4 weeks","armGroupLabels":["Taldefgrobep Alpha once every 4 weeks"],"otherNames":["BHV-2000"]},{"type":"DRUG","name":"Placebo","description":"Subcutaneous injection (matching placebo) administered once every 4 weeks","armGroupLabels":["Placebo once every 4 weeks"]}]},"outcomesModule":{"primaryOutcomes":[{"measure":"Percent change in total body weight from Baseline to Week 24","timeFrame":"Baseline to Week 24"}],"secondaryOutcomes":[{"measure":"Percent change in total body fat mass from Baseline to Week 24","timeFrame":"Baseline to Week 24"},{"measure":"Percent change in total body lean mass from Baseline to Week 24","timeFrame":"Baseline to Week 24"},{"measure":"Number of participants with death, SAEs, AEs considered related to study drug, moderate and severe AEs, and Grade 3 to 4 laboratory abnormalities","timeFrame":"Through week 24"}]},"eligibilityModule":{"eligibilityCriteria":"Key Inclusion Criteria:\n\n1. a. BMI \\> 30 kg/m2 and BMI \\< 42 kg/m2, OR b. BMI ≥ 27 kg/m2 and BMI \\<30 kg/m2 with at least one weight-related co-morbidity\n2. History of at least one self-reported unsuccessful dietary effort to lose body weight.\n3. Stable body weight and stable physical activity within 3 months prior to screening per participant self-report.\n4. All participants must adhere to protocol contraception requirements\n\nKey Exclusion Criteria:\n\n1. History of diabetes, including individuals with a HbA1c of ≥ 6.5% at Screening\n2. Non-ambulatory participants, defined as unable to take at least 10 steps independently.\n3. Females currently pregnant or breastfeeding, or who intend to become pregnant or to breastfeed.\n4. Participation in another investigational clinical trial while participating in this clinical trial","healthyVolunteers":false,"sex":"ALL","minimumAge":"18 Years","maximumAge":"65 Years","stdAges":["ADULT","OLDER_ADULT"]},"contactsLocationsModule":{"centralContacts":[{"name":"Chief Medical Officer","role":"CONTACT","phone":"203-404-0410","email":"clinicaltrials@biohavenpharma.com"}],"locations":[{"facility":"Site-001","status":"RECRUITING","city":"Chula Vista","state":"California","zip":"91911","country":"United States","geoPoint":{"lat":32.64005,"lon":-117.0842}},{"facility":"Site-014","status":"RECRUITING","city":"Montclair","state":"California","zip":"97163","country":"United States","geoPoint":{"lat":34.07751,"lon":-117.68978}},{"facility":"Site-011","status":"RECRUITING","city":"Sacramento","state":"California","zip":"95821","country":"United States","geoPoint":{"lat":38.58157,"lon":-121.4944}},{"facility":"Site-018","status":"RECRUITING","city":"Tustin","state":"California","zip":"92780","country":"United States","geoPoint":{"lat":33.74585,"lon":-117.82617}},{"facility":"Site-008","status":"RECRUITING","city":"Palm Springs","state":"Florida","zip":"33461","country":"United States","geoPoint":{"lat":26.6359,"lon":-80.09615}},{"facility":"Site-015","status":"RECRUITING","city":"St. Petersburg","state":"Florida","zip":"33704","country":"United States","geoPoint":{"lat":27.77086,"lon":-82.67927}},{"facility":"Site-007","status":"RECRUITING","city":"Chicago","state":"Illinois","zip":"60625","country":"United States","geoPoint":{"lat":41.85003,"lon":-87.65005}},{"facility":"Site-016","status":"RECRUITING","city":"Indianapolis","state":"Indiana","zip":"46254","country":"United States","geoPoint":{"lat":39.76838,"lon":-86.15804}},{"facility":"Site-010","status":"RECRUITING","city":"Baton Rouge","state":"Louisiana","zip":"70808","country":"United States","geoPoint":{"lat":30.44332,"lon":-91.18747}},{"facility":"Site-009","status":"RECRUITING","city":"Metairie","state":"Louisiana","zip":"70006","country":"United States","geoPoint":{"lat":29.98409,"lon":-90.15285}},{"facility":"Site-006","status":"RECRUITING","city":"City of Saint Peters","state":"Missouri","zip":"63303","country":"United States","geoPoint":{"lat":38.80033,"lon":-90.62651}},{"facility":"Site-003","status":"RECRUITING","city":"Springfield","state":"Missouri","zip":"65807","country":"United States","geoPoint":{"lat":37.21533,"lon":-93.29824}},{"facility":"Site-019","status":"RECRUITING","city":"Monroe","state":"North Carolina","zip":"28112","country":"United States","geoPoint":{"lat":34.98543,"lon":-80.54951}},{"facility":"Site-002","status":"RECRUITING","city":"Fargo","state":"North Dakota","zip":"58104","country":"United States","geoPoint":{"lat":46.87719,"lon":-96.7898}},{"facility":"Site-017","status":"RECRUITING","city":"North Charleston","state":"South Carolina","zip":"29405","country":"United States","geoPoint":{"lat":32.85462,"lon":-79.97481}},{"facility":"Site-005","status":"RECRUITING","city":"Austin","state":"Texas","zip":"78745","country":"United States","geoPoint":{"lat":30.26715,"lon":-97.74306}},{"facility":"Site-012","status":"RECRUITING","city":"McKinney","state":"Texas","zip":"75069","country":"United States","geoPoint":{"lat":33.19762,"lon":-96.61527}},{"facility":"Site-013","status":"RECRUITING","city":"San Antonio","state":"Texas","zip":"78229","country":"United States","geoPoint":{"lat":29.42412,"lon":-98.49363}},{"facility":"Site-004","status":"RECRUITING","city":"Arlington","state":"Virginia","zip":"22205","country":"United States","geoPoint":{"lat":38.88101,"lon":-77.10428}}]}},"derivedSection":{"miscInfoModule":{"versionHolder":"2026-02-25"},"conditionBrowseModule":{"meshes":[{"id":"D009765","term":"Obesity"},{"id":"D050177","term":"Overweight"}],"ancestors":[{"id":"D044343","term":"Overnutrition"},{"id":"D009748","term":"Nutrition Disorders"},{"id":"D009750","term":"Nutritional and Metabolic Diseases"},{"id":"D001835","term":"Body Weight"},{"id":"D012816","term":"Signs and Symptoms"},{"id":"D013568","term":"Pathological Conditions, Signs and Symptoms"}]}},"hasResults":false},
{"protocolSection":{"identificationModule":{"nctId":"NCT06309966","orgStudyIdInfo":{"id":"BHV7000-303"},"secondaryIdInfos":[{"id":"2023-508811-21","type":"REGISTRY","domain":"EU CTR"}],"organization":{"fullName":"Biohaven Pharmaceuticals, Inc.","class":"INDUSTRY"},"briefTitle":"Study to Determine if BHV-7000 is Effective and Safe in Adults With Refractory Focal Onset Epilepsy","officialTitle":"A Phase 2/3 Multicenter, Randomization, Double-Blind, Placebo-Controlled, Study to Evaluate the Efficacy, Safety and Tolerability of BHV-7000 in Subjects With Refractory Focal Onset Epilepsy","acronym":"RISE 3"},"statusModule":{"statusVerifiedDate":"2026-02","overallStatus":"RECRUITING","expandedAccessInfo":{"hasExpandedAccess":false},"startDateStruct":{"date":"2024-05-13","type":"ACTUAL"},"primaryCompletionDateStruct":{"date":"2026-05","type":"ESTIMATED"},"completionDateStruct":{"date":"2026-05","type":"ESTIMATED"},"studyFirstSubmitDate":"2024-03-08","studyFirstSubmitQcDate":"2024-03-08","studyFirstPostDateStruct":{"date":"2024-03-13","type":"ACTUAL"},"lastUpdateSubmitDate":"2026-02-23","lastUpdatePostDateStruct":{"date":"2026-02-25","type":"ACTUAL"}},"sponsorCollaboratorsModule":{"responsibleParty":{"type":"SPONSOR"},"leadSponsor":{"name":"Biohaven Therapeutics Ltd.","class":"INDUSTRY"}},"oversightModule":{"oversightHasDmc":true,"isFdaRegulatedDrug":true,"isFdaRegulatedDevice":false},"descriptionModule":{"briefSummary":"The purpose of this study is to determine whether BHV-7000 is effective in the treatment of refractory focal epilepsy."},"conditionsModule":{"conditions":["Focal Epilepsy"],"keywords":["Focal Epilepsy","Epilepsy","Seizure","Refractory Epilepsy","Partial Epilepsy"]},"designModule":{"studyType":"INTERVENTIONAL","phases":["PHASE2","PHASE3"],"designInfo":{"allocation":"RANDOMIZED","interventionModel":"PARALLEL","primaryPurpose":"TREATMENT","maskingInfo":{"masking":"QUADRUPLE","whoMasked":["PARTICIPANT","CARE_PROVIDER","INVESTIGATOR","OUTCOMES_ASSESSOR"]}},"enrollmentInfo":{"count":390,"type":"ESTIMATED"}},"armsInterventionsModule":{"armGroups":[{"label":"BHV-7000 50 mg","type":"EXPERIMENTAL","interventionNames":["Drug: BHV-7000"]},{"label":"BHV-7000 75 mg","type":"EXPERIMENTAL","interventionNames":["Drug: BHV-7000"]},{"label":"Placebo","type":"PLACEBO_COMPARATOR","interventionNames":["Drug: Placebo"]}],"interventions":[{"type":"DRUG","name":"BHV-7000","description":"BHV-7000 50 mg. Participants will take blinded investigational product (IP) once daily","armGroupLabels":["BHV-7000 50 mg"]},{"type":"DRUG","name":"BHV-7000","description":"BHV-7000 75 mg. Participants will take blinded investigational product (IP) once daily","armGroupLabels":["BHV-7000 75 mg"]},{"type":"DRUG","name":"Placebo","description":"Matching placebo taken once daily","armGroupLabels":["Placebo"]}]},"outcomesModule":{"primaryOutcomes":[{"measure":"Change from Baseline in 28-day average seizure frequency","description":"To compare the efficacy of each of 2 doses of BHV-7000 to placebo as an adjunctive therapy for refractory focal onset epilepsy as measured by the change from OP (observational phase) in 28-day average seizure frequency. The primary objective will be measured by comparing the observation phase (8 weeks) to the 8-week double-blind treatment phase.","timeFrame":"Baseline, Week 8 to Week 16"}],"secondaryOutcomes":[{"measure":"Percentage of Participants with at at least 50% reduction in seizure frequency per month","description":"To compare the efficacy of 2 dose strengths of BHV-7000 to placebo as adjunctive therapy for refractory focal onset epilepsy as measured by the proportion of subjects that have at least a 50% reduction in seizures per month (28 days). This objective will be measured by comparing the proportion of subjects with at least a 50% reduction in 28-day average seizure frequency over the course of the 8 week double-blind phase to the observation phase.","timeFrame":"Baseline, Week 8 to Week 16"},{"measure":"Change from Baseline in 28-day average seizure frequency during first month of treatment","description":"To compare the efficacy of BHV-7000 to placebo during the first month of treatment. This objective will be measured by the change in log-transformed 28-day adjusted seizure frequency from observation phase over the first month of the double blind phase.","timeFrame":"Baseline, Week 8 to Week 12"},{"measure":"Percentage of Participants with at at least 75% reduction in seizure frequency per month","description":"To compare the efficacy of BHV-7000 to placebo as measured by the proportion of subjects that have at least a 75% reduction in seizures per month (28 days). This objective will be measured by comparing the proportion of subjects with at least a 75% reduction in 28-day average seizure frequency over the course of the double-blind phase compared to the observation phase.","timeFrame":"Baseline, Week 8 to Week 16"},{"measure":"Percentage of Participants with seizure freedom during DB Phase","description":"To compare the efficacy of BHV-7000 to placebo on seizure freedom (100% seizure reduction during the DBP phase). This objective will be measured by proportion of subjects that are seizure free during the double-blind phase.","timeFrame":"Week 8 to Week 16"},{"measure":"Change from baseline in 7-day adjusted seizure frequency during first week of treatment","description":"To compare the efficacy of BHV-7000 to placebo during the first week of treatment. This objective will be measured by the change in log-transformed 7-day adjusted seziure frequency from observation phase over the first week of the double-blind phase.","timeFrame":"Baseline, Week 8 to Week 9"},{"measure":"Change from baseline in Patient Global Impression of Change (PGI-C)","description":"To compare the efficacy of BHV-7000 to placebo on the patient global impression of change (PGI-C). This objective will be measured by proportion of subjects at week 8 of double-blind treatment phase with a PGI-C response of \"minimally improved\", \"much improved\" or \"very much improved\". This scale is a 7-point Likert scale with response options of:\n\n(1) \"very much improved\" , (2) \"much improved\", (3) \"minimally improved\", (4) \"no change\", (5) \"minimally worse\", (6) \"much worse\", (7) and \"very much worse\"","timeFrame":"Baseline, Week 16"},{"measure":"Number of Participants With Deaths, Serious AEs (SAEs), AEs Leading to Study Drug Discontinuation, and moderate or severe AEs","description":"To assess the safety and tolerability of BHV-7000. This objective will be measured by assessing the number of unique subjects with deaths, SAEs, AEs leading to discontinuation, and moderate and severe AEs.","timeFrame":"Week 8 to Week 16"},{"measure":"Number of Participants With Clinically Significant Laboratory Abnormalities","description":"To assess the safety and tolerability of BHV-7000. This objective will be measured by assessing the number of unique subjects with grade 3 or 4 laboratory abnormalities.","timeFrame":"Week 8 to Week 16"}]},"eligibilityModule":{"eligibilityCriteria":"Key Inclusion Criteria:\n\n1. Male and Female participants 18 to 75 years of age at time of consent.\n2. Diagnosis of Focal Onset Epilepsy at least 1 year prior to screening visit defined by 2017 International League Against Epilepsy (ILAE) Classification and based on requirements of Epilepsy Adjudication criteria.\n\n   a. Focal seizures i. Focal aware seizures with clinically observable signs and/or symptoms ii. Focal impaired awareness seizures with clinically observable signs and/or symptoms iii. Focal to bilateral tonic-clonic seizures\n3. Subject meets the 2009 ILAE definition of drug resistant epilepsy, failure of adequate trials of two tolerated and appropriately chosen and used anti-seizure medication (ASM) schedules (whether as monotherapies or in combination) to achieve sustained seizure freedom.\n4. Ability to keep accurate seizure diaries\n5. Current treatment with at least 1 and up to 3 ASMs and 4 epilepsy treatments in total\n\nKey Exclusion Criteria:\n\n1. History of status epilepticus (convulsive status epilepticus for \\> 5 minutes or focal status epilepticus with impaired consciousness for \\> 10 minutes) within the last 6 months prior to screening visit that is not consistent with the subject's habitual seizure.\n2. History of repetitive/cluster seizures (where individual seizures cannot be counted) within the last 6 months prior to screening visit and during observation phase.\n3. Resection neurosurgery for seizures \\<4 months prior to the screening visit.\n4. Radiosurgery performed \\<2 years prior to the screening visit.\n5. Subjects with only focal aware nonmotor seizures which involve subjective sensory or psychic phenomena only, without impairment of consciousness or awareness (formally called simple partial seizures), with or without ictal EEG correlation with clinical symptoms.\n6. Any condition that would interfere with the subject's ability to comply with study instructions, place the subject at unacceptable risk, and/or confound the interpretation of safety or efficacy data from the study, as judged by the Investigator","healthyVolunteers":false,"sex":"ALL","minimumAge":"18 Years","maximumAge":"75 Years","stdAges":["ADULT","OLDER_ADULT"]},"contactsLocationsModule":{"centralContacts":[{"name":"Chief Medical Officer","role":"CONTACT","phone":"203-404-0410","email":"clinicaltrials@biohavenpharma.com"}],"locations":[{"facility":"Accel Research","status":"WITHDRAWN","city":"Birmingham","state":"Alabama","zip":"35244","country":"United States","geoPoint":{"lat":33.52066,"lon":-86.80249}},{"facility":"Onyx Clinical Trials","status":"NOT_YET_RECRUITING","city":"Peoria","state":"Arizona","zip":"85381","country":"United States","geoPoint":{"lat":33.5806,"lon":-112.23738}},{"facility":"Xenoscience, Inc.","status":"RECRUITING","city":"Phoenix","state":"Arizona","zip":"85004","country":"United States","contacts":[{"name":"Derek Soto","role":"CONTACT","phone":"602-274-9500","email":"dsoto@xenoscience.com"}],"geoPoint":{"lat":33.44838,"lon":-112.07404}},{"facility":"University of Arizona / Banner University Medical Center Phoenix","status":"RECRUITING","city":"Phoenix","state":"Arizona","zip":"85006","country":"United States","geoPoint":{"lat":33.44838,"lon":-112.07404}},{"facility":"ARENSIA Exploratory Medicine","status":"RECRUITING","city":"Phoenix","state":"Arizona","zip":"85015","country":"United States","contacts":[{"name":"Corina Lugo","role":"CONTACT","phone":"602-693-1183","email":"contact-PHX@arensia-em.com"}],"geoPoint":{"lat":33.44838,"lon":-112.07404}},{"facility":"Clinical Trials, Inc.","status":"RECRUITING","city":"Little Rock","state":"Arkansas","zip":"72205","country":"United States","geoPoint":{"lat":34.74648,"lon":-92.28959}},{"facility":"Amicis Research Center","status":"WITHDRAWN","city":"Lancaster","state":"California","zip":"93534","country":"United States","geoPoint":{"lat":34.69804,"lon":-118.13674}},{"facility":"Memorialcare Miller Children's & Women's Hospital Long Beach","status":"RECRUITING","city":"Long Beach","state":"California","zip":"90806","country":"United States","contacts":[{"name":"Francine Metcalf-Nodwell","role":"CONTACT","phone":"562-933-9068","email":"fmetcalfnodwell@memorialcare.org"}],"geoPoint":{"lat":33.76696,"lon":-118.18923}},{"facility":"Tri Valley Neurology Medical Associates, Inc.","status":"RECRUITING","city":"Mission Hills","state":"California","zip":"91345","country":"United States","geoPoint":{"lat":34.68609,"lon":-120.43683}},{"facility":"Stanford University","status":"NOT_YET_RECRUITING","city":"Palo Alto","state":"California","zip":"94304","country":"United States","geoPoint":{"lat":37.44188,"lon":-122.14302}},{"facility":"Profound Research LLC","status":"RECRUITING","city":"Poway","state":"California","zip":"92065","country":"United States","contacts":[{"name":"April Tenorio","role":"CONTACT","phone":"760-732-0557","phoneExt":"x 2135","email":"april@profoundresearch.io"}],"geoPoint":{"lat":32.96282,"lon":-117.03586}},{"facility":"Kaiser Permanente","status":"WITHDRAWN","city":"Aurora","state":"Colorado","zip":"80011","country":"United States","geoPoint":{"lat":39.72943,"lon":-104.83192}},{"facility":"UConn Health","status":"RECRUITING","city":"Farmington","state":"Connecticut","zip":"06030","country":"United States","contacts":[{"name":"Ellen Ciesielski","role":"CONTACT","phone":"860-769-6004","email":"eciesielski@uchc.edu"}],"geoPoint":{"lat":41.71982,"lon":-72.83204}},{"facility":"Children's National Medical Center","status":"WITHDRAWN","city":"Washington D.C.","state":"District of Columbia","zip":"20010","country":"United States","geoPoint":{"lat":38.89511,"lon":-77.03637}},{"facility":"EZR Research, LLC","status":"RECRUITING","city":"Boca Raton","state":"Florida","zip":"33486","country":"United States","geoPoint":{"lat":26.35869,"lon":-80.0831}},{"facility":"Nova Clinical Research, LLC","status":"RECRUITING","city":"Bradenton","state":"Florida","zip":"34209","country":"United States","geoPoint":{"lat":27.49893,"lon":-82.57482}},{"facility":"Las Mercedes Medical Research","status":"RECRUITING","city":"Hialeah","state":"Florida","zip":"33012","country":"United States","geoPoint":{"lat":25.8576,"lon":-80.27811}},{"facility":"Coral Clinic Research","status":"RECRUITING","city":"Homestead","state":"Florida","zip":"33032","country":"United States","geoPoint":{"lat":25.46872,"lon":-80.47756}},{"facility":"Dm Healthworks","status":"WITHDRAWN","city":"Kissimmee","state":"Florida","zip":"34741","country":"United States","geoPoint":{"lat":28.30468,"lon":-81.41667}},{"facility":"Y&L Advance Health Care, Inc d/b/a Elite Clinical Research","status":"RECRUITING","city":"Miami","state":"Florida","zip":"33144","country":"United States","contacts":[{"name":"Yalexis Lorenzo","role":"CONTACT","phone":"305-262-3396","email":"ylorenzo@eliteclinicalresearch.com"}],"geoPoint":{"lat":25.77427,"lon":-80.19366}},{"facility":"Serenity Research Center","status":"RECRUITING","city":"Miami","state":"Florida","zip":"33176","country":"United States","contacts":[{"name":"Fernando Roa","role":"CONTACT","phone":"786-558-4823","email":"froa.serenityresearch@gmail.com"}],"geoPoint":{"lat":25.77427,"lon":-80.19366}},{"facility":"Research Institute of Orlando","status":"RECRUITING","city":"Orlando","state":"Florida","zip":"32806","country":"United States","contacts":[{"name":"Michelle Clevenger","role":"CONTACT","phone":"407-652-6011","email":"Michelle@researchinstituteoforlando.com"}],"geoPoint":{"lat":28.53834,"lon":-81.37924}},{"facility":"Comprehensive Neurology Clinic","status":"RECRUITING","city":"Orlando","state":"Florida","zip":"32825","country":"United States","contacts":[{"name":"Elliuz Leal","role":"CONTACT","phone":"407-208-0708","email":"elealcrc@gmail.com"}],"geoPoint":{"lat":28.53834,"lon":-81.37924}},{"facility":"Panhandle Research & Medical Clinic","status":"RECRUITING","city":"Pensacola","state":"Florida","zip":"32502","country":"United States","geoPoint":{"lat":30.42131,"lon":-87.21691}},{"facility":"Knight Neurology","status":"RECRUITING","city":"Rockledge","state":"Florida","zip":"32955","country":"United States","contacts":[{"name":"Joseph Hilde","role":"CONTACT","phone":"855-564-4484","email":"jhilde01@knightneurology.com"}],"geoPoint":{"lat":28.35084,"lon":-80.72533}},{"facility":"PENS","status":"RECRUITING","city":"Tampa","state":"Florida","zip":"33609","country":"United States","contacts":[{"name":"Susan Ngo","role":"CONTACT","phone":"813-873-7367","email":"sngo@pensresearch.org"}],"geoPoint":{"lat":27.94752,"lon":-82.45843}},{"facility":"Encore Medical Research of Weston LLC.","status":"RECRUITING","city":"Weston","state":"Florida","zip":"33331","country":"United States","geoPoint":{"lat":26.10037,"lon":-80.39977}},{"facility":"Accelerated Clinical Trials, LLC","status":"RECRUITING","city":"Peachtree Corners","state":"Georgia","zip":"30071","country":"United States","geoPoint":{"lat":33.9701,"lon":-84.22159}},{"facility":"Bluegrass Epilepsy Research","status":"RECRUITING","city":"Lexington","state":"Kentucky","zip":"40504","country":"United States","geoPoint":{"lat":37.98869,"lon":-84.47772}},{"facility":"OLORMC","status":"RECRUITING","city":"Baton Rouge","state":"Louisiana","zip":"70808","country":"United States","geoPoint":{"lat":30.44332,"lon":-91.18747}},{"facility":"DelRicht Research","status":"RECRUITING","city":"Baton Rouge","state":"Louisiana","zip":"70810","country":"United States","contacts":[{"name":"Danielle Bryant","role":"CONTACT","phone":"225-412-0316","email":"dbryant@delricht.com"}],"geoPoint":{"lat":30.44332,"lon":-91.18747}},{"facility":"Neurocare Of Louisiana","status":"RECRUITING","city":"Covington","state":"Louisiana","zip":"70433","country":"United States","geoPoint":{"lat":30.47549,"lon":-90.10042}},{"facility":"University Medical Center New Orleans","status":"RECRUITING","city":"New Orleans","state":"Louisiana","zip":"70112","country":"United States","contacts":[{"name":"Heather Scuderi","role":"CONTACT","phone":"504-702-4624","email":"heather.scuderi@lcmchealth.org"}],"geoPoint":{"lat":29.95465,"lon":-90.07507}},{"facility":"DelRicht Research","status":"RECRUITING","city":"New Orleans","state":"Louisiana","zip":"70119","country":"United States","contacts":[{"name":"Reggie Mister","role":"CONTACT","phone":"504-336-2667","email":"rmister@delricht.com"}],"geoPoint":{"lat":29.95465,"lon":-90.07507}},{"facility":"LSU Health Shreveport","status":"RECRUITING","city":"Shreveport","state":"Louisiana","zip":"71103","country":"United States","contacts":[{"name":"Erin Yates","role":"CONTACT","phone":"318-675-7596","email":"erin.yates@leuhs.edu"}],"geoPoint":{"lat":32.52515,"lon":-93.75018}},{"facility":"Johns Hopkins University","status":"RECRUITING","city":"Baltimore","state":"Maryland","zip":"21287","country":"United States","contacts":[{"name":"Pamela Coe","role":"CONTACT","phone":"410-502-5570","email":"pcoe@jhmi.edu"}],"geoPoint":{"lat":39.29038,"lon":-76.61219}},{"facility":"Boston Clinical Trials","status":"RECRUITING","city":"Boston","state":"Massachusetts","zip":"02131","country":"United States","contacts":[{"name":"Joanne Monaghan","role":"CONTACT","phone":"617-477-4868","email":"joanne.monaghan@bostontrials.com"}],"geoPoint":{"lat":42.35843,"lon":-71.05977}},{"facility":"Boston Neuro Research","status":"RECRUITING","city":"South Dartmouth","state":"Massachusetts","zip":"02747","country":"United States","geoPoint":{"lat":41.59177,"lon":-70.94115}},{"facility":"SRI International","status":"RECRUITING","city":"Plymouth","state":"Michigan","zip":"48170","country":"United States","geoPoint":{"lat":42.37143,"lon":-83.47021}},{"facility":"University of Missouri Health Care","status":"RECRUITING","city":"Columbia","state":"Missouri","zip":"65212","country":"United States","geoPoint":{"lat":38.95171,"lon":-92.33407}},{"facility":"Somnos Clinical Research","status":"RECRUITING","city":"Lincoln","state":"Nebraska","zip":"68510","country":"United States","contacts":[{"name":"Wendy Bradford","role":"CONTACT","phone":"281-973-2030","email":"owais@clinicalresearchmate.com"}],"geoPoint":{"lat":40.8,"lon":-96.66696}},{"facility":"NEREG","status":"RECRUITING","city":"Hackensack","state":"New Jersey","zip":"07601","country":"United States","geoPoint":{"lat":40.88593,"lon":-74.04347}},{"facility":"Tekton Research","status":"RECRUITING","city":"Marlboro","state":"New Jersey","zip":"07746","country":"United States","geoPoint":{"lat":40.31539,"lon":-74.24626}},{"facility":"Jersey Shore Medical Center","status":"NOT_YET_RECRUITING","city":"Neptune City","state":"New Jersey","zip":"07753","country":"United States","geoPoint":{"lat":40.20011,"lon":-74.02792}},{"facility":"Dent Neurosciences Research Center","status":"RECRUITING","city":"Amherst","state":"New York","zip":"14226","country":"United States","geoPoint":{"lat":42.97839,"lon":-78.79976}},{"facility":"Northwell Health","status":"RECRUITING","city":"Great Neck","state":"New York","zip":"11021","country":"United States","contacts":[{"name":"Ayesha Rehman","role":"CONTACT","phone":"516-428-6136","email":"arehman10@northwell.edu"}],"geoPoint":{"lat":40.80066,"lon":-73.72846}},{"facility":"Northwell Health Ped. Neurology","status":"RECRUITING","city":"New Hyde Park","state":"New York","zip":"11042","country":"United States","geoPoint":{"lat":40.7351,"lon":-73.68791}},{"facility":"NYU Langone Health","status":"RECRUITING","city":"New York","state":"New York","zip":"10016","country":"United States","contacts":[{"name":"Mariana Figuera Losada","role":"CONTACT","phone":"646-558-0844","email":"mariana.figueralosada@nyulangone.org"}],"geoPoint":{"lat":40.71427,"lon":-74.00597}},{"facility":"Montefiore Medical Center","status":"RECRUITING","city":"The Bronx","state":"New York","zip":"10467","country":"United States","geoPoint":{"lat":40.84985,"lon":-73.86641}},{"facility":"UNC-Chapel Hill","status":"RECRUITING","city":"Chapel Hill","state":"North Carolina","zip":"27514","country":"United States","contacts":[{"name":"Monica Coudurier","role":"CONTACT","phone":"919-966-6727","email":"m_coudurier@unc.edu"}],"geoPoint":{"lat":35.9132,"lon":-79.05584}},{"facility":"Cincinatti Children's Hospital","status":"WITHDRAWN","city":"Cincinnati","state":"Ohio","zip":"45229","country":"United States","geoPoint":{"lat":39.12711,"lon":-84.51439}},{"facility":"Wright State University","status":"NOT_YET_RECRUITING","city":"Dayton","state":"Ohio","zip":"45409","country":"United States","geoPoint":{"lat":39.75895,"lon":-84.19161}},{"facility":"Oregon Neurology Associates","status":"RECRUITING","city":"Springfield","state":"Oregon","zip":"97477","country":"United States","geoPoint":{"lat":44.04624,"lon":-123.02203}},{"facility":"AHN","status":"RECRUITING","city":"Pittsburgh","state":"Pennsylvania","zip":"15212","country":"United States","contacts":[{"name":"Megan Hendricks","role":"CONTACT","phone":"412-359-6010","email":"megan.hendricks@ahn.org"}],"geoPoint":{"lat":40.44062,"lon":-79.99589}},{"facility":"MUSC","status":"RECRUITING","city":"Charleston","state":"South Carolina","zip":"29425","country":"United States","contacts":[{"name":"Robin Bulgarino","role":"CONTACT","phone":"843-792-1115","email":"bulgarino@musc.edu"}],"geoPoint":{"lat":32.77632,"lon":-79.93275}},{"facility":"WR-ClinSearch","status":"RECRUITING","city":"Chattanooga","state":"Tennessee","zip":"37421","country":"United States","contacts":[{"name":"Jessica Benvenuto","role":"CONTACT","phone":"423-698-4584","email":"jbenvenuto@wakeresearch.com"}],"geoPoint":{"lat":35.04563,"lon":-85.30968}},{"facility":"Le Bonheur Children's Hospital","status":"RECRUITING","city":"Memphis","state":"Tennessee","zip":"38103","country":"United States","contacts":[{"name":"Kerry Moore","role":"CONTACT","phone":"901-287-5760","email":"research@lebonheur.org"}],"geoPoint":{"lat":35.14953,"lon":-90.04898}},{"facility":"Horizon Clinical Research Group","status":"RECRUITING","city":"Cypress","state":"Texas","zip":"77429","country":"United States","geoPoint":{"lat":29.96911,"lon":-95.69717}},{"facility":"M3 Wake Research-Dallas","status":"RECRUITING","city":"Dallas","state":"Texas","zip":"75246","country":"United States","geoPoint":{"lat":32.78306,"lon":-96.80667}},{"facility":"ANESC Research","status":"RECRUITING","city":"El Paso","state":"Texas","zip":"79912","country":"United States","contacts":[{"name":"Shruti Konda","role":"CONTACT","phone":"915-974-2200","phoneExt":"3","email":"shrutik@anesc.net"}],"geoPoint":{"lat":31.75872,"lon":-106.48693}},{"facility":"Tarrant Neurology Associates","status":"RECRUITING","city":"Fort Worth","state":"Texas","zip":"76104","country":"United States","geoPoint":{"lat":32.72541,"lon":-97.32085}},{"facility":"UTHealth Houston","status":"RECRUITING","city":"Houston","state":"Texas","zip":"77030","country":"United States","contacts":[{"name":"Maria Poblete","role":"CONTACT","phone":"713-500-7201","email":"Maria.Poblete@uth.tmc.edu"}],"geoPoint":{"lat":29.76328,"lon":-95.36327}},{"facility":"UTHSC","status":"NOT_YET_RECRUITING","city":"Houston","state":"Texas","zip":"77030","country":"United States","geoPoint":{"lat":29.76328,"lon":-95.36327}},{"facility":"Stryde Research","status":"RECRUITING","city":"Plano","state":"Texas","zip":"75093","country":"United States","geoPoint":{"lat":33.01984,"lon":-96.69889}},{"facility":"Intermountain Health","status":"RECRUITING","city":"Murray","state":"Utah","zip":"84107","country":"United States","contacts":[{"name":"Lindsay Bosh","role":"CONTACT","phone":"801-507-4759","email":"lindsay.bosh@imail.org"}],"geoPoint":{"lat":40.66689,"lon":-111.88799}},{"facility":"Medstar Health Research Institute","status":"RECRUITING","city":"McLean","state":"Virginia","zip":"22101","country":"United States","contacts":[{"name":"Emma Merrill","role":"CONTACT","phone":"202-877-3296","email":"emma.merrill@medstar.net"}],"geoPoint":{"lat":38.93428,"lon":-77.17748}},{"facility":"Royal Prince Alfred Hospital","status":"RECRUITING","city":"Camperdown","state":"New South Wales","zip":"2050","country":"Australia","geoPoint":{"lat":-33.88965,"lon":151.17642}},{"facility":"Prince of Wales Hospital","status":"RECRUITING","city":"Randwick","state":"New South Wales","zip":"2031","country":"Australia","geoPoint":{"lat":-33.91439,"lon":151.24895}},{"facility":"Royal Brisbane & Women's Hospital","status":"RECRUITING","city":"Herston","state":"Queensland","zip":"4029","country":"Australia","geoPoint":{"lat":-27.44453,"lon":153.01852}},{"facility":"St Vincents Hospital Melbourne - PPDS","status":"RECRUITING","city":"Fitzroy","state":"Victoria","zip":"3065","country":"Australia","geoPoint":{"lat":-37.79839,"lon":144.97833}},{"facility":"Austin Health","status":"RECRUITING","city":"Heidelberg","state":"Victoria","zip":"3084","country":"Australia","geoPoint":{"lat":-37.75,"lon":145.06667}},{"facility":"The Alfred Hospital","status":"RECRUITING","city":"Melbourne","state":"Victoria","zip":"3004","country":"Australia","geoPoint":{"lat":-37.814,"lon":144.96332}},{"facility":"Royal Melbourne Hospital","status":"RECRUITING","city":"Parkville","state":"Victoria","zip":"3050","country":"Australia","geoPoint":{"lat":-37.78333,"lon":144.95}},{"facility":"Flinders Medical Centre","status":"RECRUITING","city":"Bedford Park","zip":"5042","country":"Australia","geoPoint":{"lat":-35.02204,"lon":138.56815}},{"facility":"Odense Universitetshospital","status":"RECRUITING","city":"Odense","state":"Fyn","zip":"5000","country":"Denmark","geoPoint":{"lat":55.39594,"lon":10.38831}},{"facility":"Aarhus University Hospital","status":"NOT_YET_RECRUITING","city":"Aarhus","zip":"8200","country":"Denmark","geoPoint":{"lat":56.15674,"lon":10.21076}},{"facility":"Epilepsihospitalet Filadelfia","status":"RECRUITING","city":"Dianalund","zip":"4293","country":"Denmark","geoPoint":{"lat":55.53133,"lon":11.4925}},{"facility":"Kuopion yliopistollinen sairaala","status":"RECRUITING","city":"Kuopio","state":"Northern Savonia","zip":"70200","country":"Finland","geoPoint":{"lat":62.89238,"lon":27.67703}},{"facility":"Tampereen yliopistollinen sairaala","status":"RECRUITING","city":"Tampere","state":"Pirkanmaa","zip":"33520","country":"Finland","geoPoint":{"lat":61.49911,"lon":23.78712}},{"facility":"Helsinki University Hospital","status":"RECRUITING","city":"Helsinki","state":"Uusimaa","zip":"00290","country":"Finland","geoPoint":{"lat":60.16952,"lon":24.93545}},{"facility":"Universitätsklinikum Freiburg","status":"RECRUITING","city":"Freiburg im Breisgau","state":"Baden-Wurttemberg","zip":"79106","country":"Germany","geoPoint":{"lat":47.9959,"lon":7.85222}},{"facility":"Epilepsiezentrum Kork","status":"RECRUITING","city":"Kehl","state":"Baden-Wurttemberg","zip":"77694","country":"Germany","geoPoint":{"lat":48.57297,"lon":7.81523}},{"facility":"Universitätsklinikum Ulm","status":"RECRUITING","city":"Ulm","state":"Baden-Wurttemberg","zip":"89081","country":"Germany","geoPoint":{"lat":48.39841,"lon":9.99155}},{"facility":"Universitätsklinikum Erlangen","status":"RECRUITING","city":"Erlangen","state":"Bavaria","zip":"91054","country":"Germany","geoPoint":{"lat":49.59099,"lon":11.00783}},{"facility":"LMU Klinikum der Universität München - Campus Großhadern","status":"RECRUITING","city":"München","state":"Bavaria","zip":"81377","country":"Germany","geoPoint":{"lat":48.69668,"lon":13.46314}},{"facility":"Epilepsieklinik Tabor","status":"NOT_YET_RECRUITING","city":"Bernau bei Berlin","state":"Brandenburg","zip":"16321","country":"Germany","geoPoint":{"lat":52.67982,"lon":13.58708}},{"facility":"Universitätsklinikum Gießen und Marburg GmbH - Standort Marburg","status":"RECRUITING","city":"Marburg","state":"Hesse","zip":"35043","country":"Germany","geoPoint":{"lat":50.80904,"lon":8.77069}},{"facility":"Klinikum Osnabrück GmbH","status":"RECRUITING","city":"Osnabrück","state":"Lower Saxony","zip":"49076","country":"Germany","geoPoint":{"lat":52.27264,"lon":8.0498}},{"facility":"Krankenhaus Mara gGmbH","status":"RECRUITING","city":"Bielefeld","state":"North Rhine-Westphalia","zip":"33617","country":"Germany","geoPoint":{"lat":52.03333,"lon":8.53333}},{"facility":"Universitätsklinikum Bonn","status":"RECRUITING","city":"Bonn","state":"North Rhine-Westphalia","zip":"53127","country":"Germany","geoPoint":{"lat":50.73438,"lon":7.09549}},{"facility":"Universitätsklinikum Münster","status":"NOT_YET_RECRUITING","city":"Münster","state":"North Rhine-Westphalia","zip":"48149","country":"Germany","geoPoint":{"lat":51.96236,"lon":7.62571}},{"facility":"Universitätsklinikum Leipzig","status":"RECRUITING","city":"Leipzig","state":"Saxony","zip":"04103","country":"Germany","geoPoint":{"lat":51.33962,"lon":12.37129}},{"facility":"Kleinwachau Sächsisches Epilepsiezentrum Radeberg Gemeinnützige Gmbh","status":"RECRUITING","city":"Radeberg","state":"Saxony","zip":"01454","country":"Germany","geoPoint":{"lat":51.11112,"lon":13.91199}},{"facility":"Vivantes - Humboldt Klinikum","status":"RECRUITING","city":"Berlin","zip":"13509","country":"Germany","geoPoint":{"lat":52.52437,"lon":13.41053}},{"facility":"Universitätsklinikum Frankfurt","status":"RECRUITING","city":"Frankfurt","zip":"60590","country":"Germany","geoPoint":{"lat":49.68333,"lon":10.53333}},{"facility":"Epilepsie-Zentrum Bodensee","status":"RECRUITING","city":"Ravensburg","zip":"88214","country":"Germany","geoPoint":{"lat":47.78198,"lon":9.61062}},{"facility":"University General Hospital of Alexandroupolis","status":"RECRUITING","city":"Alexandroupoli","zip":"681 00","country":"Greece","geoPoint":{"lat":40.84995,"lon":25.87644}},{"facility":"University General Hospital ''ATTIKON''","status":"RECRUITING","city":"Chaïdári","zip":"124 62","country":"Greece","geoPoint":{"lat":38.01135,"lon":23.66597}},{"facility":"University General Hospital of Ioannina","status":"RECRUITING","city":"Ioannina","zip":"455 00","country":"Greece","geoPoint":{"lat":39.66341,"lon":20.85187}},{"facility":"AHEPA University General Hospital of Thessaloniki","status":"RECRUITING","city":"Thessaloniki","zip":"546 36","country":"Greece","geoPoint":{"lat":40.64072,"lon":22.93493}},{"facility":"Georgios Papanikolaou General Hospital of Thessaloniki","status":"RECRUITING","city":"Thessaloniki","zip":"546 36","country":"Greece","geoPoint":{"lat":40.64072,"lon":22.93493}},{"facility":"Semmel Egyet Idegsebésze Neuro Klin","status":"RECRUITING","city":"Budapest","zip":"1145","country":"Hungary","geoPoint":{"lat":47.49835,"lon":19.04045}},{"facility":"Nizam's Insti. of Medical Sciences","status":"RECRUITING","city":"Hyderabad","zip":"500082","country":"India","geoPoint":{"lat":17.38405,"lon":78.45636}},{"facility":"Mallikatta Neuro Centre","status":"RECRUITING","city":"Mangalore","zip":"575002","country":"India","geoPoint":{"lat":12.91723,"lon":74.85603}},{"facility":"Jaslok Hospital and Research","status":"RECRUITING","city":"Mumbai","zip":"400026","country":"India","geoPoint":{"lat":19.07283,"lon":72.88261}},{"facility":"Dr G M Taori Memorial CIIMS","status":"RECRUITING","city":"Nagpur","zip":"440010","country":"India","geoPoint":{"lat":21.14631,"lon":79.08491}},{"facility":"All India Institute of Medical Sciences (AIIMS)","status":"RECRUITING","city":"New Delhi","zip":"110029","country":"India","geoPoint":{"lat":28.62137,"lon":77.2148}},{"facility":"Università degli Studi G. D'Annunzio Chieti-Pescara","status":"RECRUITING","city":"Chieti","state":"Abruzzo","zip":"66013","country":"Italy","geoPoint":{"lat":42.34827,"lon":14.16494}},{"facility":"Azienda Ospedaliera Universitaria Renato Dulbecco - AO Mater Domini","status":"RECRUITING","city":"Catanzaro","state":"Calabria","zip":"88100","country":"Italy","geoPoint":{"lat":38.88247,"lon":16.60086}},{"facility":"AORN Antonio Cardarelli","status":"RECRUITING","city":"Napoli","state":"Campania","zip":"80131","country":"Italy","geoPoint":{"lat":40.87618,"lon":14.5195}},{"facility":"AUSL di Bologna - Ospedale Bellaria","status":"RECRUITING","city":"Bologna","state":"Emilia-Romagna","zip":"40123","country":"Italy","geoPoint":{"lat":44.49381,"lon":11.33875}},{"facility":"Fondazione PTV Policlinico Tor Vergata","status":"RECRUITING","city":"Rome","state":"Lazio","zip":"00133","country":"Italy","geoPoint":{"lat":41.89193,"lon":12.51133}},{"facility":"Istituto G Gaslini Ospedale Pediatrico IRCCS - INCIPIT - PIN","status":"RECRUITING","city":"Genoa","state":"Liguria","zip":"16147","country":"Italy","geoPoint":{"lat":44.40478,"lon":8.94439}},{"facility":"Ospedale San Raffaele S.r.l. - PPDS","status":"RECRUITING","city":"Milan","state":"Lombardy","zip":"20132","country":"Italy","geoPoint":{"lat":45.46427,"lon":9.18951}},{"facility":"Fondazione IRCCS Istituto Neurologico Carlo Besta","status":"RECRUITING","city":"Milan","state":"Lombardy","zip":"20133","country":"Italy","geoPoint":{"lat":45.46427,"lon":9.18951}},{"facility":"ASST Santi Paolo e Carlo - Azienda Universitaria-Polo Universitario San Paolo","status":"RECRUITING","city":"Milan","state":"Lombardy","zip":"20142","country":"Italy","geoPoint":{"lat":45.46427,"lon":9.18951}},{"facility":"Fondazione Istituto Neurologico Nazionale Casimiro Mondino IRCCS","status":"RECRUITING","city":"Pavia","state":"Lombardy","zip":"27100","country":"Italy","geoPoint":{"lat":45.19205,"lon":9.15917}},{"facility":"Azienda Ospedaliero-Universitaria di Modena - Ospedale Civile di Baggiovara","status":"RECRUITING","city":"Baggiovara","state":"Modena","zip":"41126","country":"Italy","geoPoint":{"lat":44.60416,"lon":10.86256}},{"facility":"IRCCS Istituto Neurologico Mediterraneo Neuromed","status":"RECRUITING","city":"Pozzilli","state":"Molise","zip":"86077","country":"Italy","geoPoint":{"lat":41.51142,"lon":14.06252}},{"facility":"Università Politecnica delle Marche Azienda Ospedaliero Universitaria Ospedali Riuniti di Ancona","status":"RECRUITING","city":"Ancona","state":"The Marches","zip":"60121","country":"Italy","geoPoint":{"lat":43.60717,"lon":13.5103}},{"facility":"Azienda Ospedaliero Universitaria A Meyer - INCIPIT - PIN","status":"RECRUITING","city":"Calambrone","state":"Tuscany","zip":"56018","country":"Italy","geoPoint":{"lat":43.58333,"lon":10.3}},{"facility":"Fondazione Policlinico Universitario A Gemelli-Rome","status":"RECRUITING","city":"Roma","zip":"00168","country":"Italy","geoPoint":{"lat":44.99364,"lon":11.10642}},{"facility":"IRCCS Ospedale Pediatrico Bambino Gesù - INCIPIT - PIN","status":"RECRUITING","city":"Rome","zip":"00165","country":"Italy","geoPoint":{"lat":41.89193,"lon":12.51133}},{"facility":"Azienda Ospedaliera Universitaria Integrata Di Verona","status":"RECRUITING","city":"Verona","zip":"37126","country":"Italy","geoPoint":{"lat":45.43854,"lon":10.9938}},{"facility":"Unidad de Investigación en Salud de Chihuahua S.C.-Mexico city","status":"NOT_YET_RECRUITING","city":"Mexico City","zip":"14050","country":"Mexico","geoPoint":{"lat":19.42847,"lon":-99.12766}},{"facility":"Clinstile, S.A. de C.V.","status":"NOT_YET_RECRUITING","city":"Mexico City","zip":"6700","country":"Mexico","geoPoint":{"lat":19.42847,"lon":-99.12766}},{"facility":"Accelerium, S. de R.L. de C.V. - PPDS","status":"NOT_YET_RECRUITING","city":"Monterrey","zip":"64000","country":"Mexico","geoPoint":{"lat":25.68435,"lon":-100.31721}},{"facility":"Axis Heilsa S. de R.L. de C.V.","status":"RECRUITING","city":"Obispado","zip":"64060","country":"Mexico","geoPoint":{"lat":22.13968,"lon":-100.93171}},{"facility":"Neurociencias Estudios Clinicos S.C.","status":"NOT_YET_RECRUITING","city":"Sinaloa","zip":"80020","country":"Mexico","geoPoint":{"lat":15.89261,"lon":-92.12896}},{"facility":"Clinical Research Institute SC-Mexico","status":"RECRUITING","city":"Tlalnepantla","zip":"54055","country":"Mexico","geoPoint":{"lat":19.54005,"lon":-99.19538}},{"facility":"FAICIC S De RL De CV","status":"RECRUITING","city":"Veracruz","zip":"91900","country":"Mexico","geoPoint":{"lat":19.18095,"lon":-96.1429}},{"facility":"MTZ Clinical Research","status":"RECRUITING","city":"Krakow","zip":"02-172","country":"Poland","geoPoint":{"lat":50.06143,"lon":19.93658}},{"facility":"Pratia MCM Krakow","status":"RECRUITING","city":"Krakow","zip":"30-727","country":"Poland","geoPoint":{"lat":50.06143,"lon":19.93658}},{"facility":"LANDA Specjalistyczne","status":"RECRUITING","city":"Krakow","zip":"31-156","country":"Poland","geoPoint":{"lat":50.06143,"lon":19.93658}},{"facility":"Neurosphera SP. Z O.O","status":"RECRUITING","city":"Warsaw","zip":"02-829","country":"Poland","geoPoint":{"lat":52.22977,"lon":21.01178}},{"facility":"Premium Clinic Wrocław","status":"RECRUITING","city":"Wroclaw","zip":"50-414","country":"Poland","geoPoint":{"lat":51.10286,"lon":17.03006}},{"facility":"ULS de Entre Douro e Vouga, EPE - Hospital de São Sebastião","status":"RECRUITING","city":"Santa Maria da Feira","state":"Aveiro District","zip":"4520-211","country":"Portugal","geoPoint":{"lat":40.92726,"lon":-8.54839}},{"facility":"ULS de Matosinhos, EPE - Hospital Pedro Hispano","status":"RECRUITING","city":"Senhora da Hora","state":"Porto District","zip":"4454-509","country":"Portugal","geoPoint":{"lat":41.18641,"lon":-8.65172}},{"facility":"Centro Clínico Académico, Braga - Hospital de Braga","status":"RECRUITING","city":"Braga","zip":"4710-243","country":"Portugal","geoPoint":{"lat":41.5514,"lon":-8.42311}},{"facility":"ULS de Coimbra, EPE - Hospitais da Universidade de Coimbra","status":"RECRUITING","city":"Coimbra","zip":"3000-459","country":"Portugal","geoPoint":{"lat":40.20686,"lon":-8.41996}},{"facility":"ULS de Lisboa Ocidental, EPE - Hospital Egas Moniz","status":"RECRUITING","city":"Lisbon","zip":"1449-005","country":"Portugal","geoPoint":{"lat":38.72509,"lon":-9.1498}},{"facility":"Hospital da Luz Torres de Lisboa","status":"RECRUITING","city":"Lisbon","zip":"1600-209","country":"Portugal","geoPoint":{"lat":38.72509,"lon":-9.1498}},{"facility":"Targu-Mures Emergency Clinical County Hospital - Str. Gh. Marinescu nr.50","status":"RECRUITING","city":"Târgu Mureş","state":"Mureș County","zip":"540136","country":"Romania","geoPoint":{"lat":46.54245,"lon":24.55747}},{"facility":"Emergency University Hospital","status":"RECRUITING","city":"Bucharest","zip":"11635","country":"Romania","geoPoint":{"lat":44.43225,"lon":26.10626}},{"facility":"IN MEDIC, s.r.o.","status":"RECRUITING","city":"Bardejov","zip":"085 01","country":"Slovakia","geoPoint":{"lat":49.29175,"lon":21.27271}},{"facility":"Kraskova 2636, Neurologické oddelenie","status":"RECRUITING","city":"Rimavská Sobota","zip":"979 01","country":"Slovakia","geoPoint":{"lat":48.38284,"lon":20.02239}},{"facility":"Hospital Universitario Germans Trias i Pujol","status":"RECRUITING","city":"Badalona","state":"Barcelona","zip":"08916","country":"Spain","geoPoint":{"lat":41.45004,"lon":2.24741}},{"facility":"Hospital Universitario de Bellvitge","status":"RECRUITING","city":"L'Hospitalet de Llobregat","state":"Barcelona","zip":"08907","country":"Spain","geoPoint":{"lat":41.35967,"lon":2.10028}},{"facility":"Hospital Universitario de Navarra","status":"RECRUITING","city":"Pamplona","state":"Navarre","zip":"31008","country":"Spain","geoPoint":{"lat":42.81687,"lon":-1.64323}},{"facility":"CHUVI - H.U. Alvaro Cunqueiro","status":"RECRUITING","city":"Vigo","state":"Pontevedra","zip":"36312","country":"Spain","geoPoint":{"lat":42.23282,"lon":-8.72264}},{"facility":"Hospital del Mar","status":"RECRUITING","city":"Barcelona","zip":"08003","country":"Spain","geoPoint":{"lat":41.38879,"lon":2.15899}},{"facility":"Hospital Universitario Vall d'Hebron - PPDS","status":"RECRUITING","city":"Barcelona","zip":"08035","country":"Spain","geoPoint":{"lat":41.38879,"lon":2.15899}},{"facility":"Fundacio Assistencial Mutua de Terrassa","status":"RECRUITING","city":"Barcelona","zip":"08221","country":"Spain","geoPoint":{"lat":41.38879,"lon":2.15899}},{"facility":"Hospital Universitario Clínico San Cecilio","status":"RECRUITING","city":"Granada","zip":"18007","country":"Spain","geoPoint":{"lat":37.18817,"lon":-3.60667}},{"facility":"Hospital Vithas Granada","status":"RECRUITING","city":"Granada","zip":"18008","country":"Spain","geoPoint":{"lat":37.18817,"lon":-3.60667}},{"facility":"Hospital Universitario Virgen de Las Nieves","status":"RECRUITING","city":"Granada","zip":"18013","country":"Spain","geoPoint":{"lat":37.18817,"lon":-3.60667}},{"facility":"Hospital Ruber Internacional (Grupo Quironsalud)","status":"RECRUITING","city":"Madrid","zip":"28034","country":"Spain","geoPoint":{"lat":40.4165,"lon":-3.70256}},{"facility":"Hospital Universitario Fundacion Jimenez Diaz","status":"RECRUITING","city":"Madrid","zip":"28040","country":"Spain","geoPoint":{"lat":40.4165,"lon":-3.70256}},{"facility":"Blua Sanitas Valdebebas Hospital","status":"NOT_YET_RECRUITING","city":"Madrid","zip":"28055","country":"Spain","geoPoint":{"lat":40.4165,"lon":-3.70256}},{"facility":"Hospital blua sanitas valdebebas","status":"RECRUITING","city":"Madrid","zip":"28055","country":"Spain","geoPoint":{"lat":40.4165,"lon":-3.70256}},{"facility":"Hospital Regional Universitario de Malaga - Hospital General","status":"RECRUITING","city":"Málaga","zip":"29010","country":"Spain","geoPoint":{"lat":36.72016,"lon":-4.42034}},{"facility":"Centro de Neurologia Avanzada","status":"RECRUITING","city":"Seville","zip":"41013","country":"Spain","geoPoint":{"lat":37.38283,"lon":-5.97317}},{"facility":"Hospital Universitari i Politecnic La Fe de Valencia","status":"RECRUITING","city":"Valencia","zip":"46026","country":"Spain","geoPoint":{"lat":39.47391,"lon":-0.37966}},{"facility":"Hospital Clinico Universitario de Valladolid","status":"RECRUITING","city":"Valladolid","zip":"47003","country":"Spain","geoPoint":{"lat":41.65541,"lon":-4.72353}},{"facility":"Morriston Hospital","status":"RECRUITING","city":"Swansea","state":"Glamorgan","zip":"SA6 6NL","country":"United Kingdom","geoPoint":{"lat":51.62079,"lon":-3.94323}},{"facility":"Queen Elizabeth University Hospital-PPDS","status":"RECRUITING","city":"Glasgow","state":"Glasgow City","zip":"G51 4TF","country":"United Kingdom","geoPoint":{"lat":55.86515,"lon":-4.25763}},{"facility":"Salford Royal Hospital - PPDS","status":"RECRUITING","city":"Salford","state":"Manchester","zip":"M6 8HD","country":"United Kingdom","geoPoint":{"lat":53.48771,"lon":-2.29042}},{"facility":"The Walton Centre - PPDS","status":"RECRUITING","city":"Liverpool","state":"Merseyside","zip":"L9 7LJ","country":"United Kingdom","geoPoint":{"lat":53.41058,"lon":-2.97794}},{"facility":"University College London Hospitals (UCLH)","status":"RECRUITING","city":"London","state":"Middlesex","zip":"NW1 2PG","country":"United Kingdom","geoPoint":{"lat":51.50853,"lon":-0.12574}},{"facility":"John Radcliffe Hospital","status":"RECRUITING","city":"Oxford","state":"Oxfordshire","zip":"OX3 9DU","country":"United Kingdom","geoPoint":{"lat":51.75222,"lon":-1.25596}},{"facility":"University Hospital of Wales","status":"RECRUITING","city":"Cardiff","state":"South Glamorgan","zip":"CF14 4XW","country":"United Kingdom","geoPoint":{"lat":51.48,"lon":-3.18}},{"facility":"Royal Victoria Infirmary","status":"RECRUITING","city":"Newcastle upon Tyne","zip":"NE1 4LP","country":"United Kingdom","geoPoint":{"lat":54.97328,"lon":-1.61396}}]}},"derivedSection":{"miscInfoModule":{"versionHolder":"2026-02-25"},"conditionBrowseModule":{"meshes":[{"id":"D004828","term":"Epilepsies, Partial"},{"id":"D004827","term":"Epilepsy"},{"id":"D012640","term":"Seizures"},{"id":"D000069279","term":"Drug Resistant Epilepsy"}],"ancestors":[{"id":"D001927","term":"Brain Diseases"},{"id":"D002493","term":"Central Nervous System Diseases"},{"id":"D009422","term":"Nervous System Diseases"},{"id":"D009461","term":"Neurologic Manifestations"},{"id":"D012816","term":"Signs and Symptoms"},{"id":"D013568","term":"Pathological Conditions, Signs and Symptoms"}]}},"hasResults":false},
{"protocolSection":{"identificationModule":{"nctId":"NCT06443463","orgStudyIdInfo":{"id":"BHV7000-201"},"secondaryIdInfos":[{"id":"2023-508813-18-00","type":"CTIS"}],"organization":{"fullName":"Biohaven Pharmaceuticals, Inc.","class":"INDUSTRY"},"briefTitle":"Long-term Safety and Tolerability of BHV-7000","officialTitle":"A Phase 2, Global, Multicenter, Long-term Safety Study Designed to Assess the Safety and Tolerability of BHV-7000 in Subjects With Refractory Focal Onset Epilepsy"},"statusModule":{"statusVerifiedDate":"2026-01","overallStatus":"ENROLLING_BY_INVITATION","expandedAccessInfo":{"hasExpandedAccess":false},"startDateStruct":{"date":"2024-07-30","type":"ACTUAL"},"primaryCompletionDateStruct":{"date":"2026-12","type":"ESTIMATED"},"completionDateStruct":{"date":"2027-01","type":"ESTIMATED"},"studyFirstSubmitDate":"2024-05-30","studyFirstSubmitQcDate":"2024-05-30","studyFirstPostDateStruct":{"date":"2024-06-05","type":"ACTUAL"},"lastUpdateSubmitDate":"2026-01-16","lastUpdatePostDateStruct":{"date":"2026-01-20","type":"ACTUAL"}},"sponsorCollaboratorsModule":{"responsibleParty":{"type":"SPONSOR"},"leadSponsor":{"name":"Biohaven Therapeutics Ltd.","class":"INDUSTRY"}},"oversightModule":{"oversightHasDmc":false,"isFdaRegulatedDrug":true,"isFdaRegulatedDevice":false},"descriptionModule":{"briefSummary":"A study to determine if BHV- 7000 is safe and tolerable in adults with refractory focal onset epilepsy"},"conditionsModule":{"conditions":["Focal Epilepsy"],"keywords":["Focal Epilepsy","Epilepsy","Seizure","Refractory Epilepsy","Partial Epilepsy"]},"designModule":{"studyType":"INTERVENTIONAL","phases":["PHASE2"],"designInfo":{"allocation":"NON_RANDOMIZED","interventionModel":"PARALLEL","primaryPurpose":"TREATMENT","maskingInfo":{"masking":"NONE"}},"enrollmentInfo":{"count":660,"type":"ESTIMATED"}},"armsInterventionsModule":{"armGroups":[{"label":"BHV-7000 50 mg","type":"EXPERIMENTAL","interventionNames":["Drug: BHV-7000"]},{"label":"BHV-7000 75 mg","type":"EXPERIMENTAL","interventionNames":["Drug: BHV-7000"]}],"interventions":[{"type":"DRUG","name":"BHV-7000","description":"BHV-7000 50 mg. Participants will take open-label investigational product (IP) once daily","armGroupLabels":["BHV-7000 50 mg"]},{"type":"DRUG","name":"BHV-7000","description":"BHV-7000 75 mg. Participants will take open-label investigational product (IP) once daily","armGroupLabels":["BHV-7000 75 mg"]}]},"outcomesModule":{"primaryOutcomes":[{"measure":"Number of Participants With Deaths, Serious AEs (SAEs), AEs Leading to Study Drug Discontinuation, and moderate or severe AEs","description":"To assess the safety and tolerability of BHV-7000. This objective will be measured by assessing the number of unique subjects with deaths, SAEs, AEs leading to discontinuation, and moderate and severe AEs.","timeFrame":"Up to 104 weeks"},{"measure":"Number of Subjects with Clinically Significant Laboratory Abnormalities","description":"To assess the safety and tolerability of BHV-7000. This objective will be measured by assessing the number of unique subjects with grade 3 or 4 laboratory abnormalities.","timeFrame":"Up to 104 weeks"}]},"eligibilityModule":{"eligibilityCriteria":"Key Inclusion Criteria:\n\n* Subjects who completed the double-blind phase (DBP) of prior parent study, BHV7000-302 or BHV7000-303.\n* (FOCBP) Females of Child Bearing Potential must have a negative urine pregnancy test at the Baseline/Day 0 visit\n\nKey Exclusion Criteria:\n\n* Any condition, such as an ongoing AE with/without sequelae, or is poorly tolerating IP in the double-blind phase of the parent study, that would interfere with the subject's ability to comply with study instructions, place the subject at unacceptable risk, and/or confound the interpretation of safety or efficacy data from the study, as judged by the Investigator.\n* Any medical condition, based on the judgement of the Investigator, that would confound the ability to adequately assess safety and efficacy outcome measures","healthyVolunteers":false,"sex":"ALL","minimumAge":"18 Years","maximumAge":"75 Years","stdAges":["ADULT","OLDER_ADULT"]},"contactsLocationsModule":{"locations":[{"facility":"Accel Research","city":"Birmingham","state":"Alabama","zip":"35244","country":"United States","geoPoint":{"lat":33.52066,"lon":-86.80249}},{"facility":"Onyx Clinical Trials","city":"Peoria","state":"Arizona","zip":"85381","country":"United States","geoPoint":{"lat":33.5806,"lon":-112.23738}},{"facility":"Xenoscience, Inc.","city":"Phoenix","state":"Arizona","zip":"85004","country":"United States","geoPoint":{"lat":33.44838,"lon":-112.07404}},{"facility":"University of Arizona / Banner University Medical Center Phoenix","city":"Phoenix","state":"Arizona","zip":"85006","country":"United States","geoPoint":{"lat":33.44838,"lon":-112.07404}},{"facility":"Barrow Neurological Institute","city":"Phoenix","state":"Arizona","zip":"85013","country":"United States","geoPoint":{"lat":33.44838,"lon":-112.07404}},{"facility":"ARENSIA Exploratory Medicine","city":"Phoenix","state":"Arizona","zip":"85015","country":"United States","geoPoint":{"lat":33.44838,"lon":-112.07404}},{"facility":"Center for Neurosciences","city":"Tucson","state":"Arizona","zip":"85718","country":"United States","geoPoint":{"lat":32.22174,"lon":-110.92648}},{"facility":"Clinical Trials, Inc.","city":"Little Rock","state":"Arkansas","zip":"72205","country":"United States","geoPoint":{"lat":34.74648,"lon":-92.28959}},{"facility":"WRN","city":"Rogers","state":"Arkansas","zip":"72758","country":"United States","geoPoint":{"lat":36.33202,"lon":-94.11854}},{"facility":"University of California San Diego","city":"La Jolla","state":"California","zip":"92041","country":"United States","geoPoint":{"lat":32.84727,"lon":-117.2742}},{"facility":"Amicis Research Center","city":"Lancaster","state":"California","zip":"93534","country":"United States","geoPoint":{"lat":34.69804,"lon":-118.13674}},{"facility":"Memorialcare Miller Children's & Women's Hospital Long Beach","city":"Long Beach","state":"California","zip":"90806","country":"United States","geoPoint":{"lat":33.76696,"lon":-118.18923}},{"facility":"University of California, Los Angeles","city":"Los Angeles","state":"California","zip":"90095","country":"United States","geoPoint":{"lat":34.05223,"lon":-118.24368}},{"facility":"Tri Valley Neurology Medical Associates, Inc.","city":"Mission Hills","state":"California","zip":"91345","country":"United States","geoPoint":{"lat":34.68609,"lon":-120.43683}},{"facility":"Stanford University","city":"Palo Alto","state":"California","zip":"94304","country":"United States","geoPoint":{"lat":37.44188,"lon":-122.14302}},{"facility":"Profound Research LLC","city":"Pasadena","state":"California","zip":"91105","country":"United States","geoPoint":{"lat":34.14778,"lon":-118.14452}},{"facility":"Profound Research LLC","city":"Poway","state":"California","zip":"92065","country":"United States","geoPoint":{"lat":32.96282,"lon":-117.03586}},{"facility":"Kaiser Permanente","city":"Aurora","state":"Colorado","zip":"80011","country":"United States","geoPoint":{"lat":39.72943,"lon":-104.83192}},{"facility":"University of Colorado Anschultz Medical Campus","city":"Aurora","state":"Colorado","zip":"80045","country":"United States","geoPoint":{"lat":39.72943,"lon":-104.83192}},{"facility":"UConn Health","city":"Farmington","state":"Connecticut","zip":"06030","country":"United States","geoPoint":{"lat":41.71982,"lon":-72.83204}},{"facility":"Yale School of Medicine - Yale-New Haven Hospital","city":"New Haven","state":"Connecticut","zip":"06519","country":"United States","geoPoint":{"lat":41.30815,"lon":-72.92816}},{"facility":"EZR Research LLC","city":"Boca Raton","state":"Florida","zip":"33486","country":"United States","geoPoint":{"lat":26.35869,"lon":-80.0831}},{"facility":"Nova Clinical Research, LLC","city":"Bradenton","state":"Florida","zip":"34209","country":"United States","geoPoint":{"lat":27.49893,"lon":-82.57482}},{"facility":"Las Mercedes Medical Research","city":"Hialeah","state":"Florida","zip":"33012","country":"United States","geoPoint":{"lat":25.8576,"lon":-80.27811}},{"facility":"Coral Clinic Research","city":"Homestead","state":"Florida","zip":"33032","country":"United States","geoPoint":{"lat":25.46872,"lon":-80.47756}},{"facility":"University of Florida (Jacksonville)","city":"Jacksonville","state":"Florida","zip":"32209","country":"United States","geoPoint":{"lat":30.33218,"lon":-81.65565}},{"facility":"Dm Healthworks","city":"Kissimmee","state":"Florida","zip":"34741","country":"United States","geoPoint":{"lat":28.30468,"lon":-81.41667}},{"facility":"University of Miami","city":"Miami","state":"Florida","zip":"33136","country":"United States","geoPoint":{"lat":25.77427,"lon":-80.19366}},{"facility":"Y&L Advance Health Care, Inc d/b/a Elite Clinical Research","city":"Miami","state":"Florida","zip":"33144","country":"United States","geoPoint":{"lat":25.77427,"lon":-80.19366}},{"facility":"Serenity Research Center","city":"Miami","state":"Florida","zip":"33176","country":"United States","geoPoint":{"lat":25.77427,"lon":-80.19366}},{"facility":"Floridian Research Institute","city":"Miami","state":"Florida","zip":"33179","country":"United States","geoPoint":{"lat":25.77427,"lon":-80.19366}},{"facility":"AdventHealth Orlando","city":"Orlando","state":"Florida","zip":"32804","country":"United States","geoPoint":{"lat":28.53834,"lon":-81.37924}},{"facility":"Research Institute of Orlando","city":"Orlando","state":"Florida","zip":"32806","country":"United States","geoPoint":{"lat":28.53834,"lon":-81.37924}},{"facility":"Comprehensive Neurology Clinic","city":"Orlando","state":"Florida","zip":"32825","country":"United States","geoPoint":{"lat":28.53834,"lon":-81.37924}},{"facility":"Panhandle Research & Medical Clinic","city":"Pensacola","state":"Florida","zip":"32502","country":"United States","geoPoint":{"lat":30.42131,"lon":-87.21691}},{"facility":"Medsol Clinical Research Center","city":"Port Charlotte","state":"Florida","zip":"33952","country":"United States","geoPoint":{"lat":26.97617,"lon":-82.09064}},{"facility":"Knight Neurology","city":"Rockledge","state":"Florida","zip":"32955","country":"United States","geoPoint":{"lat":28.35084,"lon":-80.72533}},{"facility":"PENS","city":"Tampa","state":"Florida","zip":"33609","country":"United States","geoPoint":{"lat":27.94752,"lon":-82.45843}},{"facility":"Santos Research Center","city":"Tampa","state":"Florida","zip":"33615","country":"United States","geoPoint":{"lat":27.94752,"lon":-82.45843}},{"facility":"Encore Medical Research of Weston LLC.","city":"Weston","state":"Florida","zip":"33331","country":"United States","geoPoint":{"lat":26.10037,"lon":-80.39977}},{"facility":"Pediatrix Medical Group of Florida","city":"Winter Park","state":"Florida","zip":"32789","country":"United States","geoPoint":{"lat":28.6,"lon":-81.33924}},{"facility":"Augusta University","city":"Augusta","state":"Georgia","zip":"30912","country":"United States","geoPoint":{"lat":33.47097,"lon":-81.97484}},{"facility":"Accelerated Clinical Trials, LLC","city":"Peachtree Corners","state":"Georgia","zip":"30071","country":"United States","geoPoint":{"lat":33.9701,"lon":-84.22159}},{"facility":"Hawaii Pacific Neuroscience","city":"Honolulu","state":"Hawaii","zip":"96817","country":"United States","geoPoint":{"lat":21.30694,"lon":-157.85833}},{"facility":"Consultants in Epilepsy & Neurology, PLLC","city":"Boise","state":"Idaho","zip":"83702","country":"United States","geoPoint":{"lat":43.6135,"lon":-116.20345}},{"facility":"Northwestern University","city":"Chicago","state":"Illinois","zip":"60611","country":"United States","geoPoint":{"lat":41.85003,"lon":-87.65005}},{"facility":"Revive Research Institute, Inc.","city":"Elgin","state":"Illinois","zip":"60123","country":"United States","geoPoint":{"lat":42.03725,"lon":-88.28119}},{"facility":"McFarland Clinic","city":"Ames","state":"Iowa","zip":"50010","country":"United States","geoPoint":{"lat":42.03471,"lon":-93.61994}},{"facility":"Bluegrass Epilepsy Research","city":"Lexington","state":"Kentucky","zip":"40504","country":"United States","geoPoint":{"lat":37.98869,"lon":-84.47772}},{"facility":"OLOLRMC","city":"Baton Rouge","state":"Louisiana","zip":"70808","country":"United States","geoPoint":{"lat":30.44332,"lon":-91.18747}},{"facility":"DelRicht Research","city":"Baton Rouge","state":"Louisiana","zip":"70810","country":"United States","geoPoint":{"lat":30.44332,"lon":-91.18747}},{"facility":"Neurocare Of Louisiana","city":"Covington","state":"Louisiana","zip":"70433","country":"United States","geoPoint":{"lat":30.47549,"lon":-90.10042}},{"facility":"University Medical Center New Orleans","city":"New Orleans","state":"Louisiana","zip":"70112","country":"United States","geoPoint":{"lat":29.95465,"lon":-90.07507}},{"facility":"DelRicht Research","city":"New Orleans","state":"Louisiana","zip":"70119","country":"United States","geoPoint":{"lat":29.95465,"lon":-90.07507}},{"facility":"LSU Health Shreveport","city":"Shreveport","state":"Louisiana","zip":"71103","country":"United States","geoPoint":{"lat":32.52515,"lon":-93.75018}},{"facility":"John Hopkins University","city":"Baltimore","state":"Maryland","zip":"21287","country":"United States","geoPoint":{"lat":39.29038,"lon":-76.61219}},{"facility":"Mid-Atlantic Epilepsy & Sleep Center, LLC","city":"Bethesda","state":"Maryland","zip":"20817","country":"United States","geoPoint":{"lat":38.98067,"lon":-77.10026}},{"facility":"Javara","city":"Silver Spring","state":"Maryland","zip":"20901","country":"United States","geoPoint":{"lat":38.99067,"lon":-77.02609}},{"facility":"Boston Clinical Trials","city":"Boston","state":"Massachusetts","zip":"02131","country":"United States","geoPoint":{"lat":42.35843,"lon":-71.05977}},{"facility":"Boston Neuro Research","city":"South Dartmouth","state":"Massachusetts","zip":"02747","country":"United States","geoPoint":{"lat":41.59177,"lon":-70.94115}},{"facility":"SRI International","city":"Plymouth","state":"Michigan","zip":"48170","country":"United States","geoPoint":{"lat":42.37143,"lon":-83.47021}},{"facility":"Revive Research Institute, Inc.","city":"Rochester Hills","state":"Michigan","zip":"48307","country":"United States","geoPoint":{"lat":42.65837,"lon":-83.14993}},{"facility":"Minnesota Epilepsy Group, P.A.","city":"Roseville","state":"Minnesota","zip":"55113","country":"United States","geoPoint":{"lat":45.00608,"lon":-93.15661}},{"facility":"University of Missouri Health Care","city":"Columbia","state":"Missouri","zip":"65212","country":"United States","geoPoint":{"lat":38.95171,"lon":-92.33407}},{"facility":"Washington University School of Medicine","city":"St Louis","state":"Missouri","zip":"63110","country":"United States","geoPoint":{"lat":38.62727,"lon":-90.19789}},{"facility":"Somnos Clinical Research","city":"Lincoln","state":"Nebraska","zip":"68510","country":"United States","geoPoint":{"lat":40.8,"lon":-96.66696}},{"facility":"NEREG","city":"Hackensack","state":"New Jersey","zip":"07601","country":"United States","geoPoint":{"lat":40.88593,"lon":-74.04347}},{"facility":"Inst of Neurology","city":"Livingston","state":"New Jersey","zip":"07039","country":"United States","geoPoint":{"lat":40.79593,"lon":-74.31487}},{"facility":"Tekton Research","city":"Marlboro","state":"New Jersey","zip":"07746","country":"United States","geoPoint":{"lat":40.31539,"lon":-74.24626}},{"facility":"Jersey Shore Medical Center","city":"Neptune City","state":"New Jersey","zip":"07753","country":"United States","geoPoint":{"lat":40.20011,"lon":-74.02792}},{"facility":"Dent Neurosciences Research Center","city":"Amherst","state":"New York","zip":"14226","country":"United States","geoPoint":{"lat":42.97839,"lon":-78.79976}},{"facility":"Northwell Health","city":"Great Neck","state":"New York","zip":"11021","country":"United States","geoPoint":{"lat":40.80066,"lon":-73.72846}},{"facility":"BCHP","city":"Hawthorne","state":"New York","zip":"10532","country":"United States","geoPoint":{"lat":41.10732,"lon":-73.79597}},{"facility":"Northwell Health","city":"New Hyde Park","state":"New York","zip":"11042","country":"United States","geoPoint":{"lat":40.7351,"lon":-73.68791}},{"facility":"NYU Langone Health","city":"New York","state":"New York","zip":"10016","country":"United States","geoPoint":{"lat":40.71427,"lon":-74.00597}},{"facility":"NYU","city":"New York","state":"New York","zip":"10016","country":"United States","geoPoint":{"lat":40.71427,"lon":-74.00597}},{"facility":"Stony Brook Medicine","city":"Stony Brook","state":"New York","zip":"11794","country":"United States","geoPoint":{"lat":40.92565,"lon":-73.14094}},{"facility":"Montefiore Medical Center","city":"The Bronx","state":"New York","zip":"10467","country":"United States","geoPoint":{"lat":40.84985,"lon":-73.86641}},{"facility":"Five Towns Neuroscience Research","city":"Woodmere","state":"New York","zip":"11598","country":"United States","geoPoint":{"lat":40.63205,"lon":-73.71263}},{"facility":"UNC-Chapel Hill","city":"Chapel Hill","state":"North Carolina","zip":"27514","country":"United States","geoPoint":{"lat":35.9132,"lon":-79.05584}},{"facility":"OnSite Clinical Solutions","city":"Charlotte","state":"North Carolina","zip":"28211","country":"United States","geoPoint":{"lat":35.22709,"lon":-80.84313}},{"facility":"Accellacare","city":"Mooresville","state":"North Carolina","zip":"28117","country":"United States","geoPoint":{"lat":35.58486,"lon":-80.81007}},{"facility":"Wake Forest Baptist","city":"Winston-Salem","state":"North Carolina","zip":"27157","country":"United States","geoPoint":{"lat":36.09986,"lon":-80.24422}},{"facility":"NeuroScience Research Center","city":"Canton","state":"Ohio","zip":"44718","country":"United States","geoPoint":{"lat":40.79895,"lon":-81.37845}},{"facility":"University of Cincinnati","city":"Cincinnati","state":"Ohio","zip":"45267","country":"United States","geoPoint":{"lat":39.12711,"lon":-84.51439}},{"facility":"OSU","city":"Columbus","state":"Ohio","zip":"43214","country":"United States","geoPoint":{"lat":39.96118,"lon":-82.99879}},{"facility":"Wright State University","city":"Dayton","state":"Ohio","zip":"45409","country":"United States","geoPoint":{"lat":39.75895,"lon":-84.19161}},{"facility":"Oregon Neurology Associates","city":"Springfield","state":"Oregon","zip":"97477","country":"United States","geoPoint":{"lat":44.04624,"lon":-123.02203}},{"facility":"University of Pennsylvania","city":"Philadelphia","state":"Pennsylvania","zip":"19104","country":"United States","geoPoint":{"lat":39.95238,"lon":-75.16362}},{"facility":"Thomas Jefferson University","city":"Philadelphia","state":"Pennsylvania","zip":"19107","country":"United States","geoPoint":{"lat":39.95238,"lon":-75.16362}},{"facility":"AHN","city":"Pittsburgh","state":"Pennsylvania","zip":"15212","country":"United States","geoPoint":{"lat":40.44062,"lon":-79.99589}},{"facility":"UPMC","city":"Pittsburgh","state":"Pennsylvania","zip":"15213","country":"United States","geoPoint":{"lat":40.44062,"lon":-79.99589}},{"facility":"MUSC","city":"Charleston","state":"South Carolina","zip":"29425","country":"United States","geoPoint":{"lat":32.77632,"lon":-79.93275}},{"facility":"WR-ClinSearch","city":"Chattanooga","state":"Tennessee","zip":"37421","country":"United States","geoPoint":{"lat":35.04563,"lon":-85.30968}},{"facility":"Le Bonheur Children's Hospital","city":"Memphis","state":"Tennessee","zip":"38103","country":"United States","geoPoint":{"lat":35.14953,"lon":-90.04898}},{"facility":"Vanderbilt University Medical Center","city":"Nashville","state":"Tennessee","zip":"37232","country":"United States","geoPoint":{"lat":36.16589,"lon":-86.78444}},{"facility":"Horizon Clinical Research Group","city":"Cypress","state":"Texas","zip":"77429","country":"United States","geoPoint":{"lat":29.96911,"lon":-95.69717}},{"facility":"Clinical Research Solutions LLC","city":"Cypress","state":"Texas","zip":"77433","country":"United States","geoPoint":{"lat":29.96911,"lon":-95.69717}},{"facility":"Neurology Consultants of Dallas, PA","city":"Dallas","state":"Texas","zip":"75243","country":"United States","geoPoint":{"lat":32.78306,"lon":-96.80667}},{"facility":"M3 Wake Research-Dallas","city":"Dallas","state":"Texas","zip":"75246","country":"United States","geoPoint":{"lat":32.78306,"lon":-96.80667}},{"facility":"ANESC Research","city":"El Paso","state":"Texas","zip":"79912","country":"United States","geoPoint":{"lat":31.75872,"lon":-106.48693}},{"facility":"Tarrant Neurology Consultants","city":"Fort Worth","state":"Texas","zip":"76104","country":"United States","geoPoint":{"lat":32.72541,"lon":-97.32085}},{"facility":"Michael E. DeBakey VA Medical Center","city":"Houston","state":"Texas","zip":"77030","country":"United States","geoPoint":{"lat":29.76328,"lon":-95.36327}},{"facility":"UTHealth Houston","city":"Houston","state":"Texas","zip":"77030","country":"United States","geoPoint":{"lat":29.76328,"lon":-95.36327}},{"facility":"UTHSC","city":"Houston","state":"Texas","zip":"77030","country":"United States","geoPoint":{"lat":29.76328,"lon":-95.36327}},{"facility":"Stryde Research","city":"Plano","state":"Texas","zip":"75093","country":"United States","geoPoint":{"lat":33.01984,"lon":-96.69889}},{"facility":"UT Health San Antonio","city":"San Antonio","state":"Texas","zip":"78229","country":"United States","geoPoint":{"lat":29.42412,"lon":-98.49363}},{"facility":"Road Runner Research, Ltd","city":"San Antonio","state":"Texas","zip":"78249","country":"United States","geoPoint":{"lat":29.42412,"lon":-98.49363}},{"facility":"Intermountain Health","city":"Murray","state":"Utah","zip":"84107","country":"United States","geoPoint":{"lat":40.66689,"lon":-111.88799}},{"facility":"University of Utah","city":"Salt Lake City","state":"Utah","zip":"84132","country":"United States","geoPoint":{"lat":40.76078,"lon":-111.89105}},{"facility":"UVM MC","city":"Burlington","state":"Vermont","zip":"05401","country":"United States","geoPoint":{"lat":44.47588,"lon":-73.21207}},{"facility":"University of Virginia","city":"Charlottesville","state":"Virginia","zip":"22903","country":"United States","geoPoint":{"lat":38.02931,"lon":-78.47668}},{"facility":"Medstar Health Research Institute","city":"McLean","state":"Virginia","zip":"22101","country":"United States","geoPoint":{"lat":38.93428,"lon":-77.17748}},{"facility":"Henrico Doctors Neurology Associates, LLC","city":"Richmond","state":"Virginia","zip":"23235","country":"United States","geoPoint":{"lat":37.55376,"lon":-77.46026}},{"facility":"Carilion Clinic","city":"Roanoke","state":"Virginia","zip":"24011","country":"United States","geoPoint":{"lat":37.27097,"lon":-79.94143}},{"facility":"STAT Research S.A.","city":"Ciudad Autónoma de Buenos Aires","state":"Buenos Aires","zip":"C1013AAB","country":"Argentina"},{"facility":"Hospital General de Agudos Dr. José María Ramos Mejia","city":"Balvanera","state":"Ciudad Autónoma de BuenosAires","zip":"C1221ADC","country":"Argentina","geoPoint":{"lat":-34.61032,"lon":-58.39766}},{"facility":"Centro de Educación Médica e Investigaciones Clínicas Norberto Quirno CEMIC-Elías Galván 4102","city":"Buenos Aires","state":"Ciudad Autónoma de BuenosAires","zip":"C1431FWO","country":"Argentina","geoPoint":{"lat":-34.61315,"lon":-58.37723}},{"facility":"Hospital Británico de Buenos Aires","city":"Buenos Aires","state":"Ciudad Autónoma de BuenosAires","zip":"C1437JCH","country":"Argentina","geoPoint":{"lat":-34.61315,"lon":-58.37723}},{"facility":"Investigaciones Sanatorio Del Sur","city":"San Miguel de Tucumán","state":"Tucumán Province","zip":"T4000AXL","country":"Argentina","geoPoint":{"lat":-26.81601,"lon":-65.21051}},{"facility":"Sanatorio de la Trinidad - Mitre","city":"Buenos Aires","zip":"C1039AAO","country":"Argentina","geoPoint":{"lat":-34.61315,"lon":-58.37723}},{"facility":"Hospital Italiano de Buenos Aires","city":"Buenos Aires","zip":"C1181ACH","country":"Argentina","geoPoint":{"lat":-34.61315,"lon":-58.37723}},{"facility":"Fundación Para La Lucha Contra Las Enfermedades Neurológicas de La Infancia - FLENI","city":"Buenos Aires","zip":"C1428AQK","country":"Argentina","geoPoint":{"lat":-34.61315,"lon":-58.37723}},{"facility":"Instituto Privado Kremer","city":"Córdoba","zip":"X5004AOA","country":"Argentina","geoPoint":{"lat":-31.40648,"lon":-64.18853}},{"facility":"Conci Carpinella - Santa Rosa N° 748","city":"Córdoba","zip":"X5008HHW","country":"Argentina","geoPoint":{"lat":-31.40648,"lon":-64.18853}},{"facility":"Royal Prince Alfred Hospital","city":"Camperdown","state":"New South Wales","zip":"2050","country":"Australia","geoPoint":{"lat":-33.88965,"lon":151.17642}},{"facility":"Prince of Wales Hospital","city":"Randwick","state":"New South Wales","zip":"2031","country":"Australia","geoPoint":{"lat":-33.91439,"lon":151.24895}},{"facility":"Royal Brisbane & Women's Hospital","city":"Herston","state":"Queensland","zip":"4029","country":"Australia","geoPoint":{"lat":-27.44453,"lon":153.01852}},{"facility":"St Vincents Hospital Melbourne - PPDS","city":"Fitzroy","state":"Victoria","zip":"3065","country":"Australia","geoPoint":{"lat":-37.79839,"lon":144.97833}},{"facility":"Austin Health","city":"Heidelberg","state":"Victoria","zip":"3084","country":"Australia","geoPoint":{"lat":-37.75,"lon":145.06667}},{"facility":"The Alfred Hospital","city":"Melbourne","state":"Victoria","zip":"3004","country":"Australia","geoPoint":{"lat":-37.814,"lon":144.96332}},{"facility":"Royal Melbourne Hospital","city":"Parkville","state":"Victoria","zip":"3050","country":"Australia","geoPoint":{"lat":-37.78333,"lon":144.95}},{"facility":"Flinders Medical Centre","city":"Bedford Park","zip":"5042","country":"Australia","geoPoint":{"lat":-35.02204,"lon":138.56815}},{"facility":"Kepler Universitätsklinikum Linz - Med Campus III","city":"Linz","state":"Upper Austria","zip":"4020","country":"Austria","geoPoint":{"lat":48.30639,"lon":14.28611}},{"facility":"Christian Doppler-Klinik - Universitätsklinikum der PMU","city":"Salzburg","zip":"5020","country":"Austria","geoPoint":{"lat":47.79941,"lon":13.04399}},{"facility":"Universitätsklinikum St. Pölten","city":"Sankt Pölten","zip":"3100","country":"Austria","geoPoint":{"lat":48.20762,"lon":15.63725}},{"facility":"Medizinische Universitat Wien (Medical University of Vienna)","city":"Vienna","zip":"1090","country":"Austria","geoPoint":{"lat":48.20849,"lon":16.37208}},{"facility":"UZ Antwerpen","city":"Edegem","state":"Antwerpen","zip":"2650","country":"Belgium","geoPoint":{"lat":51.15662,"lon":4.44504}},{"facility":"Hôpital Erasme","city":"Anderlecht","state":"Brussels Capital","zip":"1070","country":"Belgium","geoPoint":{"lat":50.83619,"lon":4.31454}},{"facility":"Cliniques Universitaires Saint-Luc","city":"Brussels","state":"Brussels Capital","zip":"1200","country":"Belgium","geoPoint":{"lat":50.85045,"lon":4.34878}},{"facility":"CHU UCL Namur - Site Godinne","city":"Yvoir","state":"Namur","zip":"5530","country":"Belgium","geoPoint":{"lat":50.3279,"lon":4.88059}},{"facility":"UZ Gent","city":"Ghent","state":"Oost-Vlaanderen","zip":"9000","country":"Belgium","geoPoint":{"lat":51.05,"lon":3.71667}},{"facility":"Centro de especialidades médicas Vanguardia","city":"Temuco","state":"Región de la Araucanía","zip":"4780000","country":"Chile","geoPoint":{"lat":-38.73628,"lon":-72.59738}},{"facility":"Instituto Neurologico Thalamus","city":"Viña del Mar","state":"Región de Valparaíso","zip":"2520021","country":"Chile","geoPoint":{"lat":-33.02457,"lon":-71.55183}},{"facility":"Hospital Padre Hurtado","city":"Santiago","state":"Región-MetropolitanadeSantiago","zip":"8260094","country":"Chile","geoPoint":{"lat":-33.45694,"lon":-70.64827}},{"facility":"BIOCINETIC Ltda","city":"Santiago","state":"Región-MetropolitanadeSantiago","zip":"8320000","country":"Chile","geoPoint":{"lat":-33.45694,"lon":-70.64827}},{"facility":"Centro de Investigacion Clinica UC","city":"Santiago","state":"Región-MetropolitanadeSantiago","zip":"8320000","country":"Chile","geoPoint":{"lat":-33.45694,"lon":-70.64827}},{"facility":"Clinical Hospital Dubrava","city":"Zagreb","state":"City of Zagreb","zip":"10000","country":"Croatia","geoPoint":{"lat":45.81444,"lon":15.97798}},{"facility":"Clinical Hospital Sveti duh","city":"Zagreb","state":"City of Zagreb","zip":"10000","country":"Croatia","geoPoint":{"lat":45.81444,"lon":15.97798}},{"facility":"Klinicki bolnicki centar Sestre Milosrdnice - Vinogradska cesta 29","city":"Zagreb","state":"City of Zagreb","zip":"10000","country":"Croatia","geoPoint":{"lat":45.81444,"lon":15.97798}},{"facility":"Klinicki bolnicki centar Zagreb","city":"Zagreb","state":"City of Zagreb","zip":"10000","country":"Croatia","geoPoint":{"lat":45.81444,"lon":15.97798}},{"facility":"Clinical Hospital Center Rijeka - PPDS","city":"Rijeka","zip":"51000","country":"Croatia","geoPoint":{"lat":45.32673,"lon":14.44241}},{"facility":"Fakultni nemocnice v Motole","city":"Prague","state":"Praha, Hlavní Mesto","zip":"150 06","country":"Czechia","geoPoint":{"lat":50.08804,"lon":14.42076}},{"facility":"Fakultni nemocnice u sv. Anny v Brne","city":"Brno","state":"South Moravian","zip":"602 00","country":"Czechia","geoPoint":{"lat":49.19522,"lon":16.60796}},{"facility":"Odense Universitetshospital","city":"Odense","state":"Fyn","zip":"5000","country":"Denmark","geoPoint":{"lat":55.39594,"lon":10.38831}},{"facility":"Aarhus University Hospital","city":"Aarhus","zip":"8200","country":"Denmark","geoPoint":{"lat":56.15674,"lon":10.21076}},{"facility":"Epilepsihospitalet Filadelfia","city":"Dianalund","zip":"4293","country":"Denmark","geoPoint":{"lat":55.53133,"lon":11.4925}},{"facility":"Kuopion yliopistollinen sairaala","city":"Kuopio","state":"Northern Savonia","zip":"70200","country":"Finland","geoPoint":{"lat":62.89238,"lon":27.67703}},{"facility":"Tampereen yliopistollinen sairaala","city":"Tampere","state":"Pirkanmaa","zip":"33520","country":"Finland","geoPoint":{"lat":61.49911,"lon":23.78712}},{"facility":"Helsinki University Hospital","city":"Helsinki","state":"Uusimaa","zip":"00290","country":"Finland","geoPoint":{"lat":60.16952,"lon":24.93545}},{"facility":"CHU de Strasbourg - Hôpital de Hautepierre","city":"Strasbourg","state":"Bas-Rhin","zip":"67000","country":"France","geoPoint":{"lat":48.58392,"lon":7.74553}},{"facility":"CHU Dijon Bourgogne","city":"Dijon","state":"Côte-d'Or","zip":"21000","country":"France","geoPoint":{"lat":47.31344,"lon":5.01391}},{"facility":"CHU de Toulouse-Hôpital Pierre-Paul Riquet-Site de Purpan","city":"Toulouse","state":"Haute-Garonne","zip":"31059","country":"France","geoPoint":{"lat":43.60426,"lon":1.44367}},{"facility":"CHU de Montpellier- Hôpital Gui De Chauliac","city":"Montpellier","state":"Hérault","zip":"34295","country":"France","geoPoint":{"lat":43.61093,"lon":3.87635}},{"facility":"CHRU de Tours - Hôpital Bretonneau","city":"Tours","state":"Indre-et-Loire","zip":"37000","country":"France","geoPoint":{"lat":47.39484,"lon":0.70398}},{"facility":"CHRU Nancy","city":"Nancy","state":"Meurthe-et-Moselle","zip":"54000","country":"France","geoPoint":{"lat":48.68439,"lon":6.18496}},{"facility":"CHU de Lille - Hopital Claude Huriez","city":"Lille","state":"Nord","zip":"59037","country":"France","geoPoint":{"lat":50.63391,"lon":3.05512}},{"facility":"Hospices Civils de Lyon - 59 Bd Pinel","city":"Lyon","state":"Rhône","zip":"69003","country":"France","geoPoint":{"lat":45.74906,"lon":4.84789}},{"facility":"Hôpital Pontchaillou","city":"Rennes","zip":"35033","country":"France","geoPoint":{"lat":48.11109,"lon":-1.67431}},{"facility":"Universitätsklinikum Freiburg","city":"Freiburg im Breisgau","state":"Baden-Wurttemberg","zip":"79106","country":"Germany","geoPoint":{"lat":47.9959,"lon":7.85222}},{"facility":"Epilepsiezentrum Kork","city":"Kehl","state":"Baden-Wurttemberg","zip":"77694","country":"Germany","geoPoint":{"lat":48.57297,"lon":7.81523}},{"facility":"Universitätsklinikum Ulm","city":"Ulm","state":"Baden-Wurttemberg","zip":"89081","country":"Germany","geoPoint":{"lat":48.39841,"lon":9.99155}},{"facility":"Universitätsklinikum Erlangen","city":"Erlangen","state":"Bavaria","zip":"91054","country":"Germany","geoPoint":{"lat":49.59099,"lon":11.00783}},{"facility":"LMU Klinikum der Universität München - Campus Großhadern","city":"München","state":"Bavaria","zip":"81377","country":"Germany","geoPoint":{"lat":48.69668,"lon":13.46314}},{"facility":"Epilepsieklinik Tabor","city":"Bernau bei Berlin","state":"Brandenburg","zip":"16321","country":"Germany","geoPoint":{"lat":52.67982,"lon":13.58708}},{"facility":"Universitätsklinikum Gießen und Marburg GmbH - Standort Marburg","city":"Marburg","state":"Hesse","zip":"35043","country":"Germany","geoPoint":{"lat":50.80904,"lon":8.77069}},{"facility":"Klinikum Osnabrück GmbH","city":"Osnabrück","state":"Lower Saxony","zip":"49076","country":"Germany","geoPoint":{"lat":52.27264,"lon":8.0498}},{"facility":"Krankenhaus Mara gGmbH","city":"Bielefeld","state":"North Rhine-Westphalia","zip":"33617","country":"Germany","geoPoint":{"lat":52.03333,"lon":8.53333}},{"facility":"Universitätsklinikum Bonn","city":"Bonn","state":"North Rhine-Westphalia","zip":"53127","country":"Germany","geoPoint":{"lat":50.73438,"lon":7.09549}},{"facility":"Universitätsklinikum Münster","city":"Münster","state":"North Rhine-Westphalia","zip":"48149","country":"Germany","geoPoint":{"lat":51.96236,"lon":7.62571}},{"facility":"Universitätsklinikum Leipzig","city":"Leipzig","state":"Saxony","zip":"04103","country":"Germany","geoPoint":{"lat":51.33962,"lon":12.37129}},{"facility":"Kleinwachau Sächsisches Epilepsiezentrum Radeberg Gemeinnützige Gmbh","city":"Radeberg","state":"Saxony","zip":"01454","country":"Germany","geoPoint":{"lat":51.11112,"lon":13.91199}},{"facility":"Vivantes - Humboldt Klinikum","city":"Berlin","zip":"13509","country":"Germany","geoPoint":{"lat":52.52437,"lon":13.41053}},{"facility":"Universitätsklinikum Frankfurt","city":"Frankfurt","zip":"60590","country":"Germany","geoPoint":{"lat":49.68333,"lon":10.53333}},{"facility":"Epilepsie-Zentrum Bodensee","city":"Ravensburg","zip":"88214","country":"Germany","geoPoint":{"lat":47.78198,"lon":9.61062}},{"facility":"University General Hospital of Alexandroupolis","city":"Alexandroupoli","zip":"681 00","country":"Greece","geoPoint":{"lat":40.84995,"lon":25.87644}},{"facility":"University General Hospital ''ATTIKON''","city":"Chaïdári","zip":"124 62","country":"Greece","geoPoint":{"lat":38.01135,"lon":23.66597}},{"facility":"University General Hospital of Ioannina","city":"Ioannina","zip":"455 00","country":"Greece","geoPoint":{"lat":39.66341,"lon":20.85187}},{"facility":"AHEPA University General Hospital of Thessaloniki","city":"Thessaloniki","zip":"546 36","country":"Greece","geoPoint":{"lat":40.64072,"lon":22.93493}},{"facility":"Georgios Papanikolaou General Hospital of Thessaloniki","city":"Thessaloniki","zip":"546 36","country":"Greece","geoPoint":{"lat":40.64072,"lon":22.93493}},{"facility":"Pécsi Tudományegyetem Klinikai Kozpont -Ret u.","city":"Pécs","state":"Baranya","zip":"7623","country":"Hungary","geoPoint":{"lat":46.07617,"lon":18.22814}},{"facility":"Debreceni Egyetem Klinikai Kozpont Kenezy Gyula Campus","city":"Debrecen","state":"Hajdú-Bihar","zip":"4031","country":"Hungary","geoPoint":{"lat":47.53167,"lon":21.62444}},{"facility":"Budapesti Bajcsy-Zsilinszky Korhaz es Rendelointezet","city":"Budapest","zip":"1106","country":"Hungary","geoPoint":{"lat":47.49835,"lon":19.04045}},{"facility":"SE INK Juhasz Pal Epilepszia Központ","city":"Budapest","zip":"1145","country":"Hungary","geoPoint":{"lat":47.49835,"lon":19.04045}},{"facility":"Nizam's Insti. of Medical Sciences","city":"Hyderabad","zip":"500082","country":"India","geoPoint":{"lat":17.38405,"lon":78.45636}},{"facility":"Mallikatta Neuro Centre","city":"Mangalore","zip":"575002","country":"India","geoPoint":{"lat":12.91723,"lon":74.85603}},{"facility":"Jaslok Hospital and Research","city":"Mumbai","zip":"400026","country":"India","geoPoint":{"lat":19.07283,"lon":72.88261}},{"facility":"Dr G M Taori Memorial CIIMS","city":"Nagpur","zip":"440010","country":"India","geoPoint":{"lat":21.14631,"lon":79.08491}},{"facility":"All India Institute of Medical Sciences (AIIMS)","city":"New Delhi","zip":"110029","country":"India","geoPoint":{"lat":28.62137,"lon":77.2148}},{"facility":"Università degli Studi G. D'Annunzio Chieti-Pescara","city":"Chieti","state":"Abruzzo","zip":"66013","country":"Italy","geoPoint":{"lat":42.34827,"lon":14.16494}},{"facility":"Azienda Ospedaliera Universitaria Renato Dulbecco - AO Mater Domini","city":"Catanzaro","state":"Calabria","zip":"88100","country":"Italy","geoPoint":{"lat":38.88247,"lon":16.60086}},{"facility":"AORN Antonio Cardarelli","city":"Napoli","state":"Campania","zip":"80131","country":"Italy","geoPoint":{"lat":40.87618,"lon":14.5195}},{"facility":"AUSL di Bologna - Ospedale Bellaria","city":"Bologna","state":"Emilia-Romagna","zip":"40123","country":"Italy","geoPoint":{"lat":44.49381,"lon":11.33875}},{"facility":"Fondazione PTV Policlinico Tor Vergata","city":"Rome","state":"Lazio","zip":"00133","country":"Italy","geoPoint":{"lat":41.89193,"lon":12.51133}},{"facility":"Istituto G Gaslini Ospedale Pediatrico IRCCS - INCIPIT - PIN","city":"Genoa","state":"Liguria","zip":"16147","country":"Italy","geoPoint":{"lat":44.40478,"lon":8.94439}},{"facility":"Ospedale San Raffaele S.r.l. - PPDS","city":"Milan","state":"Lombardy","zip":"20132","country":"Italy","geoPoint":{"lat":45.46427,"lon":9.18951}},{"facility":"Fondazione IRCCS Istituto Neurologico Carlo Besta","city":"Milan","state":"Lombardy","zip":"20133","country":"Italy","geoPoint":{"lat":45.46427,"lon":9.18951}},{"facility":"ASST Santi Paolo e Carlo - Azienda Universitaria-Polo Universitario San Paolo","city":"Milan","state":"Lombardy","zip":"20142","country":"Italy","geoPoint":{"lat":45.46427,"lon":9.18951}},{"facility":"Fondazione Istituto Neurologico Nazionale Casimiro Mondino IRCCS","city":"Pavia","state":"Lombardy","zip":"27100","country":"Italy","geoPoint":{"lat":45.19205,"lon":9.15917}},{"facility":"Azienda Ospedaliero-Universitaria di Modena - Ospedale Civile di Baggiovara","city":"Baggiovara","state":"Modena","zip":"41126","country":"Italy","geoPoint":{"lat":44.60416,"lon":10.86256}},{"facility":"IRCCS Istituto Neurologico Mediterraneo Neuromed","city":"Pozzilli","state":"Molise","zip":"86077","country":"Italy","geoPoint":{"lat":41.51142,"lon":14.06252}},{"facility":"Università Politecnica delle Marche Azienda Ospedaliero Universitaria Ospedali Riuniti di Ancona","city":"Ancona","state":"The Marches","zip":"60121","country":"Italy","geoPoint":{"lat":43.60717,"lon":13.5103}},{"facility":"Azienda Ospedaliero Universitaria A Meyer - INCIPIT - PIN","city":"Calambrone","state":"Tuscany","zip":"56018","country":"Italy","geoPoint":{"lat":43.58333,"lon":10.3}},{"facility":"Fondazione Policlinico Universitario A Gemelli-Rome","city":"Roma","zip":"00168","country":"Italy","geoPoint":{"lat":44.99364,"lon":11.10642}},{"facility":"IRCCS Ospedale Pediatrico Bambino Gesù - INCIPIT - PIN","city":"Rome","zip":"00165","country":"Italy","geoPoint":{"lat":41.89193,"lon":12.51133}},{"facility":"Azienda Ospedaliera Universitaria Integrata Di Verona","city":"Verona","zip":"37126","country":"Italy","geoPoint":{"lat":45.43854,"lon":10.9938}},{"facility":"Unidad de Investigación en Salud de Chihuahua S.C.-Mexico city","city":"Mexico City","zip":"14050","country":"Mexico","geoPoint":{"lat":19.42847,"lon":-99.12766}},{"facility":"Clinstile, S.A. de C.V.","city":"Mexico City","zip":"6700","country":"Mexico","geoPoint":{"lat":19.42847,"lon":-99.12766}},{"facility":"Accelerium, S. de R.L. de C.V. - PPDS","city":"Monterrey","zip":"64000","country":"Mexico","geoPoint":{"lat":25.68435,"lon":-100.31721}},{"facility":"Axis Heilsa S. de R.L. de C.V.","city":"Obispado","zip":"64060","country":"Mexico","geoPoint":{"lat":22.13968,"lon":-100.93171}},{"facility":"Neurociencias Estudios Clinicos S.C.","city":"Sinaloa","zip":"80020","country":"Mexico","geoPoint":{"lat":15.89261,"lon":-92.12896}},{"facility":"Clinical Research Institute SC-Mexico","city":"Tlalnepantla","zip":"54055","country":"Mexico","geoPoint":{"lat":19.54005,"lon":-99.19538}},{"facility":"FAICIC S De RL De CV","city":"Veracruz","zip":"91900","country":"Mexico","geoPoint":{"lat":19.18095,"lon":-96.1429}},{"facility":"Kempenhaeghe - PPDS","city":"Heeze","state":"North Brabant","zip":"5591 VE","country":"Netherlands","geoPoint":{"lat":51.3828,"lon":5.57145}},{"facility":"Stichting Epilepsie Instellingen Nederland - Heemstede","city":"Heemstede","state":"North Holland","zip":"2103 SW","country":"Netherlands","geoPoint":{"lat":52.34992,"lon":4.62301}},{"facility":"Stichting Epilepsie Instellingen Nederland - Dokter Denekampweg 20","city":"Zwolle","state":"Overijssel","zip":"8025 BV","country":"Netherlands","geoPoint":{"lat":52.5125,"lon":6.09444}},{"facility":"AES - DRS - Synexus Polska Sp. z o.o. Oddzial w Poznaniu","city":"Poznan","state":"Greater Poland Voivodeship","zip":"60-702","country":"Poland","geoPoint":{"lat":52.40692,"lon":16.92993}},{"facility":"Przychodnia VISTAMED","city":"Wroclaw","state":"Lower Silesian Voivodeship","zip":"53-149","country":"Poland","geoPoint":{"lat":51.10286,"lon":17.03006}},{"facility":"Clinical Best Solutions - Lublin","city":"Lublin","state":"Lublin Voivodeship","zip":"20-078","country":"Poland","geoPoint":{"lat":51.25058,"lon":22.57009}},{"facility":"NZOZ IGNIS dr med. Alicja Lobinska","city":"Świdnik","state":"Lublin Voivodeship","zip":"21-040","country":"Poland","geoPoint":{"lat":51.21898,"lon":22.69621}},{"facility":"Twoja Przychodnia Nowosolskie Centrum Medyczne sp. z o.o","city":"Nowa Sól","state":"Lubusz Voivodeship","zip":"67-100","country":"Poland","geoPoint":{"lat":51.80333,"lon":15.71702}},{"facility":"Santa Familia PTG Lodz","city":"Lodz","state":"Lódzkie","zip":"90-302","country":"Poland","geoPoint":{"lat":51.77058,"lon":19.47395}},{"facility":"MTZ Clinical Research Powered by PRATIA - PPDS","city":"Warsaw","state":"Masovian Voivodeship","zip":"02-172","country":"Poland","geoPoint":{"lat":52.22977,"lon":21.01178}},{"facility":"Neurosphera SP. Z O.O","city":"Warsaw","state":"Masovian Voivodeship","zip":"02-829","country":"Poland","geoPoint":{"lat":52.22977,"lon":21.01178}},{"facility":"Instytut Psychiatrii i Neurologii","city":"Warsaw","state":"Masovian Voivodeship","zip":"02-957","country":"Poland","geoPoint":{"lat":52.22977,"lon":21.01178}},{"facility":"Centrum Badan Klinicznych PI-House sp. z o.o.","city":"Gdansk","state":"Pomeranian Voivodeship","zip":"80-546","country":"Poland","geoPoint":{"lat":54.35227,"lon":18.64912}},{"facility":"Copernicus Podmiot Leczniczy Sp. z o.o. - ul. Nowe Ogrody 1-6","city":"Gdansk","zip":"80-803","country":"Poland","geoPoint":{"lat":54.35227,"lon":18.64912}},{"facility":"Novo-Med Zielinski i wsp. Sp.J. - ul. Brynowska 44","city":"Katowice","zip":"40-594","country":"Poland","geoPoint":{"lat":50.2597,"lon":19.02173}},{"facility":"Pratia MCM Kraków","city":"Krakow","zip":"30-727","country":"Poland","geoPoint":{"lat":50.06143,"lon":19.93658}},{"facility":"LANDA Specjalistyczne Gabinety Lekarskie","city":"Krakow","zip":"31-156","country":"Poland","geoPoint":{"lat":50.06143,"lon":19.93658}},{"facility":"Premium Clinic Wrocław","city":"Wroclaw","zip":"50-414","country":"Poland","geoPoint":{"lat":51.10286,"lon":17.03006}},{"facility":"ULS de Entre Douro e Vouga, EPE - Hospital de São Sebastião","city":"Santa Maria da Feira","state":"Aveiro District","zip":"4520-211","country":"Portugal","geoPoint":{"lat":40.92726,"lon":-8.54839}},{"facility":"ULS de Matosinhos, EPE - Hospital Pedro Hispano","city":"Senhora da Hora","state":"Porto District","zip":"4454-509","country":"Portugal","geoPoint":{"lat":41.18641,"lon":-8.65172}},{"facility":"Centro Clínico Académico, Braga - Hospital de Braga","city":"Braga","zip":"4710-243","country":"Portugal","geoPoint":{"lat":41.5514,"lon":-8.42311}},{"facility":"ULS de Coimbra, EPE - Hospitais da Universidade de Coimbra","city":"Coimbra","zip":"3000-459","country":"Portugal","geoPoint":{"lat":40.20686,"lon":-8.41996}},{"facility":"ULS de Lisboa Ocidental, EPE - Hospital Egas Moniz","city":"Lisbon","zip":"1449-005","country":"Portugal","geoPoint":{"lat":38.72509,"lon":-9.1498}},{"facility":"Hospital da Luz Torres de Lisboa","city":"Lisbon","zip":"1600-209","country":"Portugal","geoPoint":{"lat":38.72509,"lon":-9.1498}},{"facility":"Targu-Mures Emergency Clinical County Hospital - Str. Gh. Marinescu nr.50","city":"Târgu Mureş","state":"Mureș County","zip":"540136","country":"Romania","geoPoint":{"lat":46.54245,"lon":24.55747}},{"facility":"Emergency University Hospital","city":"Bucharest","zip":"11635","country":"Romania","geoPoint":{"lat":44.43225,"lon":26.10626}},{"facility":"IN MEDIC, s.r.o.","city":"Bardejov","zip":"085 01","country":"Slovakia","geoPoint":{"lat":49.29175,"lon":21.27271}},{"facility":"Kraskova 2636, Neurologické oddelenie","city":"Rimavská Sobota","zip":"979 01","country":"Slovakia","geoPoint":{"lat":48.38284,"lon":20.02239}},{"facility":"University Clinical Centre Maribor","city":"Maribor","zip":"2000","country":"Slovenia","geoPoint":{"lat":46.55583,"lon":15.64593}},{"facility":"InnoMed Clinical Trial Centre","city":"Cape Town","state":"Western Cape","zip":"7530","country":"South Africa","geoPoint":{"lat":-33.92584,"lon":18.42322}},{"facility":"Groote Schuur Hospital","city":"Cape Town","state":"Western Cape","zip":"7700","country":"South Africa","geoPoint":{"lat":-33.92584,"lon":18.42322}},{"facility":"Hospital Universitario Germans Trias i Pujol","city":"Badalona","state":"Barcelona","zip":"08916","country":"Spain","geoPoint":{"lat":41.45004,"lon":2.24741}},{"facility":"Hospital Universitario de Bellvitge","city":"L'Hospitalet de Llobregat","state":"Barcelona","zip":"08907","country":"Spain","geoPoint":{"lat":41.35967,"lon":2.10028}},{"facility":"Hospital Universitario de Navarra","city":"Pamplona","state":"Navarre","zip":"31008","country":"Spain","geoPoint":{"lat":42.81687,"lon":-1.64323}},{"facility":"CHUVI - H.U. Alvaro Cunqueiro","city":"Vigo","state":"Pontevedra","zip":"36312","country":"Spain","geoPoint":{"lat":42.23282,"lon":-8.72264}},{"facility":"Hospital del Mar","city":"Barcelona","zip":"08003","country":"Spain","geoPoint":{"lat":41.38879,"lon":2.15899}},{"facility":"Hospital Universitario Vall d'Hebron - PPDS","city":"Barcelona","zip":"08035","country":"Spain","geoPoint":{"lat":41.38879,"lon":2.15899}},{"facility":"Fundacio Assistencial Mutua de Terrassa","city":"Barcelona","zip":"08221","country":"Spain","geoPoint":{"lat":41.38879,"lon":2.15899}},{"facility":"Hospital Universitario Clínico San Cecilio","city":"Granada","zip":"18007","country":"Spain","geoPoint":{"lat":37.18817,"lon":-3.60667}},{"facility":"Hospital Vithas Granada","city":"Granada","zip":"18008","country":"Spain","geoPoint":{"lat":37.18817,"lon":-3.60667}},{"facility":"Hospital Universitario Virgen de Las Nieves","city":"Granada","zip":"18013","country":"Spain","geoPoint":{"lat":37.18817,"lon":-3.60667}},{"facility":"Hospital Ruber Internacional (Grupo Quironsalud)","city":"Madrid","zip":"28034","country":"Spain","geoPoint":{"lat":40.4165,"lon":-3.70256}},{"facility":"Hospital Universitario Fundacion Jimenez Diaz","city":"Madrid","zip":"28040","country":"Spain","geoPoint":{"lat":40.4165,"lon":-3.70256}},{"facility":"Blua Sanitas Valdebebas Hospital","city":"Madrid","zip":"28055","country":"Spain","geoPoint":{"lat":40.4165,"lon":-3.70256}},{"facility":"Hospital blua sanitas valdebebas","city":"Madrid","zip":"28055","country":"Spain","geoPoint":{"lat":40.4165,"lon":-3.70256}},{"facility":"Hospital Regional Universitario de Malaga - Hospital General","city":"Málaga","zip":"29010","country":"Spain","geoPoint":{"lat":36.72016,"lon":-4.42034}},{"facility":"Centro de Neurologia Avanzada","city":"Seville","zip":"41013","country":"Spain","geoPoint":{"lat":37.38283,"lon":-5.97317}},{"facility":"Hospital Universitari i Politecnic La Fe de Valencia","city":"Valencia","zip":"46026","country":"Spain","geoPoint":{"lat":39.47391,"lon":-0.37966}},{"facility":"Hospital Clinico Universitario de Valladolid","city":"Valladolid","zip":"47003","country":"Spain","geoPoint":{"lat":41.65541,"lon":-4.72353}},{"facility":"Klinik Lengg AG","city":"Zurich","state":"Zürich (de)","zip":"8008","country":"Switzerland","geoPoint":{"lat":47.36667,"lon":8.55}},{"facility":"Morriston Hospital","city":"Swansea","state":"Glamorgan","zip":"SA6 6NL","country":"United Kingdom","geoPoint":{"lat":51.62079,"lon":-3.94323}},{"facility":"Queen Elizabeth University Hospital-PPDS","city":"Glasgow","state":"Glasgow City","zip":"G51 4TF","country":"United Kingdom","geoPoint":{"lat":55.86515,"lon":-4.25763}},{"facility":"Salford Royal Hospital - PPDS","city":"Salford","state":"Manchester","zip":"M6 8HD","country":"United Kingdom","geoPoint":{"lat":53.48771,"lon":-2.29042}},{"facility":"The Walton Centre - PPDS","city":"Liverpool","state":"Merseyside","zip":"L9 7LJ","country":"United Kingdom","geoPoint":{"lat":53.41058,"lon":-2.97794}},{"facility":"University College Hospital","city":"London","state":"Middlesex","zip":"WC1N 3BG","country":"United Kingdom","geoPoint":{"lat":51.50853,"lon":-0.12574}},{"facility":"John Radcliffe Hospital","city":"Oxford","state":"Oxfordshire","zip":"OX3 9DU","country":"United Kingdom","geoPoint":{"lat":51.75222,"lon":-1.25596}},{"facility":"University Hospital of Wales","city":"Cardiff","state":"South Glamorgan","zip":"CF14 4XW","country":"United Kingdom","geoPoint":{"lat":51.48,"lon":-3.18}},{"facility":"Royal Victoria Infirmary","city":"Newcastle upon Tyne","zip":"NE1 4LP","country":"United Kingdom","geoPoint":{"lat":54.97328,"lon":-1.61396}}]}},"derivedSection":{"miscInfoModule":{"versionHolder":"2026-02-25"},"conditionBrowseModule":{"meshes":[{"id":"D004828","term":"Epilepsies, Partial"},{"id":"D004827","term":"Epilepsy"},{"id":"D012640","term":"Seizures"},{"id":"D000069279","term":"Drug Resistant Epilepsy"}],"ancestors":[{"id":"D001927","term":"Brain Diseases"},{"id":"D002493","term":"Central Nervous System Diseases"},{"id":"D009422","term":"Nervous System Diseases"},{"id":"D009461","term":"Neurologic Manifestations"},{"id":"D012816","term":"Signs and Symptoms"},{"id":"D013568","term":"Pathological Conditions, Signs and Symptoms"}]}},"hasResults":false}
]}