{"totalCount":15,"studies":[
{"protocolSection":{"identificationModule":{"nctId":"NCT06727565","orgStudyIdInfo":{"id":"GS-US-699-7184-01"},"secondaryIdInfos":[{"id":"2024-513121-22","type":"OTHER","domain":"EU Trial (CTIS) Number"}],"organization":{"fullName":"Gilead Sciences","class":"INDUSTRY"},"briefTitle":"Study of Novel Treatment Combination Therapies in Participants With Head and Neck Squamous Cell Carcinoma Regardless of PD-L1 Expression Status; Substudy-01","officialTitle":"VELOCITY-HNSCC Substudy-01: A Phase 2 Study of Novel Combination Therapies in Participants With Previously Untreated Recurrent or Metastatic Head and Neck Squamous Cell Carcinoma Regardless of PD-L1 Expression Status","acronym":"VELOCITY-HNSCC"},"statusModule":{"statusVerifiedDate":"2025-12","overallStatus":"RECRUITING","expandedAccessInfo":{"hasExpandedAccess":false},"startDateStruct":{"date":"2025-02-18","type":"ACTUAL"},"primaryCompletionDateStruct":{"date":"2026-08","type":"ESTIMATED"},"completionDateStruct":{"date":"2026-08","type":"ESTIMATED"},"studyFirstSubmitDate":"2024-12-09","studyFirstSubmitQcDate":"2024-12-09","studyFirstPostDateStruct":{"date":"2024-12-11","type":"ACTUAL"},"lastUpdateSubmitDate":"2025-12-23","lastUpdatePostDateStruct":{"date":"2025-12-24","type":"ACTUAL"}},"sponsorCollaboratorsModule":{"responsibleParty":{"type":"SPONSOR"},"leadSponsor":{"name":"Gilead Sciences","class":"INDUSTRY"},"collaborators":[{"name":"Arcus Biosciences, Inc.","class":"INDUSTRY"}]},"oversightModule":{"oversightHasDmc":false,"isFdaRegulatedDrug":true,"isFdaRegulatedDevice":false},"descriptionModule":{"briefSummary":"Master protocol: The main goal of this master clinical study is to evaluate the efficacy and safety of multiple novel combination therapies in participants with head and neck squamous cell carcinoma (HNSCC) in various substudies.\n\nSubstudy-01 will evaluate the efficacy and safety of novel combination of treatment regimens, domvanalimab (DOM) and zimberelimab (ZIM) combined with chemotherapy vs ZIM combined with chemotherapy.\n\nThe primary objective is to assess the efficacy of DOM and ZIM in combination with chemotherapy versus ZIM in combination with chemotherapy.","detailedDescription":"This platform study will begin with a substudy targeting first-line (1L) recurrent or metastatic (r/m) HNSCC regardless of programmed cell death ligand 1 (PD-L1) expression status (Substudy-01), and new substudies may be added in the future targeting different study populations of HNSCC. All substudies evaluating additional drugs will be added in a staggered manner when relevant nonclinical and/or clinical data become available. Additional drugs may also be added to Substudy-01 in the future."},"conditionsModule":{"conditions":["Head and Neck Squamous Cell Carcinoma"]},"designModule":{"studyType":"INTERVENTIONAL","phases":["PHASE2"],"designInfo":{"allocation":"RANDOMIZED","interventionModel":"PARALLEL","primaryPurpose":"TREATMENT","maskingInfo":{"masking":"NONE"}},"enrollmentInfo":{"count":100,"type":"ESTIMATED"}},"armsInterventionsModule":{"armGroups":[{"label":"Treatment Group A: Domvanalimab (DOM) + Zimberelimab (ZIM) + Platinum-based Chemotherapy","type":"EXPERIMENTAL","description":"Participants will receive DOM + ZIM + platinum-based chemotherapy (paclitaxel + carboplatin).","interventionNames":["Drug: Domvanalimab","Drug: Zimberelimab","Drug: Paclitaxel","Drug: Carboplatin"]},{"label":"Treatment Group B: Zimberelimab (ZIM) + Platinum-based Chemotherapy","type":"EXPERIMENTAL","description":"Participants will receive ZIM + platinum-based chemotherapy (paclitaxel + carboplatin).","interventionNames":["Drug: Zimberelimab","Drug: Paclitaxel","Drug: Carboplatin"]}],"interventions":[{"type":"DRUG","name":"Domvanalimab","description":"Administered intravenously","armGroupLabels":["Treatment Group A: Domvanalimab (DOM) + Zimberelimab (ZIM) + Platinum-based Chemotherapy"]},{"type":"DRUG","name":"Zimberelimab","description":"Administered intravenously","armGroupLabels":["Treatment Group A: Domvanalimab (DOM) + Zimberelimab (ZIM) + Platinum-based Chemotherapy","Treatment Group B: Zimberelimab (ZIM) + Platinum-based Chemotherapy"]},{"type":"DRUG","name":"Paclitaxel","description":"Administered intravenously","armGroupLabels":["Treatment Group A: Domvanalimab (DOM) + Zimberelimab (ZIM) + Platinum-based Chemotherapy","Treatment Group B: Zimberelimab (ZIM) + Platinum-based Chemotherapy"]},{"type":"DRUG","name":"Carboplatin","description":"Administered intravenously","armGroupLabels":["Treatment Group A: Domvanalimab (DOM) + Zimberelimab (ZIM) + Platinum-based Chemotherapy","Treatment Group B: Zimberelimab (ZIM) + Platinum-based Chemotherapy"]}]},"outcomesModule":{"primaryOutcomes":[{"measure":"Objective response rate (ORR)","description":"ORR is defined as the proportion of participants who achieve a complete response (CR) or partial response (PR) as measured by Response Evaluation Criteria in Solid Tumors (RECIST) v1.1 using investigator assessments.","timeFrame":"Up to 36 months"},{"measure":"Progression-free survival (PFS)","description":"PFS is defined as the time from the date of randomization until the first date of documented progressive disease (PD) or death from any cause, whichever occurs first, as measured by RECIST v1.1 using investigator assessments.","timeFrame":"Up to 36 months"}],"secondaryOutcomes":[{"measure":"Duration of Response (DOR)","description":"DOR is defined as the time from the date of the first documented response until the first date of documented PD or death from any cause, whichever occurs first, as measured by RECIST v1.1 using investigator assessments.","timeFrame":"Up to 36 months"},{"measure":"Progression-Free Survival at 6 Months (PFS6)","description":"PFS6 is defined as the proportion of participants alive and PD-free from date of randomization until 6 months as measured by RECIST v1.1 using investigator assessments.","timeFrame":"Up to 6 months"},{"measure":"Overall Survival (OS)","description":"OS is defined as the time from the date of randomization until the date of death from any cause.","timeFrame":"Up to 36 months"},{"measure":"Overall Survival at 6 Months (OS6)","description":"OS6 is defined as the proportion of participants alive at 6 months from the date of randomization, respectively.","timeFrame":"Up to 6 months"},{"measure":"Overall Survival at 12 Months (OS12)","description":"OS12 is defined as the proportion of participants alive at 12 months from the date of randomization, respectively.","timeFrame":"Up to 12 months"},{"measure":"Disease Control Rate (DCR)","description":"DCR is defined as the proportion of participants who achieve a CR, PR, or stable disease (SD) as measured by RECIST v1.1 using investigator assessments.","timeFrame":"Up to 36 months"},{"measure":"Time to Progression (TTP)","description":"TTP, defined as the time from randomization until the first date of documented PD as measured by RECIST v1.1 using investigator assessments","timeFrame":"Up to 36 months"},{"measure":"Percentage of Participants Experiencing Treatment-emergent Adverse Events (TEAEs) and Related TEAEs","timeFrame":"First dose date up to 24 months plus 100 days"},{"measure":"Percentage of Participants Experiencing Clinical Laboratory Abnormalities","timeFrame":"First dose date up to 24 months plus 100 days"}]},"eligibilityModule":{"eligibilityCriteria":"Key Inclusion Criteria:\n\n* Histologically or cytologically confirmed r/m squamous cell carcinoma of the oral cavity, oropharynx, hypopharynx, and larynx that is considered incurable by local therapies.\n* No prior systemic therapy for r/m HNSCC. Individuals who had disease progression or recurrence more than 6 months after the last dose of curative intent systemic platinum-containing therapy for locoregionally advanced disease are eligible.\n* At least 1 measurable lesion by computed tomography or magnetic resonance imaging that qualifies as a RECIST v1.1 target lesion at baseline.\n* Have adequate tumor tissue samples preferably from lesions not irradiated prior to biopsy (acceptable from irradiated lesions if disease progression has been demonstrated in such lesions) to submit for central testing.\n* Eastern Cooperative Oncology Group (ECOG) performance status score of 0 or 1.\n* Known results from human papillomavirus (HPV) status test (p16 expression) for oropharyngeal carcinoma defined as p16 testing.\n\nKey Exclusion Criteria:\n\n* Individuals with nasopharyngeal cancer (any histology), squamous cell carcinoma of unknown primary tumors, skin (cutaneous squamous cell carcinoma), paranasal sinuses, and salivary gland.\n* Have disease that is suitable for any local therapies with curative intent.\n* Individuals who had disease progression or recurrence within 6 months after the last dose of curative intent systemic platinum-containing therapy for locoregionally advanced disease.\n* Have a history of (noninfectious) pneumonitis/interstitial lung disease that required steroids or has current pneumonitis/interstitial lung disease.\n* Have an active autoimmune disease that required systemic treatment in the past 2 years. (ie, with use of disease-modifying agents, corticosteroids, or immunosuppressive drugs). Replacement therapy (eg, thyroxine, insulin, or physiologic corticosteroid replacement therapy for adrenal or pituitary insufficiency) is not considered a form of systemic treatment.\n* Prior treatment with any of the following within the specific time frame prior to the first dose of study drug:\n\n  * Major surgery for any cause or significant traumatic injury within 4 weeks prior to the first dose of study drug. Individuals must have recovered adequately from the toxicity and/or complications from the intervention prior to starting study drug.\n  * Any noninvestigational anticancer therapy (chemotherapy, biologic therapy, targeted therapy, hormone therapy, or immunotherapy, etc) within 4 weeks prior to the first dose of study drug. Concurrent use for noncancer related condition (eg, hormone replacement therapy) is acceptable.\n  * Any investigational drugs (drugs not marketed for any indication) within 4 weeks or 5 half-lives (whichever is longer) prior to the first dose of study drug.\n  * Radiation therapy within 2 weeks prior to the first dose of study drug. Individuals must have recovered to Grade ≤ 1 from all radiation-related toxicities, not requiring corticosteroid, and have not experienced radiation pneumonitis.\n* Received prior treatment with any anti-PD-1/PD-L1, anti-TIGIT, or other immune checkpoint inhibitors.\n* Currently receiving chronic systemic steroids (\\> 10 mg/day prednisone or its equivalent). Use of topical, inhalational, intranasal, intraocular steroids, and use as premedication for hypersensitivity reactions (eg, IV contrast allergy) are permitted.\n* Any unresolved toxicity (Grade ≥ 2) per National Cancer Institute Common Terminology Criteria for Adverse Events v5.0 from prior anticancer therapy or surgical intervention, with the exception of alopecia, vitiligo, and the laboratory toxicities if the laboratory thresholds defined in the inclusion criteria are met. Individuals with Grade ≤ 2 neuropathy are eligible for this study.\n* Have an active second malignancy or have had an active second malignancy within 3 years prior to enrollment.\n* Have known active central nervous system (CNS) metastases. Individuals with previously treated brain metastases may participate provided they have stable CNS disease for at least 4 weeks prior to enrollment and all neurologic symptoms have returned to baseline, have no evidence of new or enlarging brain metastasis and are not requiring use of steroid for at least 14 days prior to the first dose of study drugs.\n\nNote: Other protocol defined Inclusion/Exclusion criteria may apply.","healthyVolunteers":false,"sex":"ALL","minimumAge":"18 Years","stdAges":["ADULT","OLDER_ADULT"]},"contactsLocationsModule":{"centralContacts":[{"name":"Gilead Clinical Study Information Center","role":"CONTACT","phone":"1-833-445-3230 (GILEAD-0)","email":"GileadClinicalTrials@gilead.com"}],"overallOfficials":[{"name":"Gilead Study Director","affiliation":"Gilead Sciences","role":"STUDY_DIRECTOR"}],"locations":[{"facility":"Siteman Cancer Center","status":"RECRUITING","city":"St Louis","state":"Missouri","zip":"63110","country":"United States","geoPoint":{"lat":38.62727,"lon":-90.19789}},{"facility":"Tennessee Oncology, PLLC - Greco-Hainsworth Centers for Research","status":"RECRUITING","city":"Nashville","state":"Tennessee","zip":"37203","country":"United States","geoPoint":{"lat":36.16589,"lon":-86.78444}},{"facility":"The University of Texas, MD Anderson Cancer Center","status":"RECRUITING","city":"Houston","state":"Texas","zip":"77030","country":"United States","geoPoint":{"lat":29.76328,"lon":-95.36327}},{"facility":"Monash Health","status":"RECRUITING","city":"Clayton","state":"Victoria","zip":"3168","country":"Australia","geoPoint":{"lat":-37.91667,"lon":145.11667}},{"facility":"Alfred Health","status":"RECRUITING","city":"Melbourne","state":"Victoria","zip":"3004","country":"Australia","geoPoint":{"lat":-37.814,"lon":144.96332}},{"facility":"ICON Cancer Center","status":"RECRUITING","city":"Kurralta Park","zip":"5037","country":"Australia","geoPoint":{"lat":-34.95142,"lon":138.56702}},{"facility":"Westmead Hospital","status":"RECRUITING","city":"Sydney","zip":"2145","country":"Australia","geoPoint":{"lat":-33.86785,"lon":151.20732}},{"facility":"Sichuan Cancer Hospital","status":"RECRUITING","city":"Chengdu","zip":"610040","country":"China","geoPoint":{"lat":30.66667,"lon":104.06667}},{"facility":"Zhejiang Cancer Hospital","status":"RECRUITING","city":"Hangzhou","zip":"310005","country":"China","geoPoint":{"lat":30.29365,"lon":120.16142}},{"facility":"Guangxi Medical University Cancer Hospital","status":"RECRUITING","city":"Nanning","zip":"530012","country":"China","geoPoint":{"lat":22.81667,"lon":108.31667}},{"facility":"Shanghai East Hospital","status":"RECRUITING","city":"Shanghai","zip":"200120","country":"China","geoPoint":{"lat":31.22222,"lon":121.45806}},{"facility":"Union Hospital, Tongji Medical College, Huazhong University of Science and Technology","status":"RECRUITING","city":"Wuhan","zip":"430030","country":"China","geoPoint":{"lat":30.58333,"lon":114.26667}},{"facility":"CHU de Bordeaux","status":"RECRUITING","city":"Pessac","zip":"33604","country":"France","geoPoint":{"lat":44.80565,"lon":-0.6324}},{"facility":"Fondazione IRCCS Istituto Nazionale dei Tumori","status":"RECRUITING","city":"Milan","zip":"20133","country":"Italy","geoPoint":{"lat":42.78235,"lon":12.59836}},{"facility":"Istituto Nazionale Tumori Fondazione G. Pascale","status":"RECRUITING","city":"Napoli","zip":"80131","country":"Italy","geoPoint":{"lat":40.87618,"lon":14.5195}},{"facility":"Sarawak General Hospital","status":"RECRUITING","city":"Sarawak","zip":"93586","country":"Malaysia"},{"facility":"Hospital Universitario Virgen del Rocio","status":"RECRUITING","city":"Seville","zip":"41013","country":"Spain","geoPoint":{"lat":37.38283,"lon":-5.97317}},{"facility":"Kaohsiung Medical University Chung-Ho Memorial Hospital","status":"RECRUITING","city":"Kaohsiung City","zip":"80756","country":"Taiwan","geoPoint":{"lat":22.61626,"lon":120.31333}},{"facility":"Chang Gung Medical Foundation Kaohsiung Chang Gung Memorial Hospital","status":"RECRUITING","city":"Kaohsiung City","zip":"833","country":"Taiwan","geoPoint":{"lat":22.61626,"lon":120.31333}},{"facility":"China Medical University Hospital","status":"RECRUITING","city":"Taichung","zip":"40402","country":"Taiwan","geoPoint":{"lat":24.1469,"lon":120.6839}},{"facility":"National Taiwan University Hospital","status":"RECRUITING","city":"Taipei","zip":"100229","country":"Taiwan","geoPoint":{"lat":25.05306,"lon":121.52639}},{"facility":"Taipei Veterans General Hospital","status":"RECRUITING","city":"Taipei","zip":"11217","country":"Taiwan","geoPoint":{"lat":25.05306,"lon":121.52639}},{"facility":"Chang Gung Memorial Hospital, Linkou","status":"RECRUITING","city":"Taoyuan District","zip":"33308","country":"Taiwan","geoPoint":{"lat":24.9896,"lon":121.3187}},{"facility":"Barts Health NHS Foundation Trust","status":"RECRUITING","city":"London","zip":"EC1A 7BE","country":"United Kingdom","geoPoint":{"lat":51.50853,"lon":-0.12574}},{"facility":"The Royal Marsden NHS Foundation Trust","status":"RECRUITING","city":"London","zip":"SW10 9NH","country":"United Kingdom","geoPoint":{"lat":51.50853,"lon":-0.12574}}]},"referencesModule":{"seeAlsoLinks":[{"label":"Gilead Clinical Trials Website","url":"https://www.gileadclinicaltrials.com/study?nctid=NCT06727565"}]},"ipdSharingStatementModule":{"ipdSharing":"NO"}},"derivedSection":{"miscInfoModule":{"versionHolder":"2026-02-25"},"conditionBrowseModule":{"meshes":[{"id":"D000077195","term":"Squamous Cell Carcinoma of Head and Neck"}],"ancestors":[{"id":"D002294","term":"Carcinoma, Squamous Cell"},{"id":"D002277","term":"Carcinoma"},{"id":"D009375","term":"Neoplasms, Glandular and Epithelial"},{"id":"D009370","term":"Neoplasms by Histologic Type"},{"id":"D009369","term":"Neoplasms"},{"id":"D006258","term":"Head and Neck Neoplasms"},{"id":"D009371","term":"Neoplasms by Site"}]},"interventionBrowseModule":{"meshes":[{"id":"C000719848","term":"zimberelimab"},{"id":"D017239","term":"Paclitaxel"},{"id":"D016190","term":"Carboplatin"}],"ancestors":[{"id":"D043823","term":"Taxoids"},{"id":"D043822","term":"Cyclodecanes"},{"id":"D003516","term":"Cycloparaffins"},{"id":"D006840","term":"Hydrocarbons, Alicyclic"},{"id":"D006844","term":"Hydrocarbons, Cyclic"},{"id":"D006838","term":"Hydrocarbons"},{"id":"D009930","term":"Organic Chemicals"},{"id":"D004224","term":"Diterpenes"},{"id":"D013729","term":"Terpenes"},{"id":"D056831","term":"Coordination Complexes"}]}},"hasResults":false},
{"protocolSection":{"identificationModule":{"nctId":"NCT04656535","orgStudyIdInfo":{"id":"2000028799"},"secondaryIdInfos":[{"id":"R01CA266757","type":"NIH","link":"https://reporter.nih.gov/quickSearch/R01CA266757"}],"organization":{"fullName":"Yale University","class":"OTHER"},"briefTitle":"AB154 Combined With AB122 for Recurrent Glioblastoma","officialTitle":"A Multi-Center Phase 0/I Trial of Anti-TIGIT Antibody AB154 in Combination With Anti-PD-1 Antibody AB122 for Recurrent Glioblastoma."},"statusModule":{"statusVerifiedDate":"2026-01","overallStatus":"ACTIVE_NOT_RECRUITING","expandedAccessInfo":{"hasExpandedAccess":false},"startDateStruct":{"date":"2021-04-21","type":"ACTUAL"},"primaryCompletionDateStruct":{"date":"2026-07-30","type":"ESTIMATED"},"completionDateStruct":{"date":"2026-12-31","type":"ESTIMATED"},"studyFirstSubmitDate":"2020-11-18","studyFirstSubmitQcDate":"2020-11-30","studyFirstPostDateStruct":{"date":"2020-12-07","type":"ACTUAL"},"lastUpdateSubmitDate":"2026-01-06","lastUpdatePostDateStruct":{"date":"2026-01-07","type":"ACTUAL"}},"sponsorCollaboratorsModule":{"responsibleParty":{"type":"PRINCIPAL_INVESTIGATOR","investigatorFullName":"Sylvia Kurz","investigatorTitle":"Associate Professor of Neurology","investigatorAffiliation":"Yale University"},"leadSponsor":{"name":"Yale University","class":"OTHER"},"collaborators":[{"name":"National Cancer Institute (NCI)","class":"NIH"},{"name":"Arcus Biosciences, Inc.","class":"INDUSTRY"}]},"oversightModule":{"oversightHasDmc":true,"isFdaRegulatedDrug":true,"isFdaRegulatedDevice":false},"descriptionModule":{"briefSummary":"This is a phase 0/I exploratory study. Patients at first or second recurrence of glioblastoma will be enrolled. The study will be divided into two cohorts: Cohort A (safety cohort) and Cohort B (surgical patient cohort).\n\nCohort A: Eligible patients will be sequentially enrolled to receive intravenous domvanalimab combined with zimberelimab (N=6). Domvanalimab will be given at a dose of 10 mg/kg and zimberelimab will be given at a dose of 240 mg (flat). The dosing was determined in a separate study in solid tumors; this cohort will confirm the safety of the dosing schedule in patients with brain tumors.\n\nCohort B: Expansion surgical cohort. The purpose of cohort B is to provide an additional safety evaluation of domvanalimab + zimberelimab as well as tissue and blood for exploratory ancillary studies investigating the effects of domvanalimab + zimberelimab in the tumor and tumor microenvironment. A total of 46 patients will be enrolled in this cohort.","detailedDescription":"This is a phase 0/I exploratory study. Patients at first or second recurrence of glioblastoma will be enrolled. The study will be divided into two cohorts: Cohort A (safety cohort) and Cohort B (surgical patient cohort).\n\nCohort A: Eligible patients will be sequentially enrolled to receive intravenous domvanalimab combined with zimberelimab (N=6). Domvanalimab will be given at a dose of 10 mg/kg and zimberelimab will be given at a dose of 240 mg (flat). The dosing was determined in a separate study in solid tumors; this cohort will confirm the safety of the dosing schedule in patients with brain tumors.\n\nCohort B: Expansion surgical cohort. The purpose of cohort B is to provide an additional safety evaluation of domvanalimab + zimberelimab as well as tissue and blood for exploratory ancillary studies investigating the effects of domvanalimab + zimberelimab in the tumor and tumor microenvironment. A total of 46 patients will be enrolled in this cohort.\n\nFollowing completion of cohort A, patients who are candidates for surgical resection for management of tumor progression (i.e. need for diagnostic confirmation or tumor debulking) will be enrolled prior to surgical resection, and initiate study treatment approximately two weeks prior to the resection.\n\nPatients will be randomized to one of the four treatment arms and initiate treatment prior to surgery, according to treatment assignment.\n\nThe pre-surgical dose (neoadjuvant treatment) will be double-blinded, to minimize dropouts. A total of 10 patients will be allocated to each one of the following groups in a blinded fashion, approximately two weeks before surgery:\n\n* B1 (N=10): domvanalimab single agent (10 mg/kg) + placebo\n* B2 (N=10): zimberelimab single agent (240 mg) + placebo\n* B3 (N=10): domvanalimab (10 mg/kg) +zimberelimab (240 mg)\n* B4 (N=10): Two placebo infusions\n\nTwo to six weeks, following surgery, all patients (N=46) will be re-screened and if still eligible will initiate treatment with the combination of domvanalimab and zimberelimab."},"conditionsModule":{"conditions":["Glioblastoma"],"keywords":["Glioblastoma","Recurrent","PD1","TIGIT","Immunotherapy"]},"designModule":{"studyType":"INTERVENTIONAL","phases":["EARLY_PHASE1"],"designInfo":{"allocation":"RANDOMIZED","interventionModel":"SEQUENTIAL","interventionModelDescription":"After the initial safety cohort confirms the safety of the dosing schedule an expansion surgical cohort will be enrolled and this cohort will be randomized to one of four treatment arms for the first cycle prior to surgery,","primaryPurpose":"TREATMENT","maskingInfo":{"masking":"TRIPLE","maskingDescription":"Masking will only occur in the surgical cohort B (4 arms) during the first cycle prior to surgery. The masking will be removed after surgery and all patients will receive open label treatment with both zimberelimab and domvanalimab.","whoMasked":["PARTICIPANT","CARE_PROVIDER","INVESTIGATOR"]}},"enrollmentInfo":{"count":46,"type":"ESTIMATED"}},"armsInterventionsModule":{"armGroups":[{"label":"Zimberelimab (AB 122) + Domvanalimab (AB 154) Safety Cohort (Cohort A)","type":"EXPERIMENTAL","description":"Eligible patients will be sequentially enrolled to receive intravenous domvanalimab (AB 154) combined with zimberelimab (AB 122) (N=6). domvanalimab (AB 154) will be given at a dose of 10 mg/kg and zimberelimab (AB 122) will be given at a dose of 240 mg (flat).","interventionNames":["Drug: Zimberelimab","Drug: Domvanalimab"]},{"label":"Domvanalimab (AB 154) Surgical Cohort (Cohort B1)","type":"EXPERIMENTAL","description":"Candidates for surgical resection will be enrolled and initiate study treatment approximately two weeks prior to the resection. The pre-surgical dose (neoadjuvant treatment) will be double-blinded.\n\nB1 (N=10): domvanalimab (AB 154) single agent (10 mg/kg) + placebo\n\nFollowing surgery, all patients will initiate treatment with the combination of domvanalimab (AB 154) and zimberelimab (AB 122). Domvanalimab (AB 154) will be given at a dose of 10 mg/kg and zimberelimab (AB 122) will be given at a dose of 240 mg (flat).","interventionNames":["Drug: Domvanalimab","Drug: Placebo"]},{"label":"Zimberelimab (AB 122) Surgical Cohort (Cohort B2)","type":"EXPERIMENTAL","description":"Candidates for surgical resection will be enrolled and initiate study treatment approximately two weeks prior to the resection. The pre-surgical dose (neoadjuvant treatment) will be double-blinded.\n\nB2 (N=10): zimberelimab (AB 122) single agent (240 mg) + placebo\n\nFollowing surgery, all patients will initiate treatment with the combination of domvanalimab (AB 154) and zimberelimab (AB 122). Domvanalimab (AB 154) will be given at a dose of 10 mg/kg and zimberelimab (AB 122) will be given at a dose of 240 mg (flat).","interventionNames":["Drug: Zimberelimab","Drug: Placebo"]},{"label":"Domvanalimab (AB 154) + Zimberelimab (AB 122) Surgical Cohort (Cohort B3)","type":"EXPERIMENTAL","description":"Candidates for surgical resection will be enrolled and initiate study treatment approximately two weeks prior to the resection. The pre-surgical dose (neoadjuvant treatment) will be double-blinded.\n\nB3 (N=10): domvanalimab (AB 154, 10 mg/kg) + zimberelimab (AB 122, 240 mg)\n\nFollowing surgery, all patients will initiate treatment with the combination of domvanalimab (AB 154) and zimberelimab (AB 122). Domvanalimab (AB 154) will be given at a dose of 10 mg/kg and zimberelimab (AB 122) will be given at a dose of 240 mg (flat).","interventionNames":["Drug: Zimberelimab","Drug: Domvanalimab"]},{"label":"Placebo Surgical Cohort (Cohort B4)","type":"EXPERIMENTAL","description":"Candidates for surgical resection will be enrolled and initiate study treatment approximately two weeks prior to the resection. The pre-surgical dose (neoadjuvant treatment) will be double-blinded.\n\nB4 (N=10): Two placebo infusions\n\nFollowing surgery, all patients will initiate treatment with the combination of domvanalimab (AB 154) and zimberelimab (AB 122). Domvanalimab (AB 154) will be given at a dose of 10 mg/kg and zimberelimab (AB 122) will be given at a dose of 240 mg (flat).","interventionNames":["Drug: Placebo"]}],"interventions":[{"type":"DRUG","name":"Zimberelimab","description":"Zimberelimab (AB122) is a fully human immunoglobulin G4 (hIgG4) monoclonal antibody (mAb) that targets PD-1.","armGroupLabels":["Domvanalimab (AB 154) + Zimberelimab (AB 122) Surgical Cohort (Cohort B3)","Zimberelimab (AB 122) + Domvanalimab (AB 154) Safety Cohort (Cohort A)","Zimberelimab (AB 122) Surgical Cohort (Cohort B2)"]},{"type":"DRUG","name":"Domvanalimab","description":"Domvanalimab (AB 154) is a humanized immunoglobulin G1 (IgG1) monoclonal antibody that targets TIGIT.","armGroupLabels":["Domvanalimab (AB 154) + Zimberelimab (AB 122) Surgical Cohort (Cohort B3)","Domvanalimab (AB 154) Surgical Cohort (Cohort B1)","Zimberelimab (AB 122) + Domvanalimab (AB 154) Safety Cohort (Cohort A)"]},{"type":"DRUG","name":"Placebo","description":"Saline placebo comparator for pre-surgery treatment in cohort B4","armGroupLabels":["Domvanalimab (AB 154) Surgical Cohort (Cohort B1)","Placebo Surgical Cohort (Cohort B4)","Zimberelimab (AB 122) Surgical Cohort (Cohort B2)"]}]},"outcomesModule":{"primaryOutcomes":[{"measure":"Incidence of Treatment-Emergent Adverse Events [Safety and Tolerability] associated with the combination AB122 and AB154 in patients with recurrent glioblastoma","description":"Adverse events will be listed individually by patient and treatment group. The number of patients experiencing each adverse event will be summarized by organ and grade. The number and percentage of patients with adverse events in the different categories will be summarized by treatment group.","timeFrame":"through study completion, an average of 2 years"}],"secondaryOutcomes":[{"measure":"Single cell RNA sequencing of tumor and blood after exposure to AB154 with and without AB122","description":"Pharmacodynamic effects of each pre-surgery treatment will be evaluated with single-cell RNA sequencing of tumor and blood to determine effects of each intervention on the immune response.","timeFrame":"through study completion, an average of 2 years"},{"measure":"Tregs and CD8 T cells ratio by immunofluorescence","description":"Resected tumors in cohorts B1 to 4 will be analyzed utilizing immunofluorescence for the ratio between Tregs and CD8 T cells, calculated by counting cells that are positive for a FoxP3 or a CD8 staining.","timeFrame":"through study completion, an average of 2 years"}]},"eligibilityModule":{"eligibilityCriteria":"Inclusion Criteria:\n\n1. Grade IV glioma (glioblastoma and its variants according to the World Health Organization 2021), confirmed in tissue at time of initial diagnosis. Tumors with an IDH 1 or 2 mutation are excluded. Sequencing of IDH 1 and 2 is not required but, at a minimum, a negative result for the presence of IDH-1 R132H mutation on IHC is required for eligibility.\n2. First or second recurrence after treatment. Prior treatment must include at least radiation therapy.\n3. Measurable contrast enhancing tumor by Response Assessment in Neuro-Oncology (RANO) criteria. Not required for post-surgery eligibility for treatment in cohort B.\n4. Age ≥18 years.\n5. Karnofsky performance status ≥80 (≥ 70 for eligibility for treatment after surgery in cohort B).\n6. Patients must have adequate organ and marrow function as defined below within 14 days of treatment\n\n   * Absolute neutrophil count (ANC) ≥1,500 /mcL\n   * Platelets ≥100,000 / mcL\n   * Hemoglobin ≥9 g/dL or ≥ 5.6 mmol/L without transfusion or Erythropoietin (EPO) dependency (within 7 days of assessment)\n   * Serum creatinine ≤1.5 X upper limit of normal (ULN) OR measured or calculated creatinine clearance (GFR can also be used in place of creatinine or CrCl) ≥ 60 mL/min for subject with creatinine levels \\> 1.5 X institutional ULN\n   * Serum total bilirubin ≤ 1.5 X ULN OR direct bilirubin ≤ ULN for subjects with total bilirubin levels \\> 1.5 ULN\n   * aspartate aminotransferase (SGOT) and alanine transaminase (SGPT) ≤ 2.5 X ULN\n   * Albumin \\>2.5 mg/dL\n   * International Normalized Ratio (INR) or Prothrombin Time (PT) ≤1.5 X ULN unless subject is receiving anticoagulant therapy as long as PT or PTT is within therapeutic range of intended use of anticoagulants\n   * Activated Partial Thromboplastin Time (aPTT) ≤1.5 X ULN unless subject is receiving anticoagulant therapy as long as PT or PTT is within therapeutic range of intended use of anticoagulants\n7. An interval of \\>=12 weeks from the end of prior radiation therapy is required unless there is either: i) histopathologic confirmation of recurrent tumor, or ii) new enhancement on MRI outside of the radiation treatment field.\n8. An interval of \\>=4 weeks or 5 half-lives (whichever is shorter) after the last administration of any investigational agent or any other treatment prior to first study dose.\n9. Female subjects of childbearing potential should have a negative urine or serum pregnancy test. If the urine test is positive or cannot be confirmed as negative, a serum pregnancy test will be required. Female subjects of childbearing potential must be willing to use 2 methods of birth control or be surgically sterile or abstain from heterosexual activity for the course of the study through 120 days after the last dose of study medication. Subjects of childbearing potential are those who have not been surgically sterilized or have not been free from menses for \\> 1 year. Male subjects should agree to use an adequate method of contraception starting with the first dose of study therapy through 120 days after the last dose of study therapy.\n10. Ability to understand and the willingness to sign a written informed consent document.\n\n    ADDITIONAL CRITERIA FOR COHORT B\n11. Deemed a candidate for tumor debulking, as determined by the neurosurgeon.\n\nExclusion Criteria:\n\n1. Patients who have been treated with bevacizumab. Note: Previous use of intra-arterial bevacizumab may be allowed, contingent upon review and approval by study principal investigator and sponsor.\n2. Patients who have not recovered from adverse events due to prior therapy (i.e. \\>Grade 1) with the exception of alopecia and fatigue.\n3. Patients with multifocal disease. (Cohort B only)\n4. Subjects requiring escalating or chronic supraphysiologic doses of corticosteroids (\\> 10 mg/d of prednisone equivalent or \\> 2 mg dexamethasone) for control of disease at the time of registration.\n5. Patients receiving previous or current treatment with an immune checkpoint inhibitor.\n6. Patients with a known diagnosis of immunodeficiency, including Human Immunodeficiency Virus (HIV) or acquired immunodeficiency syndrome (AIDS).\n7. Has known active Hepatitis B (e.g., Hepatitis B surface antigen reactive) or Hepatitis C (e.g., Hepatitis C Virus RNA \\[qualitative\\] is detected)\n8. Has a known history of active tuberculosis (Bacillus Tuberculosis).\n9. Has a known additional malignancy that is progressing or requires active treatment. Exceptions include basal cell carcinoma of the skin or squamous cell carcinoma of the skin that has undergone potentially curative therapy or in situ cervical cancer.\n10. Has active autoimmune disease that has required systemic treatment in the past 2 years (i.e. with use of disease modifying agents, corticosteroids or immunosuppressive drugs). Replacement therapy (e.g., thyroxine, insulin, or physiologic corticosteroid replacement therapy for adrenal or pituitary insufficiency, etc.) is not considered a form of systemic treatment.\n11. Has known history of, or any evidence of active, non-infectious pneumonitis.\n12. Has an active infection requiring systemic therapy.\n13. Has a history or current evidence of any condition, therapy, or laboratory abnormality that might confound the results of the trial, interfere with the subject's participation for the full duration of the trial, or is not in the best interest of the subject to participate, in the opinion of the treating investigator.\n14. Has known psychiatric or substance abuse disorders that would interfere with cooperation with the requirements of the trial.\n15. Is pregnant or breastfeeding or expecting to conceive or father children within the projected duration of the trial, starting with the pre-screening or screening visit through 120 days after the last dose of trial treatment.\n16. Unable to undergo MRI of the brain with and without contrast enhancement (i.e. pacemaker, allergy to MRI contrast agent or any other contraindication for MRIs).\n17. Has received a live vaccine within 30 days of planned start of study therapy. Note: Seasonal influenza vaccines for injection are generally inactivated flu vaccines and are allowed; however intranasal influenza vaccines (e.g., Flu-Mist®) are live attenuated vaccines, and are not allowed.","healthyVolunteers":false,"sex":"ALL","minimumAge":"18 Years","stdAges":["ADULT","OLDER_ADULT"]},"contactsLocationsModule":{"overallOfficials":[{"name":"Sylvia Kurz, MD","affiliation":"Professor of Neurology","role":"PRINCIPAL_INVESTIGATOR"}],"locations":[{"facility":"University of California San Francisco","city":"San Francisco","state":"California","zip":"94143","country":"United States","geoPoint":{"lat":37.77493,"lon":-122.41942}},{"facility":"Yale University","city":"New Haven","state":"Connecticut","zip":"06519","country":"United States","geoPoint":{"lat":41.30815,"lon":-72.92816}},{"facility":"Dana Farber Cancer Institute","city":"Boston","state":"Massachusetts","zip":"02215","country":"United States","geoPoint":{"lat":42.35843,"lon":-71.05977}}]},"ipdSharingStatementModule":{"ipdSharing":"NO"}},"derivedSection":{"miscInfoModule":{"versionHolder":"2026-02-25"},"conditionBrowseModule":{"meshes":[{"id":"D005909","term":"Glioblastoma"},{"id":"D012008","term":"Recurrence"}],"ancestors":[{"id":"D001254","term":"Astrocytoma"},{"id":"D005910","term":"Glioma"},{"id":"D018302","term":"Neoplasms, Neuroepithelial"},{"id":"D017599","term":"Neuroectodermal Tumors"},{"id":"D009373","term":"Neoplasms, Germ Cell and Embryonal"},{"id":"D009370","term":"Neoplasms by Histologic Type"},{"id":"D009369","term":"Neoplasms"},{"id":"D009375","term":"Neoplasms, Glandular and Epithelial"},{"id":"D009380","term":"Neoplasms, Nerve Tissue"},{"id":"D020969","term":"Disease Attributes"},{"id":"D010335","term":"Pathologic Processes"},{"id":"D013568","term":"Pathological Conditions, Signs and Symptoms"}]},"interventionBrowseModule":{"meshes":[{"id":"C000719848","term":"zimberelimab"}]}},"hasResults":false},
{"protocolSection":{"identificationModule":{"nctId":"NCT05568095","orgStudyIdInfo":{"id":"STAR-221"},"secondaryIdInfos":[{"id":"jRCT2051220179","type":"REGISTRY","domain":"Japan Registry of Clinical Trials"},{"id":"MOH_2023-04-30_012590","type":"REGISTRY","domain":"Israel Clinical Research Site - MyTrials"},{"id":"CTR20233469","type":"REGISTRY","domain":"China: Drug Clinical Trial Registration and Information Disclosure Platform"},{"id":"CTR20233470","type":"REGISTRY","domain":"China: Drug Clinical Trial Registration and Information Disclosure Platform"},{"id":"2023-507522-16-00","type":"OTHER","domain":"EMA: Clinical Trials Information System (CTIS)"}],"organization":{"fullName":"Arcus Biosciences, Inc.","class":"INDUSTRY"},"briefTitle":"A Clinical Trial of a New Combination Treatment, Domvanalimab and Zimberelimab, Plus Chemotherapy, for People With an Upper Gastrointestinal Tract Cancer That Cannot be Removed With Surgery That Has Spread to Other Parts of the Body","officialTitle":"A Randomized, Open-Label, Multicenter Phase 3 Trial of Domvanalimab, Zimberelimab, and Chemotherapy Versus Nivolumab and Chemotherapy in Participants With Previously Untreated Locally Advanced Unresectable or Metastatic Gastric, Gastroesophageal Junction, and Esophageal Adenocarcinoma","acronym":"STAR-221"},"statusModule":{"statusVerifiedDate":"2025-04","overallStatus":"ACTIVE_NOT_RECRUITING","expandedAccessInfo":{"hasExpandedAccess":false},"startDateStruct":{"date":"2022-11-21","type":"ACTUAL"},"primaryCompletionDateStruct":{"date":"2026-06","type":"ESTIMATED"},"completionDateStruct":{"date":"2026-06","type":"ESTIMATED"},"studyFirstSubmitDate":"2022-10-03","studyFirstSubmitQcDate":"2022-10-03","studyFirstPostDateStruct":{"date":"2022-10-05","type":"ACTUAL"},"lastUpdateSubmitDate":"2026-01-30","lastUpdatePostDateStruct":{"date":"2026-02-02","type":"ACTUAL"}},"sponsorCollaboratorsModule":{"responsibleParty":{"type":"SPONSOR"},"leadSponsor":{"name":"Arcus Biosciences, Inc.","class":"INDUSTRY"},"collaborators":[{"name":"Gilead Sciences","class":"INDUSTRY"},{"name":"Taiho Pharmaceutical Co., Ltd.","class":"INDUSTRY"}]},"oversightModule":{"oversightHasDmc":true,"isFdaRegulatedDrug":true,"isFdaRegulatedDevice":false},"descriptionModule":{"briefSummary":"This randomized Phase 3 open-label study will compare the efficacy of the T-cell immunoglobulin and immunoreceptor tyrosine-based inhibitory motif (ITIM) domain (TIGIT) monoclonal antibody domvanalimab, the anti programmed cell death protein 1 (PD-1) monoclonal antibody zimberelimab, and multiagent chemotherapy versus the anti PD-1 monoclonal antibody nivolumab and multiagent chemotherapy in the first-line treatment of participants with locally advanced unresectable or metastatic gastric, gastroesophageal junction (GEJ), and esophageal adenocarcinoma."},"conditionsModule":{"conditions":["Advanced Upper Gastrointestinal Tract Adenocarcinoma"],"keywords":["Domvanalimab","Zimberelimab","Nivolumab","Advanced upper gastrointestinal tract adenocarcinoma","Gastroesophageal junction cancer","Esophageal adenocarcinoma","Gastric cancer","Gastric adenocarcinoma"]},"designModule":{"studyType":"INTERVENTIONAL","phases":["PHASE3"],"designInfo":{"allocation":"RANDOMIZED","interventionModel":"PARALLEL","primaryPurpose":"TREATMENT","maskingInfo":{"masking":"NONE"}},"enrollmentInfo":{"count":1040,"type":"ACTUAL"}},"armsInterventionsModule":{"armGroups":[{"label":"Domvanalimab + Zimberelimab + FOLFOX/CAPOX (PI Choice)","type":"EXPERIMENTAL","description":"Participants in this arm will receive Domvanalimab and zimberelimab doses once every 4 weeks (Q4W) in addition to chemotherapy with FOLFOX (oxaliplatin, leucovorin, fluorouracil) once every 2 weeks (Q2W) or Domvanalimab and zimberelimab once every 3 weeks (Q3W) in addition to chemotherapy with CAPOX (capecitabine and oxaliplatin) Q3W.","interventionNames":["Drug: Domvanalimab","Drug: Zimberelimab","Drug: Capecitabine","Drug: Fluorouracil","Drug: Leucovorin","Drug: Oxaliplatin"]},{"label":"Nivolumab + FOLFOX/CAPOX (PI Choice)","type":"ACTIVE_COMPARATOR","description":"Participants in this arm will receive Nivolumab Q2W and FOLFOX Q2W or Nivolumab Q3W + CAPOX Q3W.","interventionNames":["Drug: Capecitabine","Drug: Fluorouracil","Drug: Leucovorin","Drug: Oxaliplatin","Drug: Nivolumab"]}],"interventions":[{"type":"DRUG","name":"Domvanalimab","description":"Intravenous (IV) Aqueous Solution","armGroupLabels":["Domvanalimab + Zimberelimab + FOLFOX/CAPOX (PI Choice)"],"otherNames":["AB154"]},{"type":"DRUG","name":"Zimberelimab","description":"IV Aqueous Solution","armGroupLabels":["Domvanalimab + Zimberelimab + FOLFOX/CAPOX (PI Choice)"],"otherNames":["AB122"]},{"type":"DRUG","name":"Capecitabine","description":"Oral Tablets","armGroupLabels":["Domvanalimab + Zimberelimab + FOLFOX/CAPOX (PI Choice)","Nivolumab + FOLFOX/CAPOX (PI Choice)"]},{"type":"DRUG","name":"Fluorouracil","description":"IV Aqueous Solution","armGroupLabels":["Domvanalimab + Zimberelimab + FOLFOX/CAPOX (PI Choice)","Nivolumab + FOLFOX/CAPOX (PI Choice)"]},{"type":"DRUG","name":"Leucovorin","description":"IV Aqueous Solution","armGroupLabels":["Domvanalimab + Zimberelimab + FOLFOX/CAPOX (PI Choice)","Nivolumab + FOLFOX/CAPOX (PI Choice)"]},{"type":"DRUG","name":"Oxaliplatin","description":"IV Aqueous Solution","armGroupLabels":["Domvanalimab + Zimberelimab + FOLFOX/CAPOX (PI Choice)","Nivolumab + FOLFOX/CAPOX (PI Choice)"]},{"type":"DRUG","name":"Nivolumab","description":"IV Aqueous Solution","armGroupLabels":["Nivolumab + FOLFOX/CAPOX (PI Choice)"]}]},"outcomesModule":{"primaryOutcomes":[{"measure":"Overall survival","timeFrame":"From date of randomization until date of death from any cause (Approximately 15 months)]"}],"secondaryOutcomes":[{"measure":"Progression-free survival (PFS)","timeFrame":"From date of randomization to date of the first documentation of disease progression or date of death from any cause, whichever comes first (Approximately 15 months)"},{"measure":"Objective response rate (ORR)","timeFrame":"Proportion of randomized participants who achieved a confirmed best overall response of complete response (CR) or partial response (PR) (Approximately 15 months)"},{"measure":"Duration of response (DOR)","timeFrame":"From the date of first confirmed response (CR or PR), until the date of first documented disease progression or date of death from any cause, whichever comes first (Approximately 15 months)"},{"measure":"Incidence and severity of adverse events (AEs) and serious adverse events (SAEs)","timeFrame":"From on or after the date of first dose of any study treatment to the date of last study treatment specific safety follow-up or date of initiation of subsequent systemic anti-cancer therapy, whichever occurs first (Approximately 15 months)"},{"measure":"Time to first symptom deterioration in the FACT-Ga gastric cancer subscale.","timeFrame":"From the date of randomization to change from baseline in subscale greater than or equal to the deterioration threshold, or death from any cause, whichever comes first (Approximately 15 months)"}]},"eligibilityModule":{"eligibilityCriteria":"Key Inclusion Criteria:\n\n* Capable of giving signed informed consent which is in compliance with the requirements and restrictions listed in the informed consent form (ICF) and in protocol.\n* Histologically confirmed diagnosis of locally advanced unresectable or metastatic gastric, GEJ, or esophageal adenocarcinoma.\n* Eastern Cooperative Oncology Group (ECOG) performance status of 0-1.\n* At least one measurable target lesion per Response Evaluation Criteria in Solid Tumors (RECIST) v1.1.\n\nKey Exclusion Criteria:\n\n* Underlying medical or psychiatric conditions that, in the investigator's or sponsor's opinion, will make the administration of study-specified therapy hazardous, including but not limited to:\n* Interstitial lung disease, including history of interstitial lung disease or non-infectious pneumonitis. Active viral, bacterial, or fungal infections requiring parenteral treatment within 14 days of randomization.\n* Clinically significant cardiovascular disease, such as New York Heart Association Class II or greater cardiac disease or cerebrovascular accident within 3 months prior to randomization, unstable angina, or new onset angina within 3 months prior to randomization, myocardial infarction within 6 months prior to randomization, or unstable arrhythmia within 3 months prior to randomization.\n* History of prior solid-organ transplantation, including allogenic bone marrow transplantation.\n* Dementia, psychiatric, or substance abuse disorders that would interfere with satisfying the requirements of the trial.\n* Known human epidermal growth factor receptor 2 (HER-2) positive tumor.\n* Known untreated, symptomatic, or actively progressing central nervous system (CNS) (brain) metastases. Participants with leptomeningeal metastases are excluded from enrollment.\n* Received prior systemic treatment for locally advanced unresectable or metastatic gastric, GEJ, or esophageal adenocarcinoma.\n* Disease progression within 6 months of completion of neoadjuvant or adjuvant therapy.\n\nNote: Other protocol defined Inclusion/Exclusion criteria may apply.","healthyVolunteers":false,"sex":"ALL","minimumAge":"18 Years","stdAges":["ADULT","OLDER_ADULT"]},"contactsLocationsModule":{"overallOfficials":[{"name":"Medical Director","affiliation":"Arcus Biosciences","role":"STUDY_DIRECTOR"}],"locations":[{"facility":"Genesis Cancer Center and Blood Institute - Hot Springs","city":"Hot Springs","state":"Arkansas","zip":"71913","country":"United States","geoPoint":{"lat":34.5037,"lon":-93.05518}},{"facility":"Kaiser Permanente - Los Angeles Medical Center","city":"Los Angeles","state":"California","zip":"90027","country":"United States","geoPoint":{"lat":34.05223,"lon":-118.24368}},{"facility":"Norris Comprehensive Cancer Center","city":"Los Angeles","state":"California","zip":"90033","country":"United States","geoPoint":{"lat":34.05223,"lon":-118.24368}},{"facility":"University of California Irvine Health Chao Family Comprehensive Cancer Center","city":"Orange","state":"California","zip":"92868","country":"United States","geoPoint":{"lat":33.78779,"lon":-117.85311}},{"facility":"UCLA Health - Santa Monica Cancer Care","city":"Santa Monica","state":"California","zip":"90404","country":"United States","geoPoint":{"lat":34.01949,"lon":-118.49138}},{"facility":"Yale Cancer Center","city":"New Haven","state":"Connecticut","zip":"06520","country":"United States","geoPoint":{"lat":41.30815,"lon":-72.92816}},{"facility":"Georgetown Lombardi Comprehensive Cancer Center","city":"Washington D.C.","state":"District of Columbia","zip":"22057","country":"United States","geoPoint":{"lat":38.89511,"lon":-77.03637}},{"facility":"SCRI - Florida Cancer Specialists - South Region Research Office","city":"Fort Myers","state":"Florida","zip":"33901","country":"United States","geoPoint":{"lat":26.62168,"lon":-81.84059}},{"facility":"SCRI - Florida Cancer Specialists - North Region Research Office","city":"St. Petersburg","state":"Florida","zip":"33705","country":"United States","geoPoint":{"lat":27.77086,"lon":-82.67927}},{"facility":"SCRI - Florida Cancer Specialists - Panhandle Research Office","city":"Tallahassee","state":"Florida","zip":"32308","country":"United States","geoPoint":{"lat":30.43826,"lon":-84.28073}},{"facility":"SCRI - Florida Cancer Specialists - East Region Research Office","city":"West Palm Beach","state":"Florida","zip":"33401","country":"United States","geoPoint":{"lat":26.71534,"lon":-80.05337}},{"facility":"University of Louisville James Graham Brown Cancer Center","city":"Louisville","state":"Kentucky","zip":"40202","country":"United States","geoPoint":{"lat":38.25424,"lon":-85.75941}},{"facility":"Norton Cancer Institute - Poplar Level Road","city":"Louisville","state":"Kentucky","zip":"40217","country":"United States","geoPoint":{"lat":38.25424,"lon":-85.75941}},{"facility":"Ochsner Cancer Institute","city":"New Orleans","state":"Louisiana","zip":"70121","country":"United States","geoPoint":{"lat":29.95465,"lon":-90.07507}},{"facility":"Massachusetts General Hospital","city":"Boston","state":"Massachusetts","zip":"02114","country":"United States","geoPoint":{"lat":42.35843,"lon":-71.05977}},{"facility":"University of Michigan Rogel Cancer Center","city":"Ann Arbor","state":"Michigan","zip":"48109","country":"United States","geoPoint":{"lat":42.27756,"lon":-83.74088}},{"facility":"HealthPartners Cancer Center at Regions Hospital","city":"Saint Louis Park","state":"Minnesota","zip":"55426","country":"United States","geoPoint":{"lat":44.9483,"lon":-93.34801}},{"facility":"Regions Hospital","city":"Saint Louis Park","state":"Minnesota","zip":"55426","country":"United States","geoPoint":{"lat":44.9483,"lon":-93.34801}},{"facility":"Perlmutter Cancer Ctr NYU","city":"Mineola","state":"New York","zip":"11501","country":"United States","geoPoint":{"lat":40.74927,"lon":-73.64068}},{"facility":"Perlmutter Cancer Center - 38th Street","city":"New York","state":"New York","zip":"10016","country":"United States","geoPoint":{"lat":40.71427,"lon":-74.00597}},{"facility":"Memorial Sloan Kettering Cancer Center - New York","city":"New York","state":"New York","zip":"10065","country":"United States","geoPoint":{"lat":40.71427,"lon":-74.00597}},{"facility":"Duke University Medical Center","city":"Durham","state":"North Carolina","zip":"27710","country":"United States","geoPoint":{"lat":35.99403,"lon":-78.89862}},{"facility":"Cleveland Clinic - Taussig Cancer Center","city":"Cleveland","state":"Ohio","zip":"44106","country":"United States","geoPoint":{"lat":41.4995,"lon":-81.69541}},{"facility":"University Hospitals Cleveland Medical Center","city":"Cleveland","state":"Ohio","zip":"44106","country":"United States","geoPoint":{"lat":41.4995,"lon":-81.69541}},{"facility":"Cleveland Clin - Fairview Hosp","city":"Cleveland","state":"Ohio","zip":"44111","country":"United States","geoPoint":{"lat":41.4995,"lon":-81.69541}},{"facility":"Mark H. Zangmeister Cancer Center","city":"Columbus","state":"Ohio","zip":"43219","country":"United States","geoPoint":{"lat":39.96118,"lon":-82.99879}},{"facility":"Cleveland Clin-Hillcrest Hosp","city":"Mayfield Heights","state":"Ohio","zip":"44124","country":"United States","geoPoint":{"lat":41.51922,"lon":-81.4579}},{"facility":"Prov Care Clinic - Westside","city":"Portland","state":"Oregon","zip":"97225","country":"United States","geoPoint":{"lat":45.52345,"lon":-122.67621}},{"facility":"Providence Cancer Center Oncology and Hematology Care Westside Portland","city":"Portland","state":"Oregon","zip":"97225","country":"United States","geoPoint":{"lat":45.52345,"lon":-122.67621}},{"facility":"Prisma Health Cancer Institute","city":"Greenville","state":"South Carolina","zip":"29605","country":"United States","geoPoint":{"lat":34.85262,"lon":-82.39401}},{"facility":"Tennessee Oncology - Chattanooga - Memorial Plaza","city":"Nashville","state":"Tennessee","zip":"37203","country":"United States","geoPoint":{"lat":36.16589,"lon":-86.78444}},{"facility":"Tennessee Oncology - Nashville - Centennial","city":"Nashville","state":"Tennessee","zip":"37203","country":"United States","geoPoint":{"lat":36.16589,"lon":-86.78444}},{"facility":"Vanderbilt - Ingram Cancer Center","city":"Nashville","state":"Tennessee","zip":"37232","country":"United States","geoPoint":{"lat":36.16589,"lon":-86.78444}},{"facility":"University of Texas Southwestern Medical Center","city":"Dallas","state":"Texas","zip":"75390","country":"United States","geoPoint":{"lat":32.78306,"lon":-96.80667}},{"facility":"The Center for Cancer & Blood Disorders - Fort Worth","city":"Fort Worth","state":"Texas","zip":"76104","country":"United States","geoPoint":{"lat":32.72541,"lon":-97.32085}},{"facility":"Harris Health System","city":"Houston","state":"Texas","zip":"77054","country":"United States","geoPoint":{"lat":29.76328,"lon":-95.36327}},{"facility":"USOR - Virginia Cancer Specialists - Fairfax Office","city":"Fairfax","state":"Virginia","zip":"22031","country":"United States","geoPoint":{"lat":38.84622,"lon":-77.30637}},{"facility":"Fred Hutchinson Cancer Center - Seattle Cancer Care Alliance (SCCA) Location","city":"Seattle","state":"Washington","zip":"98109","country":"United States","geoPoint":{"lat":47.60621,"lon":-122.33207}},{"facility":"Froedtert Clinical Cancer Center","city":"Milwaukee","state":"Wisconsin","zip":"53226","country":"United States","geoPoint":{"lat":43.0389,"lon":-87.90647}},{"facility":"Hospital Británico de Buenos Aires","city":"Buenos Aires","country":"Argentina","geoPoint":{"lat":-34.61315,"lon":-58.37723}},{"facility":"CORI","city":"La Rioja","country":"Argentina","geoPoint":{"lat":-29.41328,"lon":-66.85637}},{"facility":"Instituto de Investigaciones Clínicas Mar del Plata","city":"Mar del Plata","country":"Argentina","geoPoint":{"lat":-38.00042,"lon":-57.5562}},{"facility":"Monash University","city":"Clayton","country":"Australia","geoPoint":{"lat":-37.91667,"lon":145.11667}},{"facility":"Gosford Hospital","city":"Gosford","country":"Australia","geoPoint":{"lat":-33.4244,"lon":151.34399}},{"facility":"Liverpool Hospital","city":"Liverpool","country":"Australia","geoPoint":{"lat":-33.91938,"lon":150.92588}},{"facility":"Oncology West - Murdoch","city":"Murdoch","country":"Australia","geoPoint":{"lat":-32.06987,"lon":115.83757}},{"facility":"Fundação Pio XII - Hospital de Câncer de Barretos - Hospital de Amor","city":"Barretos","country":"Brazil","geoPoint":{"lat":-20.55722,"lon":-48.56778}},{"facility":"ONCOSITE - Centro de Pesquisa Clinica Em Oncologia Ltda.","city":"Ijuí","country":"Brazil","geoPoint":{"lat":-28.38778,"lon":-53.91472}},{"facility":"Liga Contra o Câncer - Centro Avançado de Oncologia","city":"Natal","country":"Brazil","geoPoint":{"lat":-5.795,"lon":-35.20944}},{"facility":"Hospital Ernesto Dornelles","city":"Porto Alegre","country":"Brazil","geoPoint":{"lat":-30.03283,"lon":-51.23019}},{"facility":"Instituto Nacional de Câncer - Brazil","city":"Rio de Janeiro","country":"Brazil","geoPoint":{"lat":-22.90642,"lon":-43.18223}},{"facility":"Queen Elizabeth II Health Sciences Centre-Victoria General","city":"Halifax","country":"Canada","geoPoint":{"lat":44.64269,"lon":-63.57688}},{"facility":"Hôpital Notre-Dame","city":"Montreal","country":"Canada","geoPoint":{"lat":45.50884,"lon":-73.58781}},{"facility":"Ottawa Hospital - General Campus","city":"Ottawa","country":"Canada","geoPoint":{"lat":45.41117,"lon":-75.69812}},{"facility":"Princess Margaret Cancer Centre","city":"Toronto","country":"Canada","geoPoint":{"lat":43.70643,"lon":-79.39864}},{"facility":"Sunnybrook Health Sciences Centre - Bayview Campus","city":"Toronto","country":"Canada","geoPoint":{"lat":43.70643,"lon":-79.39864}},{"facility":"Icegclinic","city":"La Florida","country":"Chile","geoPoint":{"lat":-35.2782,"lon":-72.22631}},{"facility":"Hospital Puerto Montt","city":"Port Montt","country":"Chile","geoPoint":{"lat":-41.4693,"lon":-72.94237}},{"facility":"Oncovida - Santiago","city":"Providencia","country":"Chile","geoPoint":{"lat":-33.43107,"lon":-70.60454}},{"facility":"Bradford Hill Centro de Investigaciones Clinicas","city":"Recoleta","country":"Chile","geoPoint":{"lat":-33.41667,"lon":-70.65}},{"facility":"Centro de Estudios Clínicos SAGA","city":"Santiago","country":"Chile","geoPoint":{"lat":-33.45694,"lon":-70.64827}},{"facility":"Pontificia Universidad Catolica de Chile - Escuela De Medicina - Clinica UC San Carlos de Apoq","city":"Santiago","country":"Chile","geoPoint":{"lat":-33.45694,"lon":-70.64827}},{"facility":"Clínica Universidad Católica del Maule - Talca","city":"Talca","country":"Chile","geoPoint":{"lat":-35.4232,"lon":-71.64974}},{"facility":"Guangdong PR People's Hospital","city":"Guangzhou","country":"China","geoPoint":{"lat":23.11667,"lon":113.25}},{"facility":"Sun Yat-Sen Cancer Center","city":"Guangzhou","country":"China","geoPoint":{"lat":23.11667,"lon":113.25}},{"facility":"Hainan General Hospital","city":"Haikou","country":"China","geoPoint":{"lat":20.03421,"lon":110.34651}},{"facility":"Sir Run Run Shaw Hospital","city":"Hangzhou","country":"China","geoPoint":{"lat":30.29365,"lon":120.16142}},{"facility":"Zhejiang Cancer Hospital","city":"Hangzhou","country":"China","geoPoint":{"lat":30.29365,"lon":120.16142}},{"facility":"Anhui Provincial Hospital","city":"Hefei","country":"China","geoPoint":{"lat":31.86389,"lon":117.28083}},{"facility":"Shanghai East Hospital","city":"Shanghai","country":"China","geoPoint":{"lat":31.22222,"lon":121.45806}},{"facility":"Tianjin Cancer Hospital","city":"Tianjin","country":"China","geoPoint":{"lat":39.14222,"lon":117.17667}},{"facility":"Qinghai UNV Afl Hospital","city":"Xining","country":"China","geoPoint":{"lat":36.62554,"lon":101.75739}},{"facility":"Henan Cancer Hospital","city":"Zhengzhou","country":"China","geoPoint":{"lat":34.75778,"lon":113.64861}},{"facility":"Institut Bergonié","city":"Bordeaux","country":"France","geoPoint":{"lat":44.84124,"lon":-0.58046}},{"facility":"Hôpital Morvan","city":"Brest","country":"France","geoPoint":{"lat":48.39029,"lon":-4.48628}},{"facility":"Centre de Lutte contre le Cancer - François Baclesse","city":"Caen","country":"France","geoPoint":{"lat":49.18585,"lon":-0.35912}},{"facility":"Hôpital Claude Huriez","city":"Lille","country":"France","geoPoint":{"lat":50.63391,"lon":3.05512}},{"facility":"Centre Léon Bérard","city":"Lyon","country":"France","geoPoint":{"lat":45.74906,"lon":4.84789}},{"facility":"Hôpital de la Timone","city":"Marseille","country":"France","geoPoint":{"lat":43.29695,"lon":5.38107}},{"facility":"Institut Régional du Cancer de Montpellier","city":"Montpellier","country":"France","geoPoint":{"lat":43.61093,"lon":3.87635}},{"facility":"Centre Armoricain de Radiothérapie, d'Imagerie Médicale et d'Oncologie","city":"Plérin","country":"France","geoPoint":{"lat":48.53451,"lon":-2.76975}},{"facility":"Centre Hospitalier Universitaire de Poitiers","city":"Poitiers","country":"France","geoPoint":{"lat":46.58261,"lon":0.34348}},{"facility":"CHU de Toulouse - Hopital Rangueil","city":"Toulouse","country":"France","geoPoint":{"lat":43.60426,"lon":1.44367}},{"facility":"Institut Gustave Roussy","city":"Villejuif","country":"France","geoPoint":{"lat":48.7939,"lon":2.35992}},{"facility":"Evex Hospitals - Kutaisi Referral Hospital","city":"Kutaisi","zip":"4600","country":"Georgia","geoPoint":{"lat":42.26791,"lon":42.69459}},{"facility":"LLC Todua Clinic","city":"Tbilisi","zip":"112","country":"Georgia","geoPoint":{"lat":41.69143,"lon":44.83412}},{"facility":"Ltd Tbilisi State Medical University and Ingorokva High Medical Technology University Clinic","city":"Tbilisi","zip":"144","country":"Georgia","geoPoint":{"lat":41.69143,"lon":44.83412}},{"facility":"New Vision University Hospital","city":"Tbilisi","zip":"159","country":"Georgia","geoPoint":{"lat":41.69143,"lon":44.83412}},{"facility":"Multi-profile Clinic \"New Hospitals\"","city":"Tbilisi","zip":"186","country":"Georgia","geoPoint":{"lat":41.69143,"lon":44.83412}},{"facility":"Clínica Privada Dr. Rixci Ramírez","city":"Guatemala City","country":"Guatemala","geoPoint":{"lat":14.64072,"lon":-90.51327}},{"facility":"Grupo Medico Angeles","city":"Guatemala City","country":"Guatemala","geoPoint":{"lat":14.64072,"lon":-90.51327}},{"facility":"INTEGRA Cancer Institute","city":"Guatemala City","country":"Guatemala","geoPoint":{"lat":14.64072,"lon":-90.51327}},{"facility":"Medi-k Cayalá","city":"Guatemala City","country":"Guatemala","geoPoint":{"lat":14.64072,"lon":-90.51327}},{"facility":"Centro Regional de Sub Especialidades Médicas (CRESEM) SA","city":"Quetzaltenango","country":"Guatemala","geoPoint":{"lat":14.84462,"lon":-91.52316}},{"facility":"Hong Kong Sanatorium and Hosp","city":"Happy Valley","country":"Hong Kong","geoPoint":{"lat":22.26912,"lon":114.18619}},{"facility":"Humanity & Health Clinical Trial Centre","city":"Hong Kong","country":"Hong Kong","geoPoint":{"lat":22.27832,"lon":114.17469}},{"facility":"Queen Mary Hospital - Hong Kong","city":"Hong Kong","country":"Hong Kong","geoPoint":{"lat":22.27832,"lon":114.17469}},{"facility":"Tuen Mun Hospital","city":"Tuenmen","country":"Hong Kong","geoPoint":{"lat":22.39175,"lon":113.97157}},{"facility":"Dél-pesti Centrumkórház - Országos Hematológiai és Infektológiai Intézet","city":"Budapest","country":"Hungary","geoPoint":{"lat":47.49835,"lon":19.04045}},{"facility":"Országos Onkológiai Intézet","city":"Budapest","country":"Hungary","geoPoint":{"lat":47.49835,"lon":19.04045}},{"facility":"Bács-Kiskun Megyei Oktatókórház - Kecskemét","city":"Kecskemét","country":"Hungary","geoPoint":{"lat":46.90618,"lon":19.69128}},{"facility":"Pécsi Tudományegyetem Klinikai Központ","city":"Pécs","country":"Hungary","geoPoint":{"lat":46.07617,"lon":18.22814}},{"facility":"Hadassah University Hospital Ein Kerem","city":"Jerusalem","country":"Israel","geoPoint":{"lat":31.76904,"lon":35.21633}},{"facility":"Shaare Zedek Medical Center","city":"Jerusalem","country":"Israel","geoPoint":{"lat":31.76904,"lon":35.21633}},{"facility":"Davidoff Cancer Center","city":"Petah Tikva","country":"Israel","geoPoint":{"lat":32.08707,"lon":34.88747}},{"facility":"Tel Aviv Sourasky Medical Center","city":"Tel Aviv","country":"Israel","geoPoint":{"lat":32.08088,"lon":34.78057}},{"facility":"Azienda Ospedaliero - Universitaria Careggi","city":"Florence","country":"Italy","geoPoint":{"lat":43.77925,"lon":11.24626}},{"facility":"Istituto di Ricovero e Cura a Carattere Scientifico (IRCCS) - Ospedale San Raffaele","city":"Milan","country":"Italy","geoPoint":{"lat":45.46427,"lon":9.18951}},{"facility":"Istituto Europeo di Oncologia","city":"Milan","country":"Italy","geoPoint":{"lat":42.78235,"lon":12.59836}},{"facility":"Ospedale Santa Maria Croci","city":"Ravenna","country":"Italy","geoPoint":{"lat":44.41344,"lon":12.20121}},{"facility":"Istituto di Ricovero e Cura a Carattere Scientifico (IRCCS) - Istituto Clinico Humanitas","city":"Rozzano","country":"Italy","geoPoint":{"lat":45.38193,"lon":9.1559}},{"facility":"Azienda Sanitaria Universitaria Friuli Centrale ? P.O. Santa Maria della Misericordia","city":"Udine","country":"Italy","geoPoint":{"lat":46.0693,"lon":13.23715}},{"facility":"Hyogo Cancer Center","city":"Akashi","country":"Japan","geoPoint":{"lat":34.65524,"lon":135.00687}},{"facility":"Tokyo Metro Ctr","city":"Bunkyō City","country":"Japan","geoPoint":{"lat":35.5331,"lon":139.4217}},{"facility":"University of Tokyo Hospital","city":"Bunkyō City","country":"Japan","geoPoint":{"lat":35.5331,"lon":139.4217}},{"facility":"Chiba Cancer Center","city":"Chiba","country":"Japan","geoPoint":{"lat":35.6,"lon":140.11667}},{"facility":"Kyushu Cancer Center","city":"Fukuoka","country":"Japan","geoPoint":{"lat":33.6,"lon":130.41667}},{"facility":"Nat Cancer Ctr-Kashiwa Campus","city":"Kashiwa-shi","country":"Japan"},{"facility":"St. Marianna Uni Hosp","city":"Kawasaki","country":"Japan","geoPoint":{"lat":35.52056,"lon":139.71722}},{"facility":"Cancer Inst Hosp of JFCR","city":"Kōtō City","country":"Japan","geoPoint":{"lat":32.77856,"lon":130.74537}},{"facility":"Kumamoto University Hospital","city":"Kumamoto","country":"Japan","geoPoint":{"lat":32.80589,"lon":130.69181}},{"facility":"Shikoku Cancer Center","city":"Matsuyama","country":"Japan","geoPoint":{"lat":33.83916,"lon":132.76574}},{"facility":"Shizuoka Cancer Center","city":"Nagaizumi-cho","country":"Japan"},{"facility":"Niigata Cancer Center Hospital","city":"Niigata","country":"Japan","geoPoint":{"lat":37.92259,"lon":139.04125}},{"facility":"Osaka Prefectural Hosp Org","city":"Osaka","country":"Japan","geoPoint":{"lat":34.69379,"lon":135.50107}},{"facility":"Kindai University Hospital","city":"Osakasayama-shi","country":"Japan"},{"facility":"Gunma Prefectural Cancer Ctr","city":"Ota-shi","country":"Japan"},{"facility":"Saitama Cancer Center","city":"Saitama","country":"Japan","geoPoint":{"lat":35.90807,"lon":139.65657}},{"facility":"National Cancer Ctr Hosp","city":"Tokyo","country":"Japan","geoPoint":{"lat":35.6895,"lon":139.69171}},{"facility":"Kanagawa Cancer Center","city":"Yokohama","country":"Japan","geoPoint":{"lat":35.43333,"lon":139.65}},{"facility":"Kauno Klinikos","city":"Kaunas","country":"Lithuania","geoPoint":{"lat":54.90156,"lon":23.90909}},{"facility":"Klaipedos Universitetine Ligonine","city":"Klaipėda","country":"Lithuania","geoPoint":{"lat":55.7068,"lon":21.13912}},{"facility":"Nacionalinis Vėžio Institutas","city":"Vilnius","country":"Lithuania","geoPoint":{"lat":54.68916,"lon":25.2798}},{"facility":"Vilniaus Universiteto Ligoninė Santariškių Klinikos","city":"Vilnius","country":"Lithuania","geoPoint":{"lat":54.68916,"lon":25.2798}},{"facility":"Hospital Pulau Pinang","city":"George Town","country":"Malaysia","geoPoint":{"lat":5.41123,"lon":100.33543}},{"facility":"Hospital Kuala Lumpur","city":"Kuala Lumpur","country":"Malaysia","geoPoint":{"lat":3.1412,"lon":101.68653}},{"facility":"Pusat Perubatan Universiti Malaya","city":"Kuala Lumpur","country":"Malaysia","geoPoint":{"lat":3.1412,"lon":101.68653}},{"facility":"Hospital Umum Sarawak","city":"Kuching","country":"Malaysia","geoPoint":{"lat":1.55,"lon":110.33333}},{"facility":"CLIMERS Clinical Medical Research","city":"Colonia Centro","zip":"94300","country":"Mexico","geoPoint":{"lat":28.82333,"lon":-111.94062}},{"facility":"Centro Especializado en Investigacion y Tratamiento Oncologicos SC","city":"Mexico City","zip":"3100","country":"Mexico","geoPoint":{"lat":19.42847,"lon":-99.12766}},{"facility":"Centro de Atención e Investigación Clínica en Oncología","city":"Mérida","zip":"97134","country":"Mexico","geoPoint":{"lat":20.967,"lon":-89.62318}},{"facility":"Hospital Zambrano Hellion TecSalud","city":"San Pedro Garza García","zip":"66278","country":"Mexico","geoPoint":{"lat":25.6604,"lon":-100.40651}},{"facility":"Centro Hemato - Oncológico Privado (CHOP)","city":"Toluca","zip":"50120","country":"Mexico","geoPoint":{"lat":19.28786,"lon":-99.65324}},{"facility":"Hosp Nacional Daniel Carrion","city":"Bellavista","country":"Peru","geoPoint":{"lat":-7.05614,"lon":-76.5911}},{"facility":"SANNA - Clínica El Golf","city":"San Isidro","country":"Peru","geoPoint":{"lat":-12.09655,"lon":-77.04258}},{"facility":"Hospital Maria Auxiliadora","city":"San Juán de Miraflores","country":"Peru","geoPoint":{"lat":-11.93531,"lon":-75.41647}},{"facility":"Instituto Nacional de Enfermedades Neoplásicas","city":"Surquillo","country":"Peru","geoPoint":{"lat":-5.80111,"lon":-77.26889}},{"facility":"Dr Pablo O. Torre Memorial Hospital - Riverside Medical Center","city":"Bacolod City","country":"Philippines","geoPoint":{"lat":10.66667,"lon":122.95}},{"facility":"Baguio General Hospital and Medical Center","city":"Baguio City","country":"Philippines","geoPoint":{"lat":16.41639,"lon":120.59306}},{"facility":"Cebu Doctors' University Hospital","city":"Cebu City","country":"Philippines","geoPoint":{"lat":10.31672,"lon":123.89071}},{"facility":"Manila Doctors Hospital","city":"Manila","country":"Philippines","geoPoint":{"lat":14.6042,"lon":120.9822}},{"facility":"Centrum Onkologii Ziemi Lubelskiej im. św. Jana z Dukli","city":"Lublin","country":"Poland","geoPoint":{"lat":51.25058,"lon":22.57009}},{"facility":"Samodzielny Publiczny Szpital Kliniczny nr 1 w Lublinie","city":"Lublin","country":"Poland","geoPoint":{"lat":51.25058,"lon":22.57009}},{"facility":"Szpital Miejski w Tychach","city":"Tychy","country":"Poland","geoPoint":{"lat":50.13717,"lon":18.96641}},{"facility":"Narodowy Instytut Onkologii im. Marii Skłodowskiej-Curie - Państwowy Instytut Badawczy","city":"Warsaw","country":"Poland","geoPoint":{"lat":52.22977,"lon":21.01178}},{"facility":"Centro Hospitalar e Universitário de Coimbra","city":"Coimbra","country":"Portugal","geoPoint":{"lat":40.20686,"lon":-8.41996}},{"facility":"Fundação D. Anna de Sommer Champalimaud e Dr. Carlos Montez Champalimaud","city":"Lisbon","country":"Portugal","geoPoint":{"lat":38.72509,"lon":-9.1498}},{"facility":"Instituto Português de Oncologia do Porto Francisco Gentil","city":"Porto","country":"Portugal","geoPoint":{"lat":41.1485,"lon":-8.61097}},{"facility":"Spitalul Judetean de Urgenta","city":"Baia Mare","country":"Romania","geoPoint":{"lat":47.65729,"lon":23.56808}},{"facility":"Institutul Clinic Fundeni","city":"Bucharest","country":"Romania","geoPoint":{"lat":44.43225,"lon":26.10626}},{"facility":"Institutul Oncologic Prof. Dr. Ion Chiricuta","city":"Cluj-Napoca","country":"Romania","geoPoint":{"lat":46.76667,"lon":23.6}},{"facility":"Medisprof","city":"Cluj-Napoca","country":"Romania","geoPoint":{"lat":46.76667,"lon":23.6}},{"facility":"Centrul De Oncologie Sf Nectarie","city":"Craiova","country":"Romania","geoPoint":{"lat":44.31667,"lon":23.8}},{"facility":"Centrul de Radioterapie Amethyst Cluj","city":"Florești","country":"Romania","geoPoint":{"lat":44.51313,"lon":25.69658}},{"facility":"Centrul de Oncologie Euroclinic","city":"Iași","country":"Romania","geoPoint":{"lat":47.16667,"lon":27.6}},{"facility":"Clinica SIGMedical","city":"Suceava","country":"Romania","geoPoint":{"lat":47.63333,"lon":26.25}},{"facility":"Institute of Oncology and Radiology of Serbia (Institut za onkologiju i radiologiju Srbije)","city":"Belgrade","country":"Serbia","geoPoint":{"lat":44.80401,"lon":20.46513}},{"facility":"University Hospital Medical Center (KBC) Bezanijska Kosa","city":"Belgrade","country":"Serbia","geoPoint":{"lat":44.80401,"lon":20.46513}},{"facility":"Clinical Center Kragujevac","city":"Kragujevac","country":"Serbia","geoPoint":{"lat":44.01667,"lon":20.91667}},{"facility":"Dong-A University Hospital","city":"Busan","country":"South Korea","geoPoint":{"lat":35.10168,"lon":129.03004}},{"facility":"Kyungpook Nat Uni Chilgok","city":"Daegu","country":"South Korea","geoPoint":{"lat":35.87028,"lon":128.59111}},{"facility":"Cha Bundang Medical Center","city":"Seongnam","country":"South Korea","geoPoint":{"lat":35.54127,"lon":127.39683}},{"facility":"Asan Medical Center","city":"Seoul","country":"South Korea","geoPoint":{"lat":37.566,"lon":126.9784}},{"facility":"Korea University Guro Hospital","city":"Seoul","country":"South Korea","geoPoint":{"lat":37.566,"lon":126.9784}},{"facility":"Samsung Medical Center","city":"Seoul","country":"South Korea","geoPoint":{"lat":37.566,"lon":126.9784}},{"facility":"Seoul Nat Uni Hospital","city":"Seoul","country":"South Korea","geoPoint":{"lat":37.566,"lon":126.9784}},{"facility":"Severance Hospital","city":"Seoul","country":"South Korea","geoPoint":{"lat":37.566,"lon":126.9784}},{"facility":"Hospital Universitari Vall d'Hebrón","city":"Barcelona","country":"Spain","geoPoint":{"lat":41.38879,"lon":2.15899}},{"facility":"Institut Català d'Oncologia - Hospital Duran i Reynals (ICO L'Hospitalet)","city":"Barcelona","country":"Spain","geoPoint":{"lat":41.38879,"lon":2.15899}},{"facility":"Hospital General Universitario Gregorio Marañón","city":"Madrid","country":"Spain","geoPoint":{"lat":40.4165,"lon":-3.70256}},{"facility":"Hospital Universitario HM Sanchinarro","city":"Madrid","country":"Spain","geoPoint":{"lat":40.4165,"lon":-3.70256}},{"facility":"Hospital Universitario Ramón y Cajal","city":"Madrid","country":"Spain","geoPoint":{"lat":40.4165,"lon":-3.70256}},{"facility":"Hospital Universitario Marqués de Valdecilla","city":"Santander","country":"Spain","geoPoint":{"lat":43.46589,"lon":-3.80493}},{"facility":"Hospital Clínico Universitario de Valencia","city":"Valencia","country":"Spain","geoPoint":{"lat":39.47391,"lon":-0.37966}},{"facility":"Hospital Universitario Miguel Servet","city":"Zaragoza","country":"Spain","geoPoint":{"lat":41.65606,"lon":-0.87734}},{"facility":"Faculty of Medicine Siriraj Hospital","city":"Bang Phlat","country":"Thailand","geoPoint":{"lat":13.79425,"lon":100.50447}},{"facility":"Songklanagarind Hospital","city":"Hat Yai","country":"Thailand","geoPoint":{"lat":7.00836,"lon":100.47668}},{"facility":"Sunpasitthiprasong Hospital","city":"Ubon Ratchathani","country":"Thailand","geoPoint":{"lat":15.23844,"lon":104.84866}},{"facility":"T.C. Saglik Bakanligi Adana Sehir Egitim ve Arastirma Hastanesi","city":"Adana","country":"Turkey (Türkiye)","geoPoint":{"lat":36.98615,"lon":35.32531}},{"facility":"Memorial Ankara Hastanesi","city":"Ankara","country":"Turkey (Türkiye)","geoPoint":{"lat":39.91987,"lon":32.85427}},{"facility":"Trakya Universitesi Tip Fakultesi","city":"Edirne","country":"Turkey (Türkiye)","geoPoint":{"lat":41.67719,"lon":26.55597}},{"facility":"T.C. Saglik Bakanligi - Istanbul Il Saglik Mudurlugu - Goztepe Prof. Dr. Suleyman Yalcin Sehir Hastanesi","city":"Istanbul","country":"Turkey (Türkiye)","geoPoint":{"lat":41.01384,"lon":28.94966}},{"facility":"Kocaeli Üniversitesi Araştırma ve Uygulama Hastanesi","city":"İzmit","country":"Turkey (Türkiye)","geoPoint":{"lat":40.76499,"lon":29.92928}},{"facility":"Inönü Üniversitesi Turgut Özal Tıp Merkezi","city":"Malatya","country":"Turkey (Türkiye)","geoPoint":{"lat":38.35018,"lon":38.31667}},{"facility":"Ankara Üniversitesi Tıp Fakültesi - Cebeci Araştırma ve Uygulama Hastanesi","city":"Mamak","country":"Turkey (Türkiye)","geoPoint":{"lat":41.48859,"lon":32.36864}},{"facility":"Van Yüzüncü Yıl Üniversitesi Dursun Odabaş Tıp Merkezi","city":"Van","country":"Turkey (Türkiye)","geoPoint":{"lat":38.49457,"lon":43.38323}},{"facility":"Ataturk Universitesi Arastirma Hastanesi","city":"Yakutiye","country":"Turkey (Türkiye)","geoPoint":{"lat":39.89821,"lon":41.26916}},{"facility":"Başkent Üniversitesi Adana Dr Turgut Noyan Uygulama ve Araştirma Merkezi","city":"Yüreğir","country":"Turkey (Türkiye)","geoPoint":{"lat":36.97439,"lon":35.35916}},{"facility":"Barts Health NHS Trust","city":"London","country":"United Kingdom","geoPoint":{"lat":51.50853,"lon":-0.12574}},{"facility":"Sarah Cannon Research Institute London","city":"London","country":"United Kingdom","geoPoint":{"lat":51.50853,"lon":-0.12574}},{"facility":"The Royal Marsden NHS Foundation Trust","city":"London","country":"United Kingdom","geoPoint":{"lat":51.50853,"lon":-0.12574}},{"facility":"University College London Hospitals NHS Foundation Trust","city":"London","country":"United Kingdom","geoPoint":{"lat":51.50853,"lon":-0.12574}},{"facility":"The Christie NHS Foundation Trust","city":"Manchester","country":"United Kingdom","geoPoint":{"lat":53.48095,"lon":-2.23743}},{"facility":"Oxford University Hospitals NHS Foundation Trust","city":"Oxford","country":"United Kingdom","geoPoint":{"lat":51.75222,"lon":-1.25596}},{"facility":"The Royal Marsden NHS Foundation Trust","city":"Sutton","country":"United Kingdom","geoPoint":{"lat":51.35,"lon":-0.2}}]},"referencesModule":{"seeAlsoLinks":[{"label":"STAR-221 Public Website","url":"https://trials.arcusbio.com/study/?id=STAR-221"}]},"ipdSharingStatementModule":{"ipdSharing":"YES","description":"Arcus will provide access to individual de-identified participant data and related study documents \\[e.g. protocol, Statistical Analysis Plan (SAP), Clinical Study Report (CSR)\\] upon request from qualified researchers, and subject to certain criteria, conditions, and exceptions.\n\nFor more information, please visit our website.","infoTypes":["STUDY_PROTOCOL","SAP","CSR"],"url":"https://trials.arcusbio.com/our-transparency-policy"}},"derivedSection":{"miscInfoModule":{"versionHolder":"2026-02-25","removedCountries":["Greece"]},"conditionBrowseModule":{"meshes":[{"id":"C562730","term":"Adenocarcinoma Of Esophagus"},{"id":"D013274","term":"Stomach Neoplasms"}],"ancestors":[{"id":"D005770","term":"Gastrointestinal Neoplasms"},{"id":"D004067","term":"Digestive System Neoplasms"},{"id":"D009371","term":"Neoplasms by Site"},{"id":"D009369","term":"Neoplasms"},{"id":"D004066","term":"Digestive System Diseases"},{"id":"D005767","term":"Gastrointestinal Diseases"},{"id":"D013272","term":"Stomach Diseases"}]},"interventionBrowseModule":{"meshes":[{"id":"C000719848","term":"zimberelimab"},{"id":"D000069287","term":"Capecitabine"},{"id":"D005472","term":"Fluorouracil"},{"id":"D002955","term":"Leucovorin"},{"id":"D000077150","term":"Oxaliplatin"},{"id":"D000077594","term":"Nivolumab"}],"ancestors":[{"id":"D003841","term":"Deoxycytidine"},{"id":"D003562","term":"Cytidine"},{"id":"D011741","term":"Pyrimidine Nucleosides"},{"id":"D011743","term":"Pyrimidines"},{"id":"D006573","term":"Heterocyclic Compounds, 1-Ring"},{"id":"D006571","term":"Heterocyclic Compounds"},{"id":"D014498","term":"Uracil"},{"id":"D011744","term":"Pyrimidinones"},{"id":"D003853","term":"Deoxyribonucleosides"},{"id":"D009705","term":"Nucleosides"},{"id":"D009706","term":"Nucleic Acids, Nucleotides, and Nucleosides"},{"id":"D005575","term":"Formyltetrahydrofolates"},{"id":"D013763","term":"Tetrahydrofolates"},{"id":"D005492","term":"Folic Acid"},{"id":"D011622","term":"Pterins"},{"id":"D011621","term":"Pteridines"},{"id":"D006574","term":"Heterocyclic Compounds, 2-Ring"},{"id":"D000072471","term":"Heterocyclic Compounds, Fused-Ring"},{"id":"D003067","term":"Coenzymes"},{"id":"D045762","term":"Enzymes and Coenzymes"},{"id":"D056831","term":"Coordination Complexes"},{"id":"D009930","term":"Organic Chemicals"},{"id":"D061067","term":"Antibodies, Monoclonal, Humanized"},{"id":"D000911","term":"Antibodies, Monoclonal"},{"id":"D000906","term":"Antibodies"},{"id":"D007136","term":"Immunoglobulins"},{"id":"D007162","term":"Immunoproteins"},{"id":"D001798","term":"Blood Proteins"},{"id":"D011506","term":"Proteins"},{"id":"D000602","term":"Amino Acids, Peptides, and Proteins"},{"id":"D012712","term":"Serum Globulins"},{"id":"D005916","term":"Globulins"}]}},"hasResults":false},
{"protocolSection":{"identificationModule":{"nctId":"NCT05891171","orgStudyIdInfo":{"id":"ARC-25"},"organization":{"fullName":"Arcus Biosciences, Inc.","class":"INDUSTRY"},"briefTitle":"Study of AB598 Monotherapy and Combination Therapy in Participants With Advanced Cancers","officialTitle":"A Phase 1/1b Study to Evaluate the Safety and Tolerability of AB598 Monotherapy and Combination Therapy in Participants With Advanced Malignancies","acronym":"ARC-25"},"statusModule":{"statusVerifiedDate":"2025-05","overallStatus":"ACTIVE_NOT_RECRUITING","expandedAccessInfo":{"hasExpandedAccess":false},"startDateStruct":{"date":"2023-10-13","type":"ACTUAL"},"primaryCompletionDateStruct":{"date":"2026-03","type":"ESTIMATED"},"completionDateStruct":{"date":"2026-03","type":"ESTIMATED"},"studyFirstSubmitDate":"2023-05-26","studyFirstSubmitQcDate":"2023-05-26","studyFirstPostDateStruct":{"date":"2023-06-06","type":"ACTUAL"},"lastUpdateSubmitDate":"2026-01-27","lastUpdatePostDateStruct":{"date":"2026-01-29","type":"ACTUAL"}},"sponsorCollaboratorsModule":{"responsibleParty":{"type":"SPONSOR"},"leadSponsor":{"name":"Arcus Biosciences, Inc.","class":"INDUSTRY"}},"oversightModule":{"isFdaRegulatedDrug":true,"isFdaRegulatedDevice":false},"descriptionModule":{"briefSummary":"The primary purpose of this study is to assess the safety and tolerability of AB598 in participants with advanced malignancies."},"conditionsModule":{"conditions":["Advanced Cancer","Advanced Malignancies","Bladder Cancer","Cervical Cancer","Esophageal Cancer","Gastric Cancer","Gastroesophageal-junction Cancer (GEJ)","Head and Neck Squamous Cell Carcinoma (HNSCC)","Non-Small Cell Lung Cancer (NSCLC)","Ovarian Cancer","Renal Cell Carcinoma (RCC)","Triple Negative Breast Cancer (TNBC)"],"keywords":["AB598","AB122","Zimberelimab"]},"designModule":{"studyType":"INTERVENTIONAL","phases":["PHASE1"],"designInfo":{"allocation":"NON_RANDOMIZED","interventionModel":"SEQUENTIAL","primaryPurpose":"TREATMENT","maskingInfo":{"masking":"NONE"}},"enrollmentInfo":{"count":40,"type":"ACTUAL"}},"armsInterventionsModule":{"armGroups":[{"label":"Dose Escalation Cohort 1","type":"EXPERIMENTAL","description":"Participants will receive AB598 intravenous (IV) infusion once every 3 weeks","interventionNames":["Drug: AB598"]},{"label":"Dose Escalation Cohort 2","type":"EXPERIMENTAL","description":"Participants will receive AB598 IV infusion once every 3 weeks","interventionNames":["Drug: AB598"]},{"label":"Dose Escalation Cohort 3","type":"EXPERIMENTAL","description":"Participants will receive AB598 IV infusion once every 3 weeks","interventionNames":["Drug: AB598"]},{"label":"Dose Escalation Cohort 4","type":"EXPERIMENTAL","description":"Participants will receive AB598 IV infusion once every 3 weeks","interventionNames":["Drug: AB598"]},{"label":"Pharmacodynamic Cohort 1","type":"EXPERIMENTAL","description":"Participants will receive AB598 IV infusion once every 3 weeks","interventionNames":["Drug: AB598"]},{"label":"Pharmacodynamic Cohort 2","type":"EXPERIMENTAL","description":"Participants will receive AB598 IV infusion once every 3 weeks","interventionNames":["Drug: AB598"]},{"label":"Pharmacodynamic Cohort 3","type":"EXPERIMENTAL","description":"Participants will receive AB598 IV infusion once every 3 weeks","interventionNames":["Drug: AB598"]},{"label":"Dose Expansion Gastric/GEJ Cancer (phase 1b)","type":"EXPERIMENTAL","description":"Participants will receive AB598 IV infusion every 2 weeks in combination with zimberelimab and FOLFOX (oxaliplatin, leucovorin, fluorouracil)","interventionNames":["Drug: AB598","Drug: Zimberelimab","Drug: Fluorouracil","Drug: Leucovorin","Drug: Oxaliplatin"]}],"interventions":[{"type":"DRUG","name":"AB598","description":"Administered as specified in the treatment arm","armGroupLabels":["Dose Escalation Cohort 1","Dose Escalation Cohort 2","Dose Escalation Cohort 3","Dose Escalation Cohort 4","Dose Expansion Gastric/GEJ Cancer (phase 1b)","Pharmacodynamic Cohort 1","Pharmacodynamic Cohort 2","Pharmacodynamic Cohort 3"]},{"type":"DRUG","name":"Zimberelimab","description":"Administered as specified in the treatment arm","armGroupLabels":["Dose Expansion Gastric/GEJ Cancer (phase 1b)"],"otherNames":["AB122"]},{"type":"DRUG","name":"Fluorouracil","description":"Administered as specified in the treatment arm","armGroupLabels":["Dose Expansion Gastric/GEJ Cancer (phase 1b)"]},{"type":"DRUG","name":"Leucovorin","description":"Administered as specified in the treatment arm","armGroupLabels":["Dose Expansion Gastric/GEJ Cancer (phase 1b)"]},{"type":"DRUG","name":"Oxaliplatin","description":"Administered as specified in the treatment arm","armGroupLabels":["Dose Expansion Gastric/GEJ Cancer (phase 1b)"]}]},"outcomesModule":{"primaryOutcomes":[{"measure":"Number of Participants with Adverse Events (AEs) and Serious Adverse Events (SAEs)","timeFrame":"Up to 2 years"},{"measure":"Dose Escalation Cohorts: Number of Participants with Dose-Limiting Toxicities (DLTs)","timeFrame":"Up to 2 years"}],"secondaryOutcomes":[{"measure":"Area Under the Concentration-Time Curve from Administration (\"0\") to the Time That the Drug is No Longer Present in the Body (\"infinity\") (AUC 0-inf) in Whole Blood and Plasma","timeFrame":"Predose, Up to 4 hours post dose"},{"measure":"Maximum Concentration (Cmax) in Whole Blood and Plasma","timeFrame":"Predose, Up to 4 hours post dose"},{"measure":"Time to Maximum Concentration (Tmax) in Whole Blood and Plasma","timeFrame":"Predose, Up to 4 hours post dose"},{"measure":"Number of Participants Who Test Positive for Antidrug Antibodies (ADAs) to AB598","timeFrame":"Up to 2 years"},{"measure":"Objective Response Rate (ORR)","timeFrame":"Up to 2 years"},{"measure":"Dose Expansion Cohort: Duration of Response (DOR)","timeFrame":"Up to 2 years"}]},"eligibilityModule":{"eligibilityCriteria":"Key Inclusion Criteria:\n\n* Must have at least 1 measurable lesion per Response Evaluation Criteria in Solid Tumors (RECIST) guidance\n* Eastern Cooperative Oncology Group (ECOG) performance status score of 0 or 1\n* Prior systemic radiation or whole brain radiation therapy must have been completed at least 4 weeks before investigational product (IP) administration. Other palliative radiotherapy must be completed 2 weeks before investigational product administration, if radiation therapy-related AEs have resolved to Grade ≤ 1.\n* Monotherapy-specific criteria for dose escalation and PD cohorts:\n\n  * Dose Escalation: Participants may have any pathologically confirmed advanced or metastatic solid tumor for which standard therapy has proven ineffective, intolerable, or is considered inappropriate.\n  * Pharmacodynamic Cohorts: Participants may have any pathologically confirmed advanced or metastatic solid tumors for which standard therapy has proven ineffective, intolerable, or is considered inappropriate. Participants must be able to undergo collection of a fresh frozen biopsy during screening, as well as provide an on-treatment fresh frozen biopsy.\n* Dose Expansion cohort criteria:\n\n  * Histologically confirmed, documented diagnosis of HER2-negative locally advanced unresectable or metastatic gastric or GEJ adenocarcinoma.\n  * No prior systemic treatment for locally advanced unresectable or metastatic disease.\n  * Cannot have progressed within 6 months of prior platinum-based chemotherapy for earlier stage disease.\n\nKey Exclusion Criteria:\n\n* Use of any live vaccines against infectious diseases (eg, influenza, varicella) within 4 weeks (28 days) of initiation of study\n* Underlying medical conditions or AEs that, in the investigator or sponsor's opinion, will make the administration of the study drugs hazardous\n* Any active or documented history of autoimmune disease including but not limited to inflammatory bowel disease, celiac disease, Wegner syndrome, Hashimoto syndrome, systemic lupus erythematosus, scleroderma, sarcoidosis, or autoimmune hepatitis, within 3 years of the first dose of study treatment\n* History of trauma or major surgery within 28 days prior to the first dose of study drug\n* Treatment with systemic immunosuppressive medication within 2 weeks prior to initiation of study treatment, or anticipation of need for systemic immunosuppressant medication during study treatment with certain protocol specified exceptions\n\nNote: Other protocol defined Inclusion/Exclusion criteria may apply.","healthyVolunteers":false,"sex":"ALL","minimumAge":"18 Years","stdAges":["ADULT","OLDER_ADULT"]},"contactsLocationsModule":{"overallOfficials":[{"name":"Medical Director","affiliation":"Arcus Biosciences","role":"STUDY_DIRECTOR"}],"locations":[{"facility":"Mayo Clinic Arizona","city":"Phoenix","state":"Arizona","zip":"85054","country":"United States","geoPoint":{"lat":33.44838,"lon":-112.07404}},{"facility":"Mayo Clinic Florida","city":"Jacksonville","state":"Florida","zip":"32224","country":"United States","geoPoint":{"lat":30.33218,"lon":-81.65565}},{"facility":"Lake City Cancer Care, LLC.","city":"Lake City","state":"Florida","zip":"32024","country":"United States","geoPoint":{"lat":30.18968,"lon":-82.63929}},{"facility":"Affinity Health Hope and Healing Cancer Services, LLC","city":"Hinsdale","state":"Illinois","zip":"60521","country":"United States","geoPoint":{"lat":41.80086,"lon":-87.93701}},{"facility":"Karmanos Cancer Institute","city":"Detroit","state":"Michigan","zip":"48201","country":"United States","geoPoint":{"lat":42.33143,"lon":-83.04575}},{"facility":"Mayo Clinic Rochester","city":"Rochester","state":"Minnesota","zip":"55905","country":"United States","geoPoint":{"lat":44.02163,"lon":-92.4699}},{"facility":"Rutgers Cancer Institute of New Jersey","city":"New Brunswick","state":"New Jersey","zip":"08901","country":"United States","geoPoint":{"lat":40.48622,"lon":-74.45182}},{"facility":"Gabrail Cancer Center (GCC) Canton Facility","city":"Canton","state":"Ohio","zip":"44718","country":"United States","geoPoint":{"lat":40.79895,"lon":-81.37845}},{"facility":"University Hospitals Cleveland Medical Center","city":"Cleveland","state":"Ohio","zip":"44106","country":"United States","geoPoint":{"lat":41.4995,"lon":-81.69541}},{"facility":"Next Oncology Dallas","city":"Irving","state":"Texas","zip":"75039","country":"United States","geoPoint":{"lat":32.81402,"lon":-96.94889}},{"facility":"Next Oncology Virginia","city":"Fairfax","state":"Virginia","zip":"22031","country":"United States","geoPoint":{"lat":38.84622,"lon":-77.30637}},{"facility":"Adelaide Cancer Research","city":"Adelaide","country":"Australia","geoPoint":{"lat":-34.92866,"lon":138.59863}},{"facility":"Queen Elizabeth Hospital","city":"Adelaide","country":"Australia","geoPoint":{"lat":-34.92866,"lon":138.59863}},{"facility":"National Cheng Kung University Hospital","city":"Tainan","country":"Taiwan","geoPoint":{"lat":22.99083,"lon":120.21333}},{"facility":"Taipei Veterans General Hospital","city":"Taipei","country":"Taiwan","geoPoint":{"lat":25.05306,"lon":121.52639}}]},"referencesModule":{"seeAlsoLinks":[{"label":"ARC-25 - Public website","url":"https://trials.arcusbio.com/study/?id=ARC-25"}]},"ipdSharingStatementModule":{"ipdSharing":"YES","description":"Arcus will provide access to individual de-identified participant data and related study documents (e.g., protocol, Statistical Analysis Plan \\[SAP\\], Clinical Study Report \\[CSR\\]) upon request from qualified researchers, and subject to certain criteria, conditions, and exceptions.\n\nFor more information, please visit our website.","infoTypes":["STUDY_PROTOCOL","SAP","CSR"],"url":"https://trials.arcusbio.com/our-transparency-policy"}},"derivedSection":{"miscInfoModule":{"versionHolder":"2026-02-25"},"conditionBrowseModule":{"meshes":[{"id":"D001749","term":"Urinary Bladder Neoplasms"},{"id":"D002583","term":"Uterine Cervical Neoplasms"},{"id":"D004938","term":"Esophageal Neoplasms"},{"id":"D013274","term":"Stomach Neoplasms"},{"id":"D000077195","term":"Squamous Cell Carcinoma of Head and Neck"},{"id":"D002289","term":"Carcinoma, Non-Small-Cell Lung"},{"id":"D010051","term":"Ovarian Neoplasms"},{"id":"D002292","term":"Carcinoma, Renal Cell"},{"id":"D064726","term":"Triple Negative Breast Neoplasms"}],"ancestors":[{"id":"D014571","term":"Urologic Neoplasms"},{"id":"D014565","term":"Urogenital Neoplasms"},{"id":"D009371","term":"Neoplasms by Site"},{"id":"D009369","term":"Neoplasms"},{"id":"D052776","term":"Female Urogenital Diseases"},{"id":"D005261","term":"Female Urogenital Diseases and Pregnancy Complications"},{"id":"D000091642","term":"Urogenital Diseases"},{"id":"D001745","term":"Urinary Bladder Diseases"},{"id":"D014570","term":"Urologic Diseases"},{"id":"D052801","term":"Male Urogenital Diseases"},{"id":"D014594","term":"Uterine Neoplasms"},{"id":"D005833","term":"Genital Neoplasms, Female"},{"id":"D002577","term":"Uterine Cervical Diseases"},{"id":"D014591","term":"Uterine Diseases"},{"id":"D005831","term":"Genital Diseases, Female"},{"id":"D000091662","term":"Genital Diseases"},{"id":"D005770","term":"Gastrointestinal Neoplasms"},{"id":"D004067","term":"Digestive System Neoplasms"},{"id":"D006258","term":"Head and Neck Neoplasms"},{"id":"D004066","term":"Digestive System Diseases"},{"id":"D004935","term":"Esophageal Diseases"},{"id":"D005767","term":"Gastrointestinal Diseases"},{"id":"D013272","term":"Stomach Diseases"},{"id":"D002294","term":"Carcinoma, Squamous Cell"},{"id":"D002277","term":"Carcinoma"},{"id":"D009375","term":"Neoplasms, Glandular and Epithelial"},{"id":"D009370","term":"Neoplasms by Histologic Type"},{"id":"D002283","term":"Carcinoma, Bronchogenic"},{"id":"D001984","term":"Bronchial Neoplasms"},{"id":"D008175","term":"Lung Neoplasms"},{"id":"D012142","term":"Respiratory Tract Neoplasms"},{"id":"D013899","term":"Thoracic Neoplasms"},{"id":"D008171","term":"Lung Diseases"},{"id":"D012140","term":"Respiratory Tract Diseases"},{"id":"D004701","term":"Endocrine Gland Neoplasms"},{"id":"D010049","term":"Ovarian Diseases"},{"id":"D000291","term":"Adnexal Diseases"},{"id":"D004700","term":"Endocrine System Diseases"},{"id":"D006058","term":"Gonadal Disorders"},{"id":"D000230","term":"Adenocarcinoma"},{"id":"D007680","term":"Kidney Neoplasms"},{"id":"D007674","term":"Kidney Diseases"},{"id":"D001943","term":"Breast Neoplasms"},{"id":"D001941","term":"Breast Diseases"},{"id":"D012871","term":"Skin Diseases"},{"id":"D017437","term":"Skin and Connective Tissue Diseases"}]},"interventionBrowseModule":{"meshes":[{"id":"C000719848","term":"zimberelimab"},{"id":"D005472","term":"Fluorouracil"},{"id":"D002955","term":"Leucovorin"},{"id":"D000077150","term":"Oxaliplatin"}],"ancestors":[{"id":"D014498","term":"Uracil"},{"id":"D011744","term":"Pyrimidinones"},{"id":"D011743","term":"Pyrimidines"},{"id":"D006573","term":"Heterocyclic Compounds, 1-Ring"},{"id":"D006571","term":"Heterocyclic Compounds"},{"id":"D005575","term":"Formyltetrahydrofolates"},{"id":"D013763","term":"Tetrahydrofolates"},{"id":"D005492","term":"Folic Acid"},{"id":"D011622","term":"Pterins"},{"id":"D011621","term":"Pteridines"},{"id":"D006574","term":"Heterocyclic Compounds, 2-Ring"},{"id":"D000072471","term":"Heterocyclic Compounds, Fused-Ring"},{"id":"D003067","term":"Coenzymes"},{"id":"D045762","term":"Enzymes and Coenzymes"},{"id":"D056831","term":"Coordination Complexes"},{"id":"D009930","term":"Organic Chemicals"}]}},"hasResults":false},
{"protocolSection":{"identificationModule":{"nctId":"NCT05688215","orgStudyIdInfo":{"id":"22-001565"},"secondaryIdInfos":[{"id":"NCI-2022-10208","type":"REGISTRY","domain":"CTRP (Clinical Trial Reporting Program)"}],"organization":{"fullName":"Jonsson Comprehensive Cancer Center","class":"OTHER"},"briefTitle":"Zimberelimab and Quemliclustat in Combination With Chemotherapy for the Treatment of Patients With Borderline Resectable and Locally Advanced Pancreatic Adenocarcinoma","officialTitle":"A Pilot Study of Zimberelimab and Quemliclustat Combination With Chemotherapy in Patients With Borderline Resectable and Locally Advanced Pancreatic Adenocarcinoma"},"statusModule":{"statusVerifiedDate":"2025-04","overallStatus":"RECRUITING","startDateStruct":{"date":"2023-03-07","type":"ACTUAL"},"primaryCompletionDateStruct":{"date":"2026-12-01","type":"ESTIMATED"},"completionDateStruct":{"date":"2027-03-02","type":"ESTIMATED"},"studyFirstSubmitDate":"2023-01-03","studyFirstSubmitQcDate":"2023-01-13","studyFirstPostDateStruct":{"date":"2023-01-18","type":"ACTUAL"},"lastUpdateSubmitDate":"2026-01-14","lastUpdatePostDateStruct":{"date":"2026-01-15","type":"ACTUAL"}},"sponsorCollaboratorsModule":{"responsibleParty":{"type":"SPONSOR"},"leadSponsor":{"name":"Jonsson Comprehensive Cancer Center","class":"OTHER"},"collaborators":[{"name":"Arcus Biosciences, Inc.","class":"INDUSTRY"}]},"oversightModule":{"oversightHasDmc":true,"isFdaRegulatedDrug":true,"isFdaRegulatedDevice":false,"isUsExport":false},"descriptionModule":{"briefSummary":"This phase I/II study tests how well zimberelimab and quemliclustat work in combination with chemotherapy (mFOLFIRINOX) in treating patients pancreatic adenocarcinoma that may or may not be able to be removed by surgery (borderline resectable) or that has spread to nearby tissue or lymph nodes (locally advanced). Immunotherapy with monoclonal antibodies, such as zimberelimab, may help the body's immune system attack the cancer, and may interfere with the ability of tumor cells to grow and spread. Quemliclustat acts as a blocker for adenosine. Adenosine is a chemical produced in the body that can lead to a decrease in the immune system's response towards cancer. Quemliclustat has the potential to decrease the amount of adenosine, allowing the immune system to recognize and act against the cancer. Chemotherapy drugs, such as oxaliplatin, irinotecan, leucovorin, and fluorouracil, work in different ways to stop the growth of cancer cells, either by killing the cells, by stopping them from dividing, or by stopping them from spreading. Giving chemotherapy in combination with zimberelimab and quemliclustat may kill more cancer cells than chemotherapy alone.","detailedDescription":"PRIMARY OBJECTIVES:\n\nI. To evaluate the safety, tolerability and resection rate (for borderline resectable pancreatic cancer \\[BRPC\\] cohort) or progression free survival (PFS) (for locally advanced pancreatic cancer \\[LAPC\\] cohort) in patients with borderline resectable pancreatic cancer (BRPC) or locally advanced pancreatic cancer (LAPC) treated with modified fluorouracil, irinotecan, leucovorin and oxaliplatin (mFOLFIRINOX), quemliclustat, and zimberelimab.\n\nII. To evaluate development of clinically relevant pancreatic fistula (for BRPC cohort) in the post-operative period after neoadjuvant treatment with mFOLFIRINOX, quemliclustat, and zimberelimab.\n\nSECONDARY OBJECTIVES:\n\nI. To estimate efficacy as measured by decreases in CA 19-9 and objective response rate (ORR) by imaging (unconfirmed complete and partial responses).\n\nII. To estimate the pathologic complete response rate (pCR) (for BRPC cohort) and overall survival (OS).\n\nEXPLORATORY OBJECTIVES:\n\nI. To evaluate the effects of zimberelimab, quemliclustat, and modified FOLFIRINOX (mFFX) on the tumor-stromal cells comparing pre-treatment core biopsies with operative specimens and on the effects on T cell infiltration, PD1 expression and the tumor microenvironment (TME).\n\nII. To investigate potential serum and tumor predictive biomarkers to predict response to experimental therapy.\n\nOUTLINE:\n\nPatients receive zimberelimab intravenously (IV), quemliclustat IV, oxaliplatin IV, leucovorin calcium IV, and inrinotecan IV on study. Patients undergo collection of blood samples and computed tomography (CT) throughout the trial. Patients with borderline-resectable pancreatic cancer undergo collection of tissue samples. Patients with locally advanced pancreatic cancer undergo core biopsy."},"conditionsModule":{"conditions":["Borderline Resectable Pancreatic Adenocarcinoma","Locally Advanced Pancreatic Ductal Adenocarcinoma"]},"designModule":{"studyType":"INTERVENTIONAL","phases":["PHASE1","PHASE2"],"designInfo":{"allocation":"NA","interventionModel":"SINGLE_GROUP","primaryPurpose":"TREATMENT","maskingInfo":{"masking":"NONE"}},"enrollmentInfo":{"count":56,"type":"ESTIMATED"}},